{"displayFieldName":"TOWNNAME","fieldAliases":{"ID":"ID","DIS_CODE":"DIS_CODE","TOWNNAME":"TOWNNAME","LI":"LI","LIN":"LIN","STREET":"STREET","SECT":"SECT","MAREA":"MAREA","LANE":"LANE","ALLEY":"ALLEY","HOUSE_NO":"HOUSE_NO","E_COORD97":"E_COORD97","N_COORD97":"N_COORD97","ADDRESS":"ADDRESS","OBJECTID":"OBJECTID"},"geometryType":"esriGeometryPoint","spatialReference":{"wkid":102443,"latestWkid":3826},"fields":[{"name":"ID","type":"esriFieldTypeDouble","alias":"ID"},{"name":"DIS_CODE","type":"esriFieldTypeInteger","alias":"DIS_CODE"},{"name":"TOWNNAME","type":"esriFieldTypeString","alias":"TOWNNAME","length":8},{"name":"LI","type":"esriFieldTypeString","alias":"LI","length":8},{"name":"LIN","type":"esriFieldTypeString","alias":"LIN","length":12},{"name":"STREET","type":"esriFieldTypeString","alias":"STREET","length":20},{"name":"SECT","type":"esriFieldTypeString","alias":"SECT","length":8},{"name":"MAREA","type":"esriFieldTypeString","alias":"MAREA","length":12},{"name":"LANE","type":"esriFieldTypeString","alias":"LANE","length":10},{"name":"ALLEY","type":"esriFieldTypeString","alias":"ALLEY","length":10},{"name":"HOUSE_NO","type":"esriFieldTypeString","alias":"HOUSE_NO","length":20},{"name":"E_COORD97","type":"esriFieldTypeDouble","alias":"E_COORD97"},{"name":"N_COORD97","type":"esriFieldTypeDouble","alias":"N_COORD97"},{"name":"ADDRESS","type":"esriFieldTypeString","alias":"ADDRESS","length":50},{"name":"OBJECTID","type":"esriFieldTypeOID","alias":"OBJECTID"}],"features":[{"attributes":{"ID":626028,"DIS_CODE":0,"TOWNNAME":"南區","LI":"再興里","LIN":"12鄰","STREET":"三官路","SECT":" ","MAREA":" ","LANE":" ","ALLEY":" ","HOUSE_NO":"２３２號三樓之１","E_COORD97":167100.01000000001,"N_COORD97":2541983.4900000002,"ADDRESS":"三官路２３２號三樓之１","OBJECTID":626001},"geometry":{"x":167100.01000000071,"y":2541983.4900000039}},{"attributes":{"ID":626029,"DIS_CODE":0,"TOWNNAME":"南區","LI":"再興里","LIN":"20鄰","STREET":"金華路","SECT":"二段","MAREA":" ","LANE":" ","ALLEY":" ","HOUSE_NO":"６４號三樓之２","E_COORD97":167083.82000000001,"N_COORD97":2541984.23,"ADDRESS":"金華路二段６４號三樓之２","OBJECTID":626002},"geometry":{"x":167083.8200000003,"y":2541984.2300000004}},{"attributes":{"ID":626030,"DIS_CODE":0,"TOWNNAME":"南區","LI":"再興里","LIN":"20鄰","STREET":"金華路","SECT":"二段","MAREA":" ","LANE":" ","ALLEY":" ","HOUSE_NO":"６４號四樓之１","E_COORD97":167083.82000000001,"N_COORD97":2541984.23,"ADDRESS":"金華路二段６４號四樓之１","OBJECTID":626003},"geometry":{"x":167083.8200000003,"y":2541984.2300000004}},{"attributes":{"ID":626031,"DIS_CODE":0,"TOWNNAME":"南區","LI":"再興里","LIN":"20鄰","STREET":"金華路","SECT":"二段","MAREA":" ","LANE":" ","ALLEY":" ","HOUSE_NO":"６４號四樓之２","E_COORD97":167083.82000000001,"N_COORD97":2541984.23,"ADDRESS":"金華路二段６４號四樓之２","OBJECTID":626004},"geometry":{"x":167083.8200000003,"y":2541984.2300000004}},{"attributes":{"ID":626032,"DIS_CODE":0,"TOWNNAME":"南區","LI":"再興里","LIN":"20鄰","STREET":"金華路","SECT":"二段","MAREA":" ","LANE":" ","ALLEY":" ","HOUSE_NO":"６４號五樓之１","E_COORD97":167083.82000000001,"N_COORD97":2541984.23,"ADDRESS":"金華路二段６４號五樓之１","OBJECTID":626005},"geometry":{"x":167083.8200000003,"y":2541984.2300000004}},{"attributes":{"ID":626033,"DIS_CODE":0,"TOWNNAME":"東區","LI":"德光里","LIN":"18鄰","STREET":"崇德一街","SECT":" ","MAREA":" ","LANE":" ","ALLEY":" ","HOUSE_NO":"７４號六樓","E_COORD97":170099.25,"N_COORD97":2542417.1299999999,"ADDRESS":"崇德一街７４號六樓","OBJECTID":626006},"geometry":{"x":170099.25,"y":2542417.129999999}},{"attributes":{"ID":626034,"DIS_CODE":0,"TOWNNAME":"東區","LI":"德光里","LIN":"7鄰","STREET":"崇德路","SECT":" ","MAREA":" ","LANE":" ","ALLEY":" ","HOUSE_NO":"１２８號七樓","E_COORD97":169965.67000000001,"N_COORD97":2542233.1899999999,"ADDRESS":"崇德路１２８號七樓","OBJECTID":626007},"geometry":{"x":169965.67000000086,"y":2542233.1900000013}},{"attributes":{"ID":626035,"DIS_CODE":0,"TOWNNAME":"東區","LI":"德光里","LIN":"4鄰","STREET":"崇德路","SECT":" ","MAREA":" ","LANE":" ","ALLEY":" ","HOUSE_NO":"５４號二樓","E_COORD97":169792.89999999999,"N_COORD97":2542398.9300000002,"ADDRESS":"崇德路５４號二樓","OBJECTID":626008},"geometry":{"x":169792.9000000013,"y":2542398.9299999997}},{"attributes":{"ID":626036,"DIS_CODE":0,"TOWNNAME":"東區","LI":"德光里","LIN":"4鄰","STREET":"崇德路","SECT":" ","MAREA":" ","LANE":" ","ALLEY":" ","HOUSE_NO":"５４號三樓","E_COORD97":169792.89999999999,"N_COORD97":2542398.9300000002,"ADDRESS":"崇德路５４號三樓","OBJECTID":626009},"geometry":{"x":169792.9000000013,"y":2542398.9299999997}},{"attributes":{"ID":626037,"DIS_CODE":0,"TOWNNAME":"東區","LI":"德光里","LIN":"4鄰","STREET":"崇德路","SECT":" ","MAREA":" ","LANE":" ","ALLEY":" ","HOUSE_NO":"５４號五樓","E_COORD97":169792.89999999999,"N_COORD97":2542398.9300000002,"ADDRESS":"崇德路５４號五樓","OBJECTID":626010},"geometry":{"x":169792.9000000013,"y":2542398.9299999997}},{"attributes":{"ID":626038,"DIS_CODE":0,"TOWNNAME":"東區","LI":"德光里","LIN":"4鄰","STREET":"崇德路","SECT":" ","MAREA":" ","LANE":" ","ALLEY":" ","HOUSE_NO":"５４號四樓","E_COORD97":169792.89999999999,"N_COORD97":2542398.9300000002,"ADDRESS":"崇德路５４號四樓","OBJECTID":626011},"geometry":{"x":169792.9000000013,"y":2542398.9299999997}},{"attributes":{"ID":626039,"DIS_CODE":0,"TOWNNAME":"東區","LI":"德光里","LIN":"4鄰","STREET":"崇德路","SECT":" ","MAREA":" ","LANE":" ","ALLEY":" ","HOUSE_NO":"５６號七樓","E_COORD97":169796.85999999999,"N_COORD97":2542387.3199999998,"ADDRESS":"崇德路５６號七樓","OBJECTID":626012},"geometry":{"x":169796.86000000127,"y":2542387.3200000003}},{"attributes":{"ID":626040,"DIS_CODE":0,"TOWNNAME":"東區","LI":"德光里","LIN":"4鄰","STREET":"崇德路","SECT":" ","MAREA":" ","LANE":" ","ALLEY":" ","HOUSE_NO":"５６號二樓","E_COORD97":169796.85999999999,"N_COORD97":2542387.3199999998,"ADDRESS":"崇德路５６號二樓","OBJECTID":626013},"geometry":{"x":169796.86000000127,"y":2542387.3200000003}},{"attributes":{"ID":626041,"DIS_CODE":0,"TOWNNAME":"東區","LI":"德光里","LIN":"4鄰","STREET":"崇德路","SECT":" ","MAREA":" ","LANE":" ","ALLEY":" ","HOUSE_NO":"５６號三樓","E_COORD97":169796.85999999999,"N_COORD97":2542387.3199999998,"ADDRESS":"崇德路５６號三樓","OBJECTID":626014},"geometry":{"x":169796.86000000127,"y":2542387.3200000003}},{"attributes":{"ID":626042,"DIS_CODE":0,"TOWNNAME":"東區","LI":"德光里","LIN":"4鄰","STREET":"崇德路","SECT":" ","MAREA":" ","LANE":" ","ALLEY":" ","HOUSE_NO":"５６號五樓","E_COORD97":169796.85999999999,"N_COORD97":2542387.3199999998,"ADDRESS":"崇德路５６號五樓","OBJECTID":626015},"geometry":{"x":169796.86000000127,"y":2542387.3200000003}},{"attributes":{"ID":626043,"DIS_CODE":0,"TOWNNAME":"東區","LI":"德光里","LIN":"4鄰","STREET":"崇德路","SECT":" ","MAREA":" ","LANE":" ","ALLEY":" ","HOUSE_NO":"５６號六樓","E_COORD97":169796.85999999999,"N_COORD97":2542387.3199999998,"ADDRESS":"崇德路５６號六樓","OBJECTID":626016},"geometry":{"x":169796.86000000127,"y":2542387.3200000003}},{"attributes":{"ID":626044,"DIS_CODE":0,"TOWNNAME":"東區","LI":"德光里","LIN":"4鄰","STREET":"崇德路","SECT":" ","MAREA":" ","LANE":" ","ALLEY":" ","HOUSE_NO":"５６號四樓","E_COORD97":169796.85999999999,"N_COORD97":2542387.3199999998,"ADDRESS":"崇德路５６號四樓","OBJECTID":626017},"geometry":{"x":169796.86000000127,"y":2542387.3200000003}},{"attributes":{"ID":626045,"DIS_CODE":0,"TOWNNAME":"東區","LI":"德光里","LIN":"4鄰","STREET":"崇德路","SECT":" ","MAREA":" ","LANE":" ","ALLEY":" ","HOUSE_NO":"５８號七樓","E_COORD97":169801.97,"N_COORD97":2542374.7799999998,"ADDRESS":"崇德路５８號七樓","OBJECTID":626018},"geometry":{"x":169801.97000000067,"y":2542374.7800000012}},{"attributes":{"ID":626046,"DIS_CODE":0,"TOWNNAME":"東區","LI":"德光里","LIN":"4鄰","STREET":"崇德路","SECT":" ","MAREA":" ","LANE":" ","ALLEY":" ","HOUSE_NO":"５８號二樓","E_COORD97":169801.97,"N_COORD97":2542374.7799999998,"ADDRESS":"崇德路５８號二樓","OBJECTID":626019},"geometry":{"x":169801.97000000067,"y":2542374.7800000012}},{"attributes":{"ID":626047,"DIS_CODE":0,"TOWNNAME":"東區","LI":"德光里","LIN":"4鄰","STREET":"崇德路","SECT":" ","MAREA":" ","LANE":" ","ALLEY":" ","HOUSE_NO":"５８號三樓","E_COORD97":169801.97,"N_COORD97":2542374.7799999998,"ADDRESS":"崇德路５８號三樓","OBJECTID":626020},"geometry":{"x":169801.97000000067,"y":2542374.7800000012}},{"attributes":{"ID":626048,"DIS_CODE":0,"TOWNNAME":"東區","LI":"德光里","LIN":"4鄰","STREET":"崇德路","SECT":" ","MAREA":" ","LANE":" ","ALLEY":" ","HOUSE_NO":"５８號六樓","E_COORD97":169801.97,"N_COORD97":2542374.7799999998,"ADDRESS":"崇德路５８號六樓","OBJECTID":626021},"geometry":{"x":169801.97000000067,"y":2542374.7800000012}},{"attributes":{"ID":626049,"DIS_CODE":0,"TOWNNAME":"東區","LI":"德光里","LIN":"4鄰","STREET":"崇德路","SECT":" ","MAREA":" ","LANE":" ","ALLEY":" ","HOUSE_NO":"６４號八樓","E_COORD97":169806.54999999999,"N_COORD97":2542365.3999999999,"ADDRESS":"崇德路６４號八樓","OBJECTID":626022},"geometry":{"x":169806.55000000075,"y":2542365.4000000022}},{"attributes":{"ID":626050,"DIS_CODE":0,"TOWNNAME":"東區","LI":"德光里","LIN":"4鄰","STREET":"崇德路","SECT":" ","MAREA":" ","LANE":" ","ALLEY":" ","HOUSE_NO":"６４號三樓","E_COORD97":169806.54999999999,"N_COORD97":2542365.3999999999,"ADDRESS":"崇德路６４號三樓","OBJECTID":626023},"geometry":{"x":169806.55000000075,"y":2542365.4000000022}},{"attributes":{"ID":626051,"DIS_CODE":0,"TOWNNAME":"東區","LI":"德光里","LIN":"4鄰","STREET":"崇德路","SECT":" ","MAREA":" ","LANE":" ","ALLEY":" ","HOUSE_NO":"６４號五樓","E_COORD97":169806.54999999999,"N_COORD97":2542365.3999999999,"ADDRESS":"崇德路６４號五樓","OBJECTID":626024},"geometry":{"x":169806.55000000075,"y":2542365.4000000022}},{"attributes":{"ID":626052,"DIS_CODE":0,"TOWNNAME":"東區","LI":"崇文里","LIN":"13鄰","STREET":"崇德十九街","SECT":" ","MAREA":" ","LANE":" ","ALLEY":" ","HOUSE_NO":"１９號二樓","E_COORD97":170874.42000000001,"N_COORD97":2540989.98,"ADDRESS":"崇德十九街１９號二樓","OBJECTID":626025},"geometry":{"x":170874.41999999993,"y":2540989.9800000004}},{"attributes":{"ID":626053,"DIS_CODE":0,"TOWNNAME":"東區","LI":"新東里","LIN":"13鄰","STREET":"裕農路","SECT":" ","MAREA":" ","LANE":" ","ALLEY":" ","HOUSE_NO":"５１號二樓","E_COORD97":170686.17999999999,"N_COORD97":2542921.3399999999,"ADDRESS":"裕農路５１號二樓","OBJECTID":626026},"geometry":{"x":170686.1799999997,"y":2542921.3400000017}},{"attributes":{"ID":626054,"DIS_CODE":0,"TOWNNAME":"東區","LI":"新東里","LIN":"13鄰","STREET":"裕農路","SECT":" ","MAREA":" ","LANE":" ","ALLEY":" ","HOUSE_NO":"５１號三樓","E_COORD97":170686.17999999999,"N_COORD97":2542921.3399999999,"ADDRESS":"裕農路５１號三樓","OBJECTID":626027},"geometry":{"x":170686.1799999997,"y":2542921.3400000017}},{"attributes":{"ID":626055,"DIS_CODE":0,"TOWNNAME":"東區","LI":"新東里","LIN":"13鄰","STREET":"裕農路","SECT":" ","MAREA":" ","LANE":" ","ALLEY":" ","HOUSE_NO":"５１號四樓","E_COORD97":170686.17999999999,"N_COORD97":2542921.3399999999,"ADDRESS":"裕農路５１號四樓","OBJECTID":626028},"geometry":{"x":170686.1799999997,"y":2542921.3400000017}},{"attributes":{"ID":626056,"DIS_CODE":0,"TOWNNAME":"仁德區","LI":"上崙里","LIN":"4鄰","STREET":"德崙路","SECT":" ","MAREA":" ","LANE":" ","ALLEY":" ","HOUSE_NO":"２５９號三樓之１","E_COORD97":173819.82000000001,"N_COORD97":2538185.79,"ADDRESS":"德崙路２５９號三樓之１","OBJECTID":626029},"geometry":{"x":173819.82000000123,"y":2538185.7899999991}},{"attributes":{"ID":626057,"DIS_CODE":0,"TOWNNAME":"仁德區","LI":"上崙里","LIN":"4鄰","STREET":"德崙路","SECT":" ","MAREA":" ","LANE":" ","ALLEY":" ","HOUSE_NO":"２５９號六樓之３","E_COORD97":173819.92000000001,"N_COORD97":2538185.79,"ADDRESS":"德崙路２５９號六樓之３","OBJECTID":626030},"geometry":{"x":173819.92000000086,"y":2538185.7899999991}},{"attributes":{"ID":626058,"DIS_CODE":0,"TOWNNAME":"仁德區","LI":"上崙里","LIN":"4鄰","STREET":"德崙路","SECT":" ","MAREA":" ","LANE":" ","ALLEY":" ","HOUSE_NO":"２５９號五樓之２","E_COORD97":173819.95999999999,"N_COORD97":2538185.79,"ADDRESS":"德崙路２５９號五樓之２","OBJECTID":626031},"geometry":{"x":173819.96000000089,"y":2538185.7899999991}},{"attributes":{"ID":626059,"DIS_CODE":0,"TOWNNAME":"仁德區","LI":"土庫里","LIN":"13鄰","STREET":"土庫路","SECT":" ","MAREA":" ","LANE":" ","ALLEY":" ","HOUSE_NO":"１８９號八樓之３","E_COORD97":174332.51999999999,"N_COORD97":2542938.29,"ADDRESS":"土庫路１８９號八樓之３","OBJECTID":626032},"geometry":{"x":174332.52000000048,"y":2542938.2899999991}},{"attributes":{"ID":626060,"DIS_CODE":0,"TOWNNAME":"仁德區","LI":"後壁里","LIN":"42鄰","STREET":"德崙路","SECT":" ","MAREA":" ","LANE":" ","ALLEY":" ","HOUSE_NO":"７０號三樓之２","E_COORD97":173359.64999999999,"N_COORD97":2538515.54,"ADDRESS":"德崙路７０號三樓之２","OBJECTID":626033},"geometry":{"x":173359.6500000013,"y":2538515.5399999991}},{"attributes":{"ID":626061,"DIS_CODE":0,"TOWNNAME":"仁德區","LI":"土庫里","LIN":"13鄰","STREET":"土庫路","SECT":" ","MAREA":" ","LANE":" ","ALLEY":" ","HOUSE_NO":"１９７號五樓之２","E_COORD97":174322.04999999999,"N_COORD97":2542926.5499999998,"ADDRESS":"土庫路１９７號五樓之２","OBJECTID":626034},"geometry":{"x":174322.04999999981,"y":2542926.5500000026}},{"attributes":{"ID":626062,"DIS_CODE":0,"TOWNNAME":"仁德區","LI":"仁義里","LIN":"33鄰","STREET":"中正路","SECT":"三段","MAREA":" ","LANE":" ","ALLEY":" ","HOUSE_NO":"３６號一樓","E_COORD97":173332.29000000001,"N_COORD97":2541449.0299999998,"ADDRESS":"中正路三段３６號一樓","OBJECTID":626035},"geometry":{"x":173332.29000000004,"y":2541449.0299999993}},{"attributes":{"ID":626063,"DIS_CODE":0,"TOWNNAME":"仁德區","LI":"仁義里","LIN":"25鄰","STREET":"正義一街","SECT":" ","MAREA":" ","LANE":" ","ALLEY":" ","HOUSE_NO":"３９號四樓","E_COORD97":173419.45000000001,"N_COORD97":2541403.2599999998,"ADDRESS":"正義一街３９號四樓","OBJECTID":626036},"geometry":{"x":173419.45000000019,"y":2541403.2599999998}},{"attributes":{"ID":626064,"DIS_CODE":0,"TOWNNAME":"仁德區","LI":"上崙里","LIN":"4鄰","STREET":"德崙路","SECT":" ","MAREA":" ","LANE":" ","ALLEY":" ","HOUSE_NO":"２５９號四樓之３","E_COORD97":173819.92000000001,"N_COORD97":2538185.79,"ADDRESS":"德崙路２５９號四樓之３","OBJECTID":626037},"geometry":{"x":173819.92000000086,"y":2538185.7899999991}},{"attributes":{"ID":626065,"DIS_CODE":0,"TOWNNAME":"仁德區","LI":"上崙里","LIN":"4鄰","STREET":"德崙路","SECT":" ","MAREA":" ","LANE":" ","ALLEY":" ","HOUSE_NO":"２５９號六樓之１","E_COORD97":173819.82000000001,"N_COORD97":2538185.79,"ADDRESS":"德崙路２５９號六樓之１","OBJECTID":626038},"geometry":{"x":173819.82000000123,"y":2538185.7899999991}},{"attributes":{"ID":626066,"DIS_CODE":0,"TOWNNAME":"仁德區","LI":"上崙里","LIN":"4鄰","STREET":"德崙路","SECT":" ","MAREA":" ","LANE":" ","ALLEY":" ","HOUSE_NO":"２５１號六樓之２","E_COORD97":173796.85999999999,"N_COORD97":2538191.79,"ADDRESS":"德崙路２５１號六樓之２","OBJECTID":626039},"geometry":{"x":173796.8600000022,"y":2538191.7899999991}},{"attributes":{"ID":626067,"DIS_CODE":0,"TOWNNAME":"仁德區","LI":"上崙里","LIN":"4鄰","STREET":"德崙路","SECT":" ","MAREA":" ","LANE":" ","ALLEY":" ","HOUSE_NO":"２５１號七樓之５","E_COORD97":173796.88,"N_COORD97":2538191.79,"ADDRESS":"德崙路２５１號七樓之５","OBJECTID":626040},"geometry":{"x":173796.88000000082,"y":2538191.7899999991}},{"attributes":{"ID":626068,"DIS_CODE":0,"TOWNNAME":"仁德區","LI":"上崙里","LIN":"4鄰","STREET":"德崙路","SECT":" ","MAREA":" ","LANE":" ","ALLEY":" ","HOUSE_NO":"２５１號四樓之１","E_COORD97":173796.72,"N_COORD97":2538191.79,"ADDRESS":"德崙路２５１號四樓之１","OBJECTID":626041},"geometry":{"x":173796.71999999974,"y":2538191.7899999991}},{"attributes":{"ID":626069,"DIS_CODE":0,"TOWNNAME":"仁德區","LI":"上崙里","LIN":"4鄰","STREET":"德崙路","SECT":" ","MAREA":" ","LANE":" ","ALLEY":" ","HOUSE_NO":"２５１號三樓之４","E_COORD97":173796.75,"N_COORD97":2538191.79,"ADDRESS":"德崙路２５１號三樓之４","OBJECTID":626042},"geometry":{"x":173796.75,"y":2538191.7899999991}},{"attributes":{"ID":626070,"DIS_CODE":0,"TOWNNAME":"仁德區","LI":"保安里","LIN":"12鄰","STREET":"開發一路","SECT":" ","MAREA":" ","LANE":" ","ALLEY":" ","HOUSE_NO":"９號三樓","E_COORD97":172344.60000000001,"N_COORD97":2535897.5099999998,"ADDRESS":"開發一路９號三樓","OBJECTID":626043},"geometry":{"x":172344.59999999963,"y":2535897.5100000016}},{"attributes":{"ID":626071,"DIS_CODE":0,"TOWNNAME":"仁德區","LI":"後壁里","LIN":"42鄰","STREET":"德崙路","SECT":" ","MAREA":" ","LANE":" ","ALLEY":" ","HOUSE_NO":"７０號七樓之３","E_COORD97":173359.60999999999,"N_COORD97":2538515.54,"ADDRESS":"德崙路７０號七樓之３","OBJECTID":626044},"geometry":{"x":173359.6100000022,"y":2538515.5399999991}},{"attributes":{"ID":626072,"DIS_CODE":0,"TOWNNAME":"仁德區","LI":"後壁里","LIN":"39鄰","STREET":"德安路","SECT":" ","MAREA":" ","LANE":" ","ALLEY":" ","HOUSE_NO":"８８之１號七樓之２","E_COORD97":173468.01000000001,"N_COORD97":2539065.5699999998,"ADDRESS":"德安路８８之１號七樓之２","OBJECTID":626045},"geometry":{"x":173468.00999999885,"y":2539065.5700000022}},{"attributes":{"ID":626073,"DIS_CODE":0,"TOWNNAME":"仁德區","LI":"上崙里","LIN":"4鄰","STREET":"德崙路","SECT":" ","MAREA":" ","LANE":" ","ALLEY":" ","HOUSE_NO":"２５１號七樓之３","E_COORD97":173796.82000000001,"N_COORD97":2538191.79,"ADDRESS":"德崙路２５１號七樓之３","OBJECTID":626046},"geometry":{"x":173796.8200000003,"y":2538191.7899999991}},{"attributes":{"ID":626074,"DIS_CODE":0,"TOWNNAME":"仁德區","LI":"上崙里","LIN":"4鄰","STREET":"德崙路","SECT":" ","MAREA":" ","LANE":" ","ALLEY":" ","HOUSE_NO":"２５１號二樓之４","E_COORD97":173796.75,"N_COORD97":2538191.79,"ADDRESS":"德崙路２５１號二樓之４","OBJECTID":626047},"geometry":{"x":173796.75,"y":2538191.7899999991}},{"attributes":{"ID":626075,"DIS_CODE":0,"TOWNNAME":"永康區","LI":"安康里","LIN":"4鄰","STREET":"大橋一街","SECT":" ","MAREA":" ","LANE":" ","ALLEY":" ","HOUSE_NO":"４７號五樓之２","E_COORD97":170696.29000000001,"N_COORD97":2546297.9199999999,"ADDRESS":"大橋一街４７號五樓之２","OBJECTID":626048},"geometry":{"x":170696.29000000004,"y":2546297.9200000018}},{"attributes":{"ID":626076,"DIS_CODE":0,"TOWNNAME":"永康區","LI":"安康里","LIN":"4鄰","STREET":"大橋一街","SECT":" ","MAREA":" ","LANE":" ","ALLEY":" ","HOUSE_NO":"４７號四樓之１","E_COORD97":170696.14999999999,"N_COORD97":2546297.9199999999,"ADDRESS":"大橋一街４７號四樓之１","OBJECTID":626049},"geometry":{"x":170696.15000000224,"y":2546297.9200000018}},{"attributes":{"ID":626077,"DIS_CODE":0,"TOWNNAME":"永康區","LI":"安康里","LIN":"4鄰","STREET":"大橋一街","SECT":" ","MAREA":" ","LANE":" ","ALLEY":" ","HOUSE_NO":"４７號三樓之２","E_COORD97":170696.29000000001,"N_COORD97":2546297.9199999999,"ADDRESS":"大橋一街４７號三樓之２","OBJECTID":626050},"geometry":{"x":170696.29000000004,"y":2546297.9200000018}},{"attributes":{"ID":626078,"DIS_CODE":0,"TOWNNAME":"永康區","LI":"永康里","LIN":"39鄰","STREET":"永大一路","SECT":" ","MAREA":" ","LANE":" ","ALLEY":" ","HOUSE_NO":"６２號九樓之３","E_COORD97":174180.64000000001,"N_COORD97":2546456.7200000002,"ADDRESS":"永大一路６２號九樓之３","OBJECTID":626051},"geometry":{"x":174180.63999999873,"y":2546456.7200000007}},{"attributes":{"ID":626079,"DIS_CODE":0,"TOWNNAME":"永康區","LI":"永康里","LIN":"39鄰","STREET":"文化路","SECT":" ","MAREA":" ","LANE":" ","ALLEY":" ","HOUSE_NO":"４２號三樓","E_COORD97":174286.92000000001,"N_COORD97":2546356.3199999998,"ADDRESS":"文化路４２號三樓","OBJECTID":626052},"geometry":{"x":174286.91999999993,"y":2546356.3200000022}},{"attributes":{"ID":626080,"DIS_CODE":0,"TOWNNAME":"永康區","LI":"永康里","LIN":"39鄰","STREET":"永大一路","SECT":" ","MAREA":" ","LANE":" ","ALLEY":" ","HOUSE_NO":"６２號五樓之６","E_COORD97":174180.64000000001,"N_COORD97":2546456.7200000002,"ADDRESS":"永大一路６２號五樓之６","OBJECTID":626053},"geometry":{"x":174180.63999999873,"y":2546456.7200000007}},{"attributes":{"ID":626081,"DIS_CODE":0,"TOWNNAME":"永康區","LI":"永康里","LIN":"39鄰","STREET":"永大一路","SECT":" ","MAREA":" ","LANE":" ","ALLEY":" ","HOUSE_NO":"６２號五樓之５","E_COORD97":174180.70000000001,"N_COORD97":2546456.7200000002,"ADDRESS":"永大一路６２號五樓之５","OBJECTID":626054},"geometry":{"x":174180.70000000019,"y":2546456.7200000007}},{"attributes":{"ID":626082,"DIS_CODE":0,"TOWNNAME":"永康區","LI":"安康里","LIN":"26鄰","STREET":"大橋一街","SECT":" ","MAREA":" ","LANE":" ","ALLEY":" ","HOUSE_NO":"５３號四樓之１","E_COORD97":170778.73000000001,"N_COORD97":2546346.7999999998,"ADDRESS":"大橋一街５３號四樓之１","OBJECTID":626055},"geometry":{"x":170778.73000000231,"y":2546346.8000000026}},{"attributes":{"ID":626083,"DIS_CODE":0,"TOWNNAME":"永康區","LI":"永康里","LIN":"26鄰","STREET":"中山北路","SECT":" ","MAREA":" ","LANE":" ","ALLEY":" ","HOUSE_NO":"１１４號十六樓之４","E_COORD97":174165.01000000001,"N_COORD97":2547447.25,"ADDRESS":"中山北路１１４號十六樓之４","OBJECTID":626056},"geometry":{"x":174165.01000000071,"y":2547447.2500000019}},{"attributes":{"ID":626084,"DIS_CODE":0,"TOWNNAME":"永康區","LI":"永康里","LIN":"26鄰","STREET":"中山北路","SECT":" ","MAREA":" ","LANE":" ","ALLEY":" ","HOUSE_NO":"１１４號八樓之３","E_COORD97":174163.84,"N_COORD97":2547447.25,"ADDRESS":"中山北路１１４號八樓之３","OBJECTID":626057},"geometry":{"x":174163.83999999985,"y":2547447.2500000019}},{"attributes":{"ID":626085,"DIS_CODE":0,"TOWNNAME":"永康區","LI":"安康里","LIN":"26鄰","STREET":"大橋一街","SECT":" ","MAREA":" ","LANE":" ","ALLEY":" ","HOUSE_NO":"５３號五樓之２","E_COORD97":170778.87,"N_COORD97":2546346.7999999998,"ADDRESS":"大橋一街５３號五樓之２","OBJECTID":626058},"geometry":{"x":170778.87000000011,"y":2546346.8000000026}},{"attributes":{"ID":626086,"DIS_CODE":0,"TOWNNAME":"永康區","LI":"安康里","LIN":"25鄰","STREET":"中華路","SECT":" ","MAREA":" ","LANE":" ","ALLEY":" ","HOUSE_NO":"７２３號四樓","E_COORD97":170870.10000000001,"N_COORD97":2546378,"ADDRESS":"中華路７２３號四樓","OBJECTID":626059},"geometry":{"x":170870.09999999963,"y":2546378.0000000019}},{"attributes":{"ID":626087,"DIS_CODE":0,"TOWNNAME":"永康區","LI":"永康里","LIN":"39鄰","STREET":"永大一路","SECT":" ","MAREA":" ","LANE":" ","ALLEY":" ","HOUSE_NO":"６２號十一樓之７","E_COORD97":174181.87,"N_COORD97":2546456.7200000002,"ADDRESS":"永大一路６２號十一樓之７","OBJECTID":626060},"geometry":{"x":174181.87000000104,"y":2546456.7200000007}},{"attributes":{"ID":626088,"DIS_CODE":0,"TOWNNAME":"永康區","LI":"永康里","LIN":"39鄰","STREET":"永大一路","SECT":" ","MAREA":" ","LANE":" ","ALLEY":" ","HOUSE_NO":"６２號五樓之４","E_COORD97":174180.57000000001,"N_COORD97":2546456.7200000002,"ADDRESS":"永大一路６２號五樓之４","OBJECTID":626061},"geometry":{"x":174180.57000000123,"y":2546456.7200000007}},{"attributes":{"ID":626089,"DIS_CODE":0,"TOWNNAME":"永康區","LI":"永康里","LIN":"39鄰","STREET":"永大一路","SECT":" ","MAREA":" ","LANE":" ","ALLEY":" ","HOUSE_NO":"６２號六樓之２","E_COORD97":174180.67000000001,"N_COORD97":2546456.7200000002,"ADDRESS":"永大一路６２號六樓之２","OBJECTID":626062},"geometry":{"x":174180.66999999993,"y":2546456.7200000007}},{"attributes":{"ID":626090,"DIS_CODE":0,"TOWNNAME":"永康區","LI":"永康里","LIN":"39鄰","STREET":"永大一路","SECT":" ","MAREA":" ","LANE":" ","ALLEY":" ","HOUSE_NO":"６２號七樓之２","E_COORD97":174180.67000000001,"N_COORD97":2546456.7200000002,"ADDRESS":"永大一路６２號七樓之２","OBJECTID":626063},"geometry":{"x":174180.66999999993,"y":2546456.7200000007}},{"attributes":{"ID":626091,"DIS_CODE":0,"TOWNNAME":"永康區","LI":"永康里","LIN":"26鄰","STREET":"中山北路","SECT":" ","MAREA":" ","LANE":" ","ALLEY":" ","HOUSE_NO":"１１４號七樓之４","E_COORD97":174163.76000000001,"N_COORD97":2547447.25,"ADDRESS":"中山北路１１４號七樓之４","OBJECTID":626064},"geometry":{"x":174163.76000000071,"y":2547447.2500000019}},{"attributes":{"ID":626092,"DIS_CODE":0,"TOWNNAME":"永康區","LI":"永康里","LIN":"39鄰","STREET":"永大一路","SECT":" ","MAREA":" ","LANE":" ","ALLEY":" ","HOUSE_NO":"６２號八樓之７","E_COORD97":174180.62,"N_COORD97":2546456.7200000002,"ADDRESS":"永大一路６２號八樓之７","OBJECTID":626065},"geometry":{"x":174180.62000000011,"y":2546456.7200000007}},{"attributes":{"ID":626093,"DIS_CODE":0,"TOWNNAME":"永康區","LI":"永康里","LIN":"39鄰","STREET":"永大一路","SECT":" ","MAREA":" ","LANE":" ","ALLEY":" ","HOUSE_NO":"６２號十一樓之１","E_COORD97":174181.79000000001,"N_COORD97":2546456.7200000002,"ADDRESS":"永大一路６２號十一樓之１","OBJECTID":626066},"geometry":{"x":174181.7900000019,"y":2546456.7200000007}},{"attributes":{"ID":626094,"DIS_CODE":0,"TOWNNAME":"永康區","LI":"永康里","LIN":"39鄰","STREET":"永大一路","SECT":" ","MAREA":" ","LANE":" ","ALLEY":" ","HOUSE_NO":"６２號六樓之７","E_COORD97":174180.62,"N_COORD97":2546456.7200000002,"ADDRESS":"永大一路６２號六樓之７","OBJECTID":626067},"geometry":{"x":174180.62000000011,"y":2546456.7200000007}},{"attributes":{"ID":626095,"DIS_CODE":0,"TOWNNAME":"永康區","LI":"永康里","LIN":"39鄰","STREET":"永大一路","SECT":" ","MAREA":" ","LANE":" ","ALLEY":" ","HOUSE_NO":"６２號六樓之５","E_COORD97":174180.70000000001,"N_COORD97":2546456.7200000002,"ADDRESS":"永大一路６２號六樓之５","OBJECTID":626068},"geometry":{"x":174180.70000000019,"y":2546456.7200000007}},{"attributes":{"ID":626096,"DIS_CODE":0,"TOWNNAME":"永康區","LI":"安康里","LIN":"4鄰","STREET":"大橋一街","SECT":" ","MAREA":" ","LANE":" ","ALLEY":" ","HOUSE_NO":"４７號三樓之１","E_COORD97":170696.14999999999,"N_COORD97":2546297.9199999999,"ADDRESS":"大橋一街４７號三樓之１","OBJECTID":626069},"geometry":{"x":170696.15000000224,"y":2546297.9200000018}},{"attributes":{"ID":626097,"DIS_CODE":0,"TOWNNAME":"永康區","LI":"永康里","LIN":"39鄰","STREET":"永大一路","SECT":" ","MAREA":" ","LANE":" ","ALLEY":" ","HOUSE_NO":"６２號六樓之１","E_COORD97":174180.54000000001,"N_COORD97":2546456.7200000002,"ADDRESS":"永大一路６２號六樓之１","OBJECTID":626070},"geometry":{"x":174180.54000000097,"y":2546456.7200000007}},{"attributes":{"ID":626098,"DIS_CODE":0,"TOWNNAME":"永康區","LI":"永康里","LIN":"39鄰","STREET":"永大一路","SECT":" ","MAREA":" ","LANE":" ","ALLEY":" ","HOUSE_NO":"６２號十樓之６","E_COORD97":174180.64000000001,"N_COORD97":2546456.7200000002,"ADDRESS":"永大一路６２號十樓之６","OBJECTID":626071},"geometry":{"x":174180.63999999873,"y":2546456.7200000007}},{"attributes":{"ID":626099,"DIS_CODE":0,"TOWNNAME":"永康區","LI":"埔園里","LIN":"38鄰","STREET":"龍中街","SECT":" ","MAREA":" ","LANE":" ","ALLEY":" ","HOUSE_NO":"３５９號五樓之１","E_COORD97":174402.70000000001,"N_COORD97":2547932.0800000001,"ADDRESS":"龍中街３５９號五樓之１","OBJECTID":626072},"geometry":{"x":174402.70000000019,"y":2547932.0800000001}},{"attributes":{"ID":626100,"DIS_CODE":0,"TOWNNAME":"永康區","LI":"埔園里","LIN":"38鄰","STREET":"龍中街","SECT":" ","MAREA":" ","LANE":" ","ALLEY":" ","HOUSE_NO":"３５９號七樓之３","E_COORD97":174402.79999999999,"N_COORD97":2547932.0800000001,"ADDRESS":"龍中街３５９號七樓之３","OBJECTID":626073},"geometry":{"x":174402.79999999981,"y":2547932.0800000001}},{"attributes":{"ID":626101,"DIS_CODE":0,"TOWNNAME":"永康區","LI":"烏竹里","LIN":"17鄰","STREET":"竹園一街","SECT":" ","MAREA":" ","LANE":" ","ALLEY":" ","HOUSE_NO":"５１號六樓之２","E_COORD97":174398.45000000001,"N_COORD97":2548942.0800000001,"ADDRESS":"竹園一街５１號六樓之２","OBJECTID":626074},"geometry":{"x":174398.45000000112,"y":2548942.0800000001}},{"attributes":{"ID":626102,"DIS_CODE":0,"TOWNNAME":"永康區","LI":"烏竹里","LIN":"17鄰","STREET":"竹園一街","SECT":" ","MAREA":" ","LANE":" ","ALLEY":" ","HOUSE_NO":"６１號二樓之１","E_COORD97":174414.26000000001,"N_COORD97":2548929.3300000001,"ADDRESS":"竹園一街６１號二樓之１","OBJECTID":626075},"geometry":{"x":174414.26000000071,"y":2548929.3300000019}},{"attributes":{"ID":626103,"DIS_CODE":0,"TOWNNAME":"南區","LI":"府南里","LIN":" ","STREET":"西門路","SECT":"一段","MAREA":" ","LANE":" ","ALLEY":" ","HOUSE_NO":"１９９號一樓之１２","E_COORD97":167683.17999999999,"N_COORD97":2541708.48,"ADDRESS":"西門路一段１９９號一樓之１２","OBJECTID":626076},"geometry":{"x":167683.18000000063,"y":2541708.4800000004}},{"attributes":{"ID":626104,"DIS_CODE":0,"TOWNNAME":"永康區","LI":"埔園里","LIN":"38鄰","STREET":"龍中街","SECT":" ","MAREA":" ","LANE":" ","ALLEY":" ","HOUSE_NO":"３５９號六樓之２","E_COORD97":174402.84,"N_COORD97":2547932.0800000001,"ADDRESS":"龍中街３５９號六樓之２","OBJECTID":626077},"geometry":{"x":174402.83999999985,"y":2547932.0800000001}},{"attributes":{"ID":626105,"DIS_CODE":0,"TOWNNAME":"永康區","LI":"烏竹里","LIN":"17鄰","STREET":"竹園一街","SECT":" ","MAREA":" ","LANE":" ","ALLEY":" ","HOUSE_NO":"５１號二樓之１","E_COORD97":174398.32000000001,"N_COORD97":2548942.0800000001,"ADDRESS":"竹園一街５１號二樓之１","OBJECTID":626078},"geometry":{"x":174398.3200000003,"y":2548942.0800000001}},{"attributes":{"ID":626106,"DIS_CODE":0,"TOWNNAME":"永康區","LI":"埔園里","LIN":"28鄰","STREET":"中山路","SECT":" ","MAREA":" ","LANE":" ","ALLEY":" ","HOUSE_NO":"３５４號三樓之７","E_COORD97":173655.38,"N_COORD97":2548283.27,"ADDRESS":"中山路３５４號三樓之７","OBJECTID":626079},"geometry":{"x":173655.37999999989,"y":2548283.2699999996}},{"attributes":{"ID":626107,"DIS_CODE":0,"TOWNNAME":"南區","LI":"明興里","LIN":"12鄰","STREET":"金華路","SECT":"一段","MAREA":" ","LANE":" ","ALLEY":" ","HOUSE_NO":"８６號二樓","E_COORD97":166905.41,"N_COORD97":2540436.1600000001,"ADDRESS":"金華路一段８６號二樓","OBJECTID":626080},"geometry":{"x":166905.41000000201,"y":2540436.1599999983}},{"attributes":{"ID":626108,"DIS_CODE":0,"TOWNNAME":"南區","LI":"明興里","LIN":"12鄰","STREET":"金華路","SECT":"一段","MAREA":" ","LANE":" ","ALLEY":" ","HOUSE_NO":"８６號三樓之１","E_COORD97":166905.41,"N_COORD97":2540436.1600000001,"ADDRESS":"金華路一段８６號三樓之１","OBJECTID":626081},"geometry":{"x":166905.41000000201,"y":2540436.1599999983}},{"attributes":{"ID":626109,"DIS_CODE":0,"TOWNNAME":"南區","LI":"明興里","LIN":"12鄰","STREET":"金華路","SECT":"一段","MAREA":" ","LANE":" ","ALLEY":" ","HOUSE_NO":"８６號三樓之２","E_COORD97":166905.41,"N_COORD97":2540436.1600000001,"ADDRESS":"金華路一段８６號三樓之２","OBJECTID":626082},"geometry":{"x":166905.41000000201,"y":2540436.1599999983}},{"attributes":{"ID":626110,"DIS_CODE":0,"TOWNNAME":"東區","LI":"和平里","LIN":"1鄰","STREET":"仁和路","SECT":" ","MAREA":" ","LANE":" ","ALLEY":" ","HOUSE_NO":"２７號二樓","E_COORD97":171099.45000000001,"N_COORD97":2542097.2200000002,"ADDRESS":"仁和路２７號二樓","OBJECTID":626083},"geometry":{"x":171099.45000000112,"y":2542097.2200000007}},{"attributes":{"ID":626111,"DIS_CODE":0,"TOWNNAME":"南區","LI":"明興里","LIN":"12鄰","STREET":"金華路","SECT":"一段","MAREA":" ","LANE":" ","ALLEY":" ","HOUSE_NO":"８６號四樓","E_COORD97":166905.41,"N_COORD97":2540436.1600000001,"ADDRESS":"金華路一段８６號四樓","OBJECTID":626084},"geometry":{"x":166905.41000000201,"y":2540436.1599999983}},{"attributes":{"ID":626112,"DIS_CODE":0,"TOWNNAME":"南區","LI":"明興里","LIN":"12鄰","STREET":"金華路","SECT":"一段","MAREA":" ","LANE":" ","ALLEY":" ","HOUSE_NO":"８６號四樓之１","E_COORD97":166905.41,"N_COORD97":2540436.1600000001,"ADDRESS":"金華路一段８６號四樓之１","OBJECTID":626085},"geometry":{"x":166905.41000000201,"y":2540436.1599999983}},{"attributes":{"ID":626113,"DIS_CODE":0,"TOWNNAME":"南區","LI":"明興里","LIN":"12鄰","STREET":"金華路","SECT":"一段","MAREA":" ","LANE":" ","ALLEY":" ","HOUSE_NO":"８６號四樓之２","E_COORD97":166905.41,"N_COORD97":2540436.1600000001,"ADDRESS":"金華路一段８６號四樓之２","OBJECTID":626086},"geometry":{"x":166905.41000000201,"y":2540436.1599999983}},{"attributes":{"ID":626114,"DIS_CODE":0,"TOWNNAME":"南區","LI":"明興里","LIN":"12鄰","STREET":"金華路","SECT":"一段","MAREA":" ","LANE":" ","ALLEY":" ","HOUSE_NO":"８６號五樓之１","E_COORD97":166905.41,"N_COORD97":2540436.1600000001,"ADDRESS":"金華路一段８６號五樓之１","OBJECTID":626087},"geometry":{"x":166905.41000000201,"y":2540436.1599999983}},{"attributes":{"ID":626115,"DIS_CODE":0,"TOWNNAME":"東區","LI":"和平里","LIN":"1鄰","STREET":"仁和路","SECT":" ","MAREA":" ","LANE":" ","ALLEY":" ","HOUSE_NO":"３５號六樓","E_COORD97":171099.45000000001,"N_COORD97":2542097.2200000002,"ADDRESS":"仁和路３５號六樓","OBJECTID":626088},"geometry":{"x":171099.45000000112,"y":2542097.2200000007}},{"attributes":{"ID":626116,"DIS_CODE":0,"TOWNNAME":"南區","LI":"明興里","LIN":"12鄰","STREET":"金華路","SECT":"一段","MAREA":" ","LANE":" ","ALLEY":" ","HOUSE_NO":"８６號五樓之２","E_COORD97":166905.41,"N_COORD97":2540436.1600000001,"ADDRESS":"金華路一段８６號五樓之２","OBJECTID":626089},"geometry":{"x":166905.41000000201,"y":2540436.1599999983}},{"attributes":{"ID":626117,"DIS_CODE":0,"TOWNNAME":"南區","LI":"明興里","LIN":"12鄰","STREET":"金華路","SECT":"一段","MAREA":" ","LANE":" ","ALLEY":" ","HOUSE_NO":"８６號六樓之１","E_COORD97":166905.41,"N_COORD97":2540436.1600000001,"ADDRESS":"金華路一段８６號六樓之１","OBJECTID":626090},"geometry":{"x":166905.41000000201,"y":2540436.1599999983}},{"attributes":{"ID":626118,"DIS_CODE":0,"TOWNNAME":"南區","LI":"明興里","LIN":"12鄰","STREET":"金華路","SECT":"一段","MAREA":" ","LANE":" ","ALLEY":" ","HOUSE_NO":"８６號六樓之２","E_COORD97":166905.41,"N_COORD97":2540436.1600000001,"ADDRESS":"金華路一段８６號六樓之２","OBJECTID":626091},"geometry":{"x":166905.41000000201,"y":2540436.1599999983}},{"attributes":{"ID":626119,"DIS_CODE":0,"TOWNNAME":"南區","LI":"明興里","LIN":"12鄰","STREET":"金華路","SECT":"一段","MAREA":" ","LANE":" ","ALLEY":" ","HOUSE_NO":"８６號七樓","E_COORD97":166905.41,"N_COORD97":2540436.1600000001,"ADDRESS":"金華路一段８６號七樓","OBJECTID":626092},"geometry":{"x":166905.41000000201,"y":2540436.1599999983}},{"attributes":{"ID":626120,"DIS_CODE":0,"TOWNNAME":"東區","LI":"富強里","LIN":"22鄰","STREET":"富強二街","SECT":" ","MAREA":" ","LANE":" ","ALLEY":" ","HOUSE_NO":"７號十樓","E_COORD97":170999.60000000001,"N_COORD97":2542521.6499999999,"ADDRESS":"富強二街７號十樓","OBJECTID":626093},"geometry":{"x":170999.60000000056,"y":2542521.6500000041}},{"attributes":{"ID":626121,"DIS_CODE":0,"TOWNNAME":"南區","LI":"金華里","LIN":" ","STREET":"尊南街","SECT":" ","MAREA":" ","LANE":" ","ALLEY":" ","HOUSE_NO":"２５３號一樓之７","E_COORD97":166810.84,"N_COORD97":2542379.3799999999,"ADDRESS":"尊南街２５３號一樓之７","OBJECTID":626094},"geometry":{"x":166810.84000000078,"y":2542379.3799999971}},{"attributes":{"ID":626122,"DIS_CODE":0,"TOWNNAME":"南區","LI":"金華里","LIN":" ","STREET":"尊南路","SECT":" ","MAREA":" ","LANE":" ","ALLEY":" ","HOUSE_NO":"２５１號一樓之１０","E_COORD97":166791.73000000001,"N_COORD97":2542361.9900000002,"ADDRESS":"尊南路２５１號一樓之１０","OBJECTID":626095},"geometry":{"x":166791.73000000231,"y":2542361.9900000002}},{"attributes":{"ID":626123,"DIS_CODE":0,"TOWNNAME":"東區","LI":"崇文里","LIN":" ","STREET":"崇德路","SECT":" ","MAREA":" ","LANE":" ","ALLEY":" ","HOUSE_NO":"７８５號一樓","E_COORD97":170809.09,"N_COORD97":2540791.3300000001,"ADDRESS":"崇德路７８５號一樓","OBJECTID":626096},"geometry":{"x":170809.08999999985,"y":2540791.3300000038}},{"attributes":{"ID":626124,"DIS_CODE":0,"TOWNNAME":"南區","LI":"建南里","LIN":"14鄰","STREET":"中華南路","SECT":"二段","MAREA":" ","LANE":" ","ALLEY":" ","HOUSE_NO":"２３１號二樓","E_COORD97":166887.32000000001,"N_COORD97":2540192.21,"ADDRESS":"中華南路二段２３１號二樓","OBJECTID":626097},"geometry":{"x":166887.3200000003,"y":2540192.2100000009}},{"attributes":{"ID":626125,"DIS_CODE":0,"TOWNNAME":"南區","LI":"建南里","LIN":"14鄰","STREET":"中華南路","SECT":"二段","MAREA":" ","LANE":" ","ALLEY":" ","HOUSE_NO":"２３１號四樓","E_COORD97":166887.32000000001,"N_COORD97":2540192.21,"ADDRESS":"中華南路二段２３１號四樓","OBJECTID":626098},"geometry":{"x":166887.3200000003,"y":2540192.2100000009}},{"attributes":{"ID":626126,"DIS_CODE":0,"TOWNNAME":"南區","LI":"建南里","LIN":"14鄰","STREET":"中華南路","SECT":"二段","MAREA":" ","LANE":" ","ALLEY":" ","HOUSE_NO":"２３１號五樓","E_COORD97":166887.32000000001,"N_COORD97":2540192.21,"ADDRESS":"中華南路二段２３１號五樓","OBJECTID":626099},"geometry":{"x":166887.3200000003,"y":2540192.2100000009}},{"attributes":{"ID":626127,"DIS_CODE":0,"TOWNNAME":"東區","LI":"和平里","LIN":" ","STREET":"東門路","SECT":"三段","MAREA":" ","LANE":" ","ALLEY":" ","HOUSE_NO":"２號二樓","E_COORD97":171022.42999999999,"N_COORD97":2542358.9900000002,"ADDRESS":"東門路三段２號二樓","OBJECTID":626100},"geometry":{"x":171022.43000000156,"y":2542358.9900000002}},{"attributes":{"ID":626128,"DIS_CODE":0,"TOWNNAME":"東區","LI":"和平里","LIN":" ","STREET":"東門路","SECT":"三段","MAREA":" ","LANE":" ","ALLEY":" ","HOUSE_NO":"２號三樓","E_COORD97":171022.42999999999,"N_COORD97":2542358.9900000002,"ADDRESS":"東門路三段２號三樓","OBJECTID":626101},"geometry":{"x":171022.43000000156,"y":2542358.9900000002}},{"attributes":{"ID":626129,"DIS_CODE":0,"TOWNNAME":"東區","LI":"忠孝里","LIN":" ","STREET":"林森路","SECT":"一段","MAREA":" ","LANE":" ","ALLEY":" ","HOUSE_NO":"１５８號二樓之一","E_COORD97":169530.54000000001,"N_COORD97":2542472.1899999999,"ADDRESS":"林森路一段１５８號二樓之一","OBJECTID":626102},"geometry":{"x":169530.54000000097,"y":2542472.1899999995}},{"attributes":{"ID":626130,"DIS_CODE":0,"TOWNNAME":"東區","LI":"忠孝里","LIN":" ","STREET":"林森路","SECT":"一段","MAREA":" ","LANE":" ","ALLEY":" ","HOUSE_NO":"１５８號三樓之一","E_COORD97":169530.54000000001,"N_COORD97":2542472.1899999999,"ADDRESS":"林森路一段１５８號三樓之一","OBJECTID":626103},"geometry":{"x":169530.54000000097,"y":2542472.1899999995}},{"attributes":{"ID":626131,"DIS_CODE":0,"TOWNNAME":"東區","LI":"忠孝里","LIN":" ","STREET":"林森路","SECT":"一段","MAREA":" ","LANE":" ","ALLEY":" ","HOUSE_NO":"１５８號四樓之一","E_COORD97":169530.54000000001,"N_COORD97":2542472.1899999999,"ADDRESS":"林森路一段１５８號四樓之一","OBJECTID":626104},"geometry":{"x":169530.54000000097,"y":2542472.1899999995}},{"attributes":{"ID":626132,"DIS_CODE":0,"TOWNNAME":"東區","LI":"崇善里","LIN":" ","STREET":"崇善路","SECT":" ","MAREA":" ","LANE":" ","ALLEY":" ","HOUSE_NO":"８０３號地下一樓","E_COORD97":171239.29999999999,"N_COORD97":2540936.98,"ADDRESS":"崇善路８０３號地下一樓","OBJECTID":626105},"geometry":{"x":171239.30000000075,"y":2540936.9800000023}},{"attributes":{"ID":626133,"DIS_CODE":0,"TOWNNAME":"東區","LI":"圍下里","LIN":" ","STREET":"勝利路","SECT":" ","MAREA":" ","LANE":" ","ALLEY":" ","HOUSE_NO":"６９號二樓","E_COORD97":169791.25,"N_COORD97":2543485.1800000002,"ADDRESS":"勝利路６９號二樓","OBJECTID":626106},"geometry":{"x":169791.25,"y":2543485.1800000016}},{"attributes":{"ID":626134,"DIS_CODE":0,"TOWNNAME":"東區","LI":"圍下里","LIN":"1鄰","STREET":"勝利路","SECT":" ","MAREA":" ","LANE":" ","ALLEY":" ","HOUSE_NO":"６９號三樓","E_COORD97":169791.25,"N_COORD97":2543485.1800000002,"ADDRESS":"勝利路６９號三樓","OBJECTID":626107},"geometry":{"x":169791.25,"y":2543485.1800000016}},{"attributes":{"ID":626135,"DIS_CODE":0,"TOWNNAME":"東區","LI":"圍下里","LIN":"1鄰","STREET":"勝利路","SECT":" ","MAREA":" ","LANE":" ","ALLEY":" ","HOUSE_NO":"６９號五樓","E_COORD97":169791.25,"N_COORD97":2543485.1800000002,"ADDRESS":"勝利路６９號五樓","OBJECTID":626108},"geometry":{"x":169791.25,"y":2543485.1800000016}},{"attributes":{"ID":626136,"DIS_CODE":0,"TOWNNAME":"東區","LI":"圍下里","LIN":"1鄰","STREET":"勝利路","SECT":" ","MAREA":" ","LANE":" ","ALLEY":" ","HOUSE_NO":"６９號七樓","E_COORD97":169791.25,"N_COORD97":2543485.1800000002,"ADDRESS":"勝利路６９號七樓","OBJECTID":626109},"geometry":{"x":169791.25,"y":2543485.1800000016}},{"attributes":{"ID":626137,"DIS_CODE":0,"TOWNNAME":"東區","LI":"圍下里","LIN":"21鄰","STREET":"前鋒路","SECT":" ","MAREA":" ","LANE":" ","ALLEY":" ","HOUSE_NO":"１０４號二樓","E_COORD97":169330.10000000001,"N_COORD97":2543775.04,"ADDRESS":"前鋒路１０４號二樓","OBJECTID":626110},"geometry":{"x":169330.10000000056,"y":2543775.0399999991}},{"attributes":{"ID":626138,"DIS_CODE":0,"TOWNNAME":"東區","LI":"圍下里","LIN":"21鄰","STREET":"前鋒路","SECT":" ","MAREA":" ","LANE":" ","ALLEY":" ","HOUSE_NO":"１０４號三樓","E_COORD97":169330.10000000001,"N_COORD97":2543775.04,"ADDRESS":"前鋒路１０４號三樓","OBJECTID":626111},"geometry":{"x":169330.10000000056,"y":2543775.0399999991}},{"attributes":{"ID":626139,"DIS_CODE":0,"TOWNNAME":"東區","LI":"泉南里","LIN":"24鄰","STREET":"長榮路","SECT":"一段","MAREA":" ","LANE":" ","ALLEY":" ","HOUSE_NO":"１號二樓之１","E_COORD97":169592.67999999999,"N_COORD97":2542569.48,"ADDRESS":"長榮路一段１號二樓之１","OBJECTID":626112},"geometry":{"x":169592.6799999997,"y":2542569.4800000004}},{"attributes":{"ID":626140,"DIS_CODE":0,"TOWNNAME":"東區","LI":"泉南里","LIN":"24鄰","STREET":"長榮路","SECT":"一段","MAREA":" ","LANE":" ","ALLEY":" ","HOUSE_NO":"１號三樓之１","E_COORD97":169592.67999999999,"N_COORD97":2542569.48,"ADDRESS":"長榮路一段１號三樓之１","OBJECTID":626113},"geometry":{"x":169592.6799999997,"y":2542569.4800000004}},{"attributes":{"ID":626141,"DIS_CODE":0,"TOWNNAME":"東區","LI":"泉南里","LIN":"24鄰","STREET":"長榮路","SECT":"一段","MAREA":" ","LANE":" ","ALLEY":" ","HOUSE_NO":"１號四樓之１","E_COORD97":169592.67999999999,"N_COORD97":2542569.48,"ADDRESS":"長榮路一段１號四樓之１","OBJECTID":626114},"geometry":{"x":169592.6799999997,"y":2542569.4800000004}},{"attributes":{"ID":626142,"DIS_CODE":0,"TOWNNAME":"東區","LI":"泉南里","LIN":"24鄰","STREET":"長榮路","SECT":"一段","MAREA":" ","LANE":" ","ALLEY":" ","HOUSE_NO":"１號五樓之１","E_COORD97":169592.67999999999,"N_COORD97":2542569.48,"ADDRESS":"長榮路一段１號五樓之１","OBJECTID":626115},"geometry":{"x":169592.6799999997,"y":2542569.4800000004}},{"attributes":{"ID":626143,"DIS_CODE":0,"TOWNNAME":"東區","LI":"泉南里","LIN":"24鄰","STREET":"長榮路","SECT":"一段","MAREA":" ","LANE":" ","ALLEY":" ","HOUSE_NO":"１號六樓之１","E_COORD97":169592.67999999999,"N_COORD97":2542569.48,"ADDRESS":"長榮路一段１號六樓之１","OBJECTID":626116},"geometry":{"x":169592.6799999997,"y":2542569.4800000004}},{"attributes":{"ID":626144,"DIS_CODE":0,"TOWNNAME":"東區","LI":"德光里","LIN":" ","STREET":"林森路","SECT":"一段","MAREA":" ","LANE":" ","ALLEY":" ","HOUSE_NO":"２２４號二樓","E_COORD97":169745.70999999999,"N_COORD97":2542543.77,"ADDRESS":"林森路一段２２４號二樓","OBJECTID":626117},"geometry":{"x":169745.70999999996,"y":2542543.7700000033}},{"attributes":{"ID":626145,"DIS_CODE":0,"TOWNNAME":"東區","LI":"衛國里","LIN":" ","STREET":"林森路","SECT":"二段","MAREA":" ","LANE":" ","ALLEY":" ","HOUSE_NO":"１００號十一樓之２","E_COORD97":170403.35000000001,"N_COORD97":2543150.5099999998,"ADDRESS":"林森路二段１００號十一樓之２","OBJECTID":626118},"geometry":{"x":170403.34999999963,"y":2543150.5100000016}},{"attributes":{"ID":626146,"DIS_CODE":0,"TOWNNAME":"中西區","LI":"協進里","LIN":" ","STREET":"民權路","SECT":"三段","MAREA":" ","LANE":" ","ALLEY":" ","HOUSE_NO":"３３９號六樓","E_COORD97":167017.48000000001,"N_COORD97":2544303.7200000002,"ADDRESS":"民權路三段３３９號六樓","OBJECTID":626119},"geometry":{"x":167017.48000000138,"y":2544303.7200000007}},{"attributes":{"ID":626147,"DIS_CODE":0,"TOWNNAME":"中西區","LI":"保安里","LIN":" ","STREET":"康樂街","SECT":" ","MAREA":" ","LANE":" ","ALLEY":" ","HOUSE_NO":"１０２號一樓","E_COORD97":167440.75,"N_COORD97":2543732.3500000001,"ADDRESS":"康樂街１０２號一樓","OBJECTID":626120},"geometry":{"x":167440.75000000093,"y":2543732.3499999996}},{"attributes":{"ID":626148,"DIS_CODE":0,"TOWNNAME":"中西區","LI":"保安里","LIN":" ","STREET":"康樂街","SECT":" ","MAREA":" ","LANE":" ","ALLEY":" ","HOUSE_NO":"１０２號六樓之２","E_COORD97":167440.75,"N_COORD97":2543732.3500000001,"ADDRESS":"康樂街１０２號六樓之２","OBJECTID":626121},"geometry":{"x":167440.75000000093,"y":2543732.3499999996}},{"attributes":{"ID":626149,"DIS_CODE":0,"TOWNNAME":"中西區","LI":"五妃里","LIN":"8鄰","STREET":"南寧街","SECT":" ","MAREA":" ","LANE":" ","ALLEY":" ","HOUSE_NO":"２５號之３四樓","E_COORD97":168483.22,"N_COORD97":2542763.3199999998,"ADDRESS":"南寧街２５號之３四樓","OBJECTID":626122},"geometry":{"x":168483.22000000067,"y":2542763.3200000003}},{"attributes":{"ID":626150,"DIS_CODE":0,"TOWNNAME":"中西區","LI":"五妃里","LIN":"8鄰","STREET":"南寧街","SECT":" ","MAREA":" ","LANE":" ","ALLEY":" ","HOUSE_NO":"２５號四樓","E_COORD97":168475.56,"N_COORD97":2542743.5600000001,"ADDRESS":"南寧街２５號四樓","OBJECTID":626123},"geometry":{"x":168475.56000000052,"y":2542743.5600000024}},{"attributes":{"ID":626151,"DIS_CODE":0,"TOWNNAME":"中西區","LI":"仙草里","LIN":"8鄰","STREET":"永福路","SECT":"一段","MAREA":" ","LANE":" ","ALLEY":" ","HOUSE_NO":"９７號一樓","E_COORD97":167958.92000000001,"N_COORD97":2542741.79,"ADDRESS":"永福路一段９７號一樓","OBJECTID":626124},"geometry":{"x":167958.91999999993,"y":2542741.7899999991}},{"attributes":{"ID":626152,"DIS_CODE":0,"TOWNNAME":"中西區","LI":"仙草里","LIN":"8鄰","STREET":"永福路","SECT":"一段","MAREA":" ","LANE":" ","ALLEY":" ","HOUSE_NO":"９７號二樓","E_COORD97":167958.92000000001,"N_COORD97":2542741.79,"ADDRESS":"永福路一段９７號二樓","OBJECTID":626125},"geometry":{"x":167958.91999999993,"y":2542741.7899999991}},{"attributes":{"ID":626153,"DIS_CODE":0,"TOWNNAME":"中西區","LI":"仙草里","LIN":"8鄰","STREET":"永福路","SECT":"一段","MAREA":" ","LANE":" ","ALLEY":" ","HOUSE_NO":"９７號三樓","E_COORD97":167958.92000000001,"N_COORD97":2542741.79,"ADDRESS":"永福路一段９７號三樓","OBJECTID":626126},"geometry":{"x":167958.91999999993,"y":2542741.7899999991}},{"attributes":{"ID":626154,"DIS_CODE":0,"TOWNNAME":"中西區","LI":"仙草里","LIN":"8鄰","STREET":"永福路","SECT":"一段","MAREA":" ","LANE":" ","ALLEY":" ","HOUSE_NO":"９７號四樓","E_COORD97":167958.92000000001,"N_COORD97":2542741.79,"ADDRESS":"永福路一段９７號四樓","OBJECTID":626127},"geometry":{"x":167958.91999999993,"y":2542741.7899999991}},{"attributes":{"ID":626155,"DIS_CODE":0,"TOWNNAME":"中西區","LI":"仙草里","LIN":"8鄰","STREET":"永福路","SECT":"一段","MAREA":" ","LANE":" ","ALLEY":" ","HOUSE_NO":"９９號一樓","E_COORD97":167982.37,"N_COORD97":2542734.1699999999,"ADDRESS":"永福路一段９９號一樓","OBJECTID":626128},"geometry":{"x":167982.37000000104,"y":2542734.1699999999}},{"attributes":{"ID":626156,"DIS_CODE":0,"TOWNNAME":"中西區","LI":"仙草里","LIN":"8鄰","STREET":"永福路","SECT":"一段","MAREA":" ","LANE":" ","ALLEY":" ","HOUSE_NO":"９９號二樓","E_COORD97":167982.37,"N_COORD97":2542734.1699999999,"ADDRESS":"永福路一段９９號二樓","OBJECTID":626129},"geometry":{"x":167982.37000000104,"y":2542734.1699999999}},{"attributes":{"ID":626157,"DIS_CODE":0,"TOWNNAME":"中西區","LI":"仙草里","LIN":"8鄰","STREET":"永福路","SECT":"一段","MAREA":" ","LANE":" ","ALLEY":" ","HOUSE_NO":"９９號四樓","E_COORD97":167982.37,"N_COORD97":2542734.1699999999,"ADDRESS":"永福路一段９９號四樓","OBJECTID":626130},"geometry":{"x":167982.37000000104,"y":2542734.1699999999}},{"attributes":{"ID":626158,"DIS_CODE":0,"TOWNNAME":"中西區","LI":"大南里","LIN":"6鄰","STREET":"南寧街","SECT":" ","MAREA":" ","LANE":" ","ALLEY":" ","HOUSE_NO":"９０號一樓","E_COORD97":168206.39000000001,"N_COORD97":2542860.6899999999,"ADDRESS":"南寧街９０號一樓","OBJECTID":626131},"geometry":{"x":168206.38999999966,"y":2542860.6900000013}},{"attributes":{"ID":626159,"DIS_CODE":0,"TOWNNAME":"中西區","LI":"大南里","LIN":"6鄰","STREET":"南寧街","SECT":" ","MAREA":" ","LANE":" ","ALLEY":" ","HOUSE_NO":"９０號二樓","E_COORD97":168206.39000000001,"N_COORD97":2542860.6899999999,"ADDRESS":"南寧街９０號二樓","OBJECTID":626132},"geometry":{"x":168206.38999999966,"y":2542860.6900000013}},{"attributes":{"ID":626160,"DIS_CODE":0,"TOWNNAME":"中西區","LI":"大南里","LIN":"6鄰","STREET":"南寧街","SECT":" ","MAREA":" ","LANE":" ","ALLEY":" ","HOUSE_NO":"９０號三樓","E_COORD97":168206.39000000001,"N_COORD97":2542860.6899999999,"ADDRESS":"南寧街９０號三樓","OBJECTID":626133},"geometry":{"x":168206.38999999966,"y":2542860.6900000013}},{"attributes":{"ID":626161,"DIS_CODE":0,"TOWNNAME":"中西區","LI":"仙草里","LIN":"1鄰","STREET":"西門路","SECT":"一段","MAREA":" ","LANE":" ","ALLEY":" ","HOUSE_NO":"４６６號二樓之２","E_COORD97":167765.84,"N_COORD97":2542629.2000000002,"ADDRESS":"西門路一段４６６號二樓之２","OBJECTID":626134},"geometry":{"x":167765.84000000078,"y":2542629.2000000011}},{"attributes":{"ID":626162,"DIS_CODE":0,"TOWNNAME":"中西區","LI":"仙草里","LIN":"1鄰","STREET":"西門路","SECT":"一段","MAREA":" ","LANE":" ","ALLEY":" ","HOUSE_NO":"４６６號二樓之３","E_COORD97":167765.84,"N_COORD97":2542629.2000000002,"ADDRESS":"西門路一段４６６號二樓之３","OBJECTID":626135},"geometry":{"x":167765.84000000078,"y":2542629.2000000011}},{"attributes":{"ID":626163,"DIS_CODE":0,"TOWNNAME":"中西區","LI":"仙草里","LIN":"14鄰","STREET":"西門路","SECT":"一段","MAREA":" ","LANE":" ","ALLEY":" ","HOUSE_NO":"４９６號一樓之１","E_COORD97":167749.60000000001,"N_COORD97":2542735.3100000001,"ADDRESS":"西門路一段４９６號一樓之１","OBJECTID":626136},"geometry":{"x":167749.60000000056,"y":2542735.3100000024}},{"attributes":{"ID":626164,"DIS_CODE":0,"TOWNNAME":"中西區","LI":"仙草里","LIN":"14鄰","STREET":"西門路","SECT":"一段","MAREA":" ","LANE":" ","ALLEY":" ","HOUSE_NO":"４９６號一樓之２","E_COORD97":167748.20999999999,"N_COORD97":2542751.54,"ADDRESS":"西門路一段４９６號一樓之２","OBJECTID":626137},"geometry":{"x":167748.20999999996,"y":2542751.5400000028}},{"attributes":{"ID":626165,"DIS_CODE":0,"TOWNNAME":"中西區","LI":"小西里","LIN":"4鄰","STREET":"西門路","SECT":"一段","MAREA":" ","LANE":" ","ALLEY":" ","HOUSE_NO":"６６２號七樓之１","E_COORD97":167749.19,"N_COORD97":2543246.3900000001,"ADDRESS":"西門路一段６６２號七樓之１","OBJECTID":626138},"geometry":{"x":167749.19000000041,"y":2543246.3900000025}},{"attributes":{"ID":626166,"DIS_CODE":0,"TOWNNAME":"中西區","LI":"小西里","LIN":"4鄰","STREET":"西門路","SECT":"一段","MAREA":" ","LANE":" ","ALLEY":" ","HOUSE_NO":"６６２號七樓之２","E_COORD97":167749.19,"N_COORD97":2543246.3900000001,"ADDRESS":"西門路一段６６２號七樓之２","OBJECTID":626139},"geometry":{"x":167749.19000000041,"y":2543246.3900000025}},{"attributes":{"ID":626167,"DIS_CODE":0,"TOWNNAME":"中西區","LI":"小西里","LIN":"4鄰","STREET":"西門路","SECT":"一段","MAREA":" ","LANE":" ","ALLEY":" ","HOUSE_NO":"６６２號七樓之３","E_COORD97":167749.19,"N_COORD97":2543246.3900000001,"ADDRESS":"西門路一段６６２號七樓之３","OBJECTID":626140},"geometry":{"x":167749.19000000041,"y":2543246.3900000025}},{"attributes":{"ID":626168,"DIS_CODE":0,"TOWNNAME":"中西區","LI":"小西里","LIN":"4鄰","STREET":"西門路","SECT":"一段","MAREA":" ","LANE":" ","ALLEY":" ","HOUSE_NO":"６６２號七樓之４","E_COORD97":167749.19,"N_COORD97":2543246.3900000001,"ADDRESS":"西門路一段６６２號七樓之４","OBJECTID":626141},"geometry":{"x":167749.19000000041,"y":2543246.3900000025}},{"attributes":{"ID":626169,"DIS_CODE":0,"TOWNNAME":"中西區","LI":"小西里","LIN":"4鄰","STREET":"西門路","SECT":"一段","MAREA":" ","LANE":" ","ALLEY":" ","HOUSE_NO":"６６２號七樓之５","E_COORD97":167749.19,"N_COORD97":2543246.3900000001,"ADDRESS":"西門路一段６６２號七樓之５","OBJECTID":626142},"geometry":{"x":167749.19000000041,"y":2543246.3900000025}},{"attributes":{"ID":626170,"DIS_CODE":0,"TOWNNAME":"中西區","LI":"小西里","LIN":"4鄰","STREET":"西門路","SECT":"一段","MAREA":" ","LANE":" ","ALLEY":" ","HOUSE_NO":"６６２號七樓之６","E_COORD97":167749.19,"N_COORD97":2543246.3900000001,"ADDRESS":"西門路一段６６２號七樓之６","OBJECTID":626143},"geometry":{"x":167749.19000000041,"y":2543246.3900000025}},{"attributes":{"ID":626171,"DIS_CODE":0,"TOWNNAME":"中西區","LI":"小西里","LIN":"4鄰","STREET":"西門路","SECT":"一段","MAREA":" ","LANE":" ","ALLEY":" ","HOUSE_NO":"６６２號九樓","E_COORD97":167749.19,"N_COORD97":2543246.3900000001,"ADDRESS":"西門路一段６６２號九樓","OBJECTID":626144},"geometry":{"x":167749.19000000041,"y":2543246.3900000025}},{"attributes":{"ID":626172,"DIS_CODE":0,"TOWNNAME":"中西區","LI":"小西里","LIN":"4鄰","STREET":"西門路","SECT":"一段","MAREA":" ","LANE":" ","ALLEY":" ","HOUSE_NO":"６６２號八樓","E_COORD97":167749.19,"N_COORD97":2543246.3900000001,"ADDRESS":"西門路一段６６２號八樓","OBJECTID":626145},"geometry":{"x":167749.19000000041,"y":2543246.3900000025}},{"attributes":{"ID":626173,"DIS_CODE":0,"TOWNNAME":"中西區","LI":"小西里","LIN":"4鄰","STREET":"西門路","SECT":"一段","MAREA":" ","LANE":" ","ALLEY":" ","HOUSE_NO":"６６２號十一樓","E_COORD97":167749.19,"N_COORD97":2543246.3900000001,"ADDRESS":"西門路一段６６２號十一樓","OBJECTID":626146},"geometry":{"x":167749.19000000041,"y":2543246.3900000025}},{"attributes":{"ID":626174,"DIS_CODE":0,"TOWNNAME":"中西區","LI":"小西里","LIN":"4鄰","STREET":"西門路","SECT":"一段","MAREA":" ","LANE":" ","ALLEY":" ","HOUSE_NO":"６６２號十樓","E_COORD97":167749.19,"N_COORD97":2543246.3900000001,"ADDRESS":"西門路一段６６２號十樓","OBJECTID":626147},"geometry":{"x":167749.19000000041,"y":2543246.3900000025}},{"attributes":{"ID":626175,"DIS_CODE":0,"TOWNNAME":"中西區","LI":"小西里","LIN":"4鄰","STREET":"西門路","SECT":"一段","MAREA":" ","LANE":" ","ALLEY":" ","HOUSE_NO":"６６２號五樓","E_COORD97":167749.19,"N_COORD97":2543246.3900000001,"ADDRESS":"西門路一段６６２號五樓","OBJECTID":626148},"geometry":{"x":167749.19000000041,"y":2543246.3900000025}},{"attributes":{"ID":626176,"DIS_CODE":0,"TOWNNAME":"中西區","LI":"小西里","LIN":"4鄰","STREET":"西門路","SECT":"一段","MAREA":" ","LANE":" ","ALLEY":" ","HOUSE_NO":"６６２號六樓","E_COORD97":167749.19,"N_COORD97":2543246.3900000001,"ADDRESS":"西門路一段６６２號六樓","OBJECTID":626149},"geometry":{"x":167749.19000000041,"y":2543246.3900000025}},{"attributes":{"ID":626177,"DIS_CODE":0,"TOWNNAME":"中西區","LI":"小西里","LIN":"4鄰","STREET":"西門路","SECT":"一段","MAREA":" ","LANE":" ","ALLEY":" ","HOUSE_NO":"６６２號四樓","E_COORD97":167749.19,"N_COORD97":2543246.3900000001,"ADDRESS":"西門路一段６６２號四樓","OBJECTID":626150},"geometry":{"x":167749.19000000041,"y":2543246.3900000025}},{"attributes":{"ID":626178,"DIS_CODE":0,"TOWNNAME":"中西區","LI":"仙草里","LIN":"12鄰","STREET":"府緯街","SECT":" ","MAREA":" ","LANE":" ","ALLEY":" ","HOUSE_NO":"２６號三樓","E_COORD97":167901.29999999999,"N_COORD97":2542727.3700000001,"ADDRESS":"府緯街２６號三樓","OBJECTID":626151},"geometry":{"x":167901.30000000075,"y":2542727.370000001}},{"attributes":{"ID":626179,"DIS_CODE":0,"TOWNNAME":"中西區","LI":"仙草里","LIN":"8鄰","STREET":"永福路","SECT":"一段","MAREA":" ","LANE":" ","ALLEY":" ","HOUSE_NO":"１１５號二樓","E_COORD97":167977.14999999999,"N_COORD97":2542776.2999999998,"ADDRESS":"永福路一段１１５號二樓","OBJECTID":626152},"geometry":{"x":167977.15000000224,"y":2542776.3000000026}},{"attributes":{"ID":626180,"DIS_CODE":0,"TOWNNAME":"中西區","LI":"仙草里","LIN":"8鄰","STREET":"永福路","SECT":"一段","MAREA":" ","LANE":" ","ALLEY":" ","HOUSE_NO":"１１５號三樓","E_COORD97":167977.14999999999,"N_COORD97":2542776.2999999998,"ADDRESS":"永福路一段１１５號三樓","OBJECTID":626153},"geometry":{"x":167977.15000000224,"y":2542776.3000000026}},{"attributes":{"ID":626181,"DIS_CODE":0,"TOWNNAME":"中西區","LI":"郡王里","LIN":"4鄰","STREET":"開山路","SECT":" ","MAREA":" ","LANE":" ","ALLEY":" ","HOUSE_NO":"１６６號七樓之１","E_COORD97":168911.01999999999,"N_COORD97":2543052.7799999998,"ADDRESS":"開山路１６６號七樓之１","OBJECTID":626154},"geometry":{"x":168911.01999999862,"y":2543052.7800000012}},{"attributes":{"ID":626182,"DIS_CODE":0,"TOWNNAME":"中西區","LI":"郡王里","LIN":"4鄰","STREET":"開山路","SECT":" ","MAREA":" ","LANE":" ","ALLEY":" ","HOUSE_NO":"１６６號七樓之２","E_COORD97":168905.04000000001,"N_COORD97":2543054.6800000002,"ADDRESS":"開山路１６６號七樓之２","OBJECTID":626155},"geometry":{"x":168905.04000000097,"y":2543054.6800000016}},{"attributes":{"ID":626183,"DIS_CODE":0,"TOWNNAME":"中西區","LI":"郡王里","LIN":"4鄰","STREET":"開山路","SECT":" ","MAREA":" ","LANE":" ","ALLEY":" ","HOUSE_NO":"１６６號二樓之１","E_COORD97":168911.01999999999,"N_COORD97":2543052.7799999998,"ADDRESS":"開山路１６６號二樓之１","OBJECTID":626156},"geometry":{"x":168911.01999999862,"y":2543052.7800000012}},{"attributes":{"ID":626184,"DIS_CODE":0,"TOWNNAME":"中西區","LI":"郡王里","LIN":"4鄰","STREET":"開山路","SECT":" ","MAREA":" ","LANE":" ","ALLEY":" ","HOUSE_NO":"１６６號二樓之２","E_COORD97":168905.04000000001,"N_COORD97":2543054.6800000002,"ADDRESS":"開山路１６６號二樓之２","OBJECTID":626157},"geometry":{"x":168905.04000000097,"y":2543054.6800000016}},{"attributes":{"ID":626185,"DIS_CODE":0,"TOWNNAME":"中西區","LI":"郡王里","LIN":"4鄰","STREET":"開山路","SECT":" ","MAREA":" ","LANE":" ","ALLEY":" ","HOUSE_NO":"１６６號三樓之１","E_COORD97":168911.01999999999,"N_COORD97":2543052.7799999998,"ADDRESS":"開山路１６６號三樓之１","OBJECTID":626158},"geometry":{"x":168911.01999999862,"y":2543052.7800000012}},{"attributes":{"ID":626186,"DIS_CODE":0,"TOWNNAME":"中西區","LI":"郡王里","LIN":"4鄰","STREET":"開山路","SECT":" ","MAREA":" ","LANE":" ","ALLEY":" ","HOUSE_NO":"１６６號三樓之２","E_COORD97":168905.04000000001,"N_COORD97":2543054.6800000002,"ADDRESS":"開山路１６６號三樓之２","OBJECTID":626159},"geometry":{"x":168905.04000000097,"y":2543054.6800000016}},{"attributes":{"ID":626187,"DIS_CODE":0,"TOWNNAME":"中西區","LI":"郡王里","LIN":"4鄰","STREET":"開山路","SECT":" ","MAREA":" ","LANE":" ","ALLEY":" ","HOUSE_NO":"１６６號五樓之１","E_COORD97":168911.01999999999,"N_COORD97":2543052.7799999998,"ADDRESS":"開山路１６６號五樓之１","OBJECTID":626160},"geometry":{"x":168911.01999999862,"y":2543052.7800000012}},{"attributes":{"ID":626188,"DIS_CODE":0,"TOWNNAME":"中西區","LI":"郡王里","LIN":"4鄰","STREET":"開山路","SECT":" ","MAREA":" ","LANE":" ","ALLEY":" ","HOUSE_NO":"１６６號五樓之２","E_COORD97":168905.04000000001,"N_COORD97":2543054.6800000002,"ADDRESS":"開山路１６６號五樓之２","OBJECTID":626161},"geometry":{"x":168905.04000000097,"y":2543054.6800000016}},{"attributes":{"ID":626189,"DIS_CODE":0,"TOWNNAME":"中西區","LI":"郡王里","LIN":"4鄰","STREET":"開山路","SECT":" ","MAREA":" ","LANE":" ","ALLEY":" ","HOUSE_NO":"１６６號六樓","E_COORD97":168911.01999999999,"N_COORD97":2543052.7799999998,"ADDRESS":"開山路１６６號六樓","OBJECTID":626162},"geometry":{"x":168911.01999999862,"y":2543052.7800000012}},{"attributes":{"ID":626190,"DIS_CODE":0,"TOWNNAME":"中西區","LI":"郡王里","LIN":"4鄰","STREET":"開山路","SECT":" ","MAREA":" ","LANE":" ","ALLEY":" ","HOUSE_NO":"１６６號四樓之１","E_COORD97":168911.01999999999,"N_COORD97":2543052.7799999998,"ADDRESS":"開山路１６６號四樓之１","OBJECTID":626163},"geometry":{"x":168911.01999999862,"y":2543052.7800000012}},{"attributes":{"ID":626191,"DIS_CODE":0,"TOWNNAME":"中西區","LI":"郡王里","LIN":"4鄰","STREET":"開山路","SECT":" ","MAREA":" ","LANE":" ","ALLEY":" ","HOUSE_NO":"１６６號四樓之２","E_COORD97":168905.04000000001,"N_COORD97":2543054.6800000002,"ADDRESS":"開山路１６６號四樓之２","OBJECTID":626164},"geometry":{"x":168905.04000000097,"y":2543054.6800000016}},{"attributes":{"ID":626192,"DIS_CODE":0,"TOWNNAME":"中西區","LI":"郡王里","LIN":"4鄰","STREET":"開山路","SECT":" ","MAREA":" ","LANE":" ","ALLEY":" ","HOUSE_NO":"１６８號七樓","E_COORD97":168902.60000000001,"N_COORD97":2543036.2400000002,"ADDRESS":"開山路１６８號七樓","OBJECTID":626165},"geometry":{"x":168902.60000000056,"y":2543036.2400000039}},{"attributes":{"ID":626193,"DIS_CODE":0,"TOWNNAME":"中西區","LI":"郡王里","LIN":"4鄰","STREET":"開山路","SECT":" ","MAREA":" ","LANE":" ","ALLEY":" ","HOUSE_NO":"１６８號二樓","E_COORD97":168902.60000000001,"N_COORD97":2543036.2400000002,"ADDRESS":"開山路１６８號二樓","OBJECTID":626166},"geometry":{"x":168902.60000000056,"y":2543036.2400000039}},{"attributes":{"ID":626194,"DIS_CODE":0,"TOWNNAME":"中西區","LI":"郡王里","LIN":"4鄰","STREET":"開山路","SECT":" ","MAREA":" ","LANE":" ","ALLEY":" ","HOUSE_NO":"１６８號三樓","E_COORD97":168902.60000000001,"N_COORD97":2543036.2400000002,"ADDRESS":"開山路１６８號三樓","OBJECTID":626167},"geometry":{"x":168902.60000000056,"y":2543036.2400000039}},{"attributes":{"ID":626195,"DIS_CODE":0,"TOWNNAME":"中西區","LI":"郡王里","LIN":"4鄰","STREET":"開山路","SECT":" ","MAREA":" ","LANE":" ","ALLEY":" ","HOUSE_NO":"１６８號五樓","E_COORD97":168902.60000000001,"N_COORD97":2543036.2400000002,"ADDRESS":"開山路１６８號五樓","OBJECTID":626168},"geometry":{"x":168902.60000000056,"y":2543036.2400000039}},{"attributes":{"ID":626196,"DIS_CODE":0,"TOWNNAME":"中西區","LI":"郡王里","LIN":"4鄰","STREET":"開山路","SECT":" ","MAREA":" ","LANE":" ","ALLEY":" ","HOUSE_NO":"１６８號六樓","E_COORD97":168902.60000000001,"N_COORD97":2543036.2400000002,"ADDRESS":"開山路１６８號六樓","OBJECTID":626169},"geometry":{"x":168902.60000000056,"y":2543036.2400000039}},{"attributes":{"ID":626197,"DIS_CODE":0,"TOWNNAME":"中西區","LI":"郡王里","LIN":"7鄰","STREET":"大埔街","SECT":" ","MAREA":" ","LANE":" ","ALLEY":" ","HOUSE_NO":"６７號五樓","E_COORD97":168812.73999999999,"N_COORD97":2543070.48,"ADDRESS":"大埔街６７號五樓","OBJECTID":626170},"geometry":{"x":168812.74000000115,"y":2543070.4800000004}},{"attributes":{"ID":626198,"DIS_CODE":0,"TOWNNAME":"中西區","LI":"郡王里","LIN":"4鄰","STREET":"開山路","SECT":" ","MAREA":" ","LANE":" ","ALLEY":" ","HOUSE_NO":"１６８號四樓","E_COORD97":168902.60000000001,"N_COORD97":2543036.2400000002,"ADDRESS":"開山路１６８號四樓","OBJECTID":626171},"geometry":{"x":168902.60000000056,"y":2543036.2400000039}},{"attributes":{"ID":626199,"DIS_CODE":0,"TOWNNAME":"中西區","LI":"郡王里","LIN":"7鄰","STREET":"大埔街","SECT":" ","MAREA":" ","LANE":" ","ALLEY":" ","HOUSE_NO":"６５號三樓","E_COORD97":168821.31,"N_COORD97":2543070.2999999998,"ADDRESS":"大埔街６５號三樓","OBJECTID":626172},"geometry":{"x":168821.31000000052,"y":2543070.3000000045}},{"attributes":{"ID":626200,"DIS_CODE":0,"TOWNNAME":"中西區","LI":"郡王里","LIN":"7鄰","STREET":"大埔街","SECT":" ","MAREA":" ","LANE":" ","ALLEY":" ","HOUSE_NO":"６５號五樓","E_COORD97":168821.31,"N_COORD97":2543070.2999999998,"ADDRESS":"大埔街６５號五樓","OBJECTID":626173},"geometry":{"x":168821.31000000052,"y":2543070.3000000045}},{"attributes":{"ID":626201,"DIS_CODE":0,"TOWNNAME":"中西區","LI":"郡王里","LIN":"7鄰","STREET":"大埔街","SECT":" ","MAREA":" ","LANE":" ","ALLEY":" ","HOUSE_NO":"６５號六樓","E_COORD97":168821.31,"N_COORD97":2543070.2999999998,"ADDRESS":"大埔街６５號六樓","OBJECTID":626174},"geometry":{"x":168821.31000000052,"y":2543070.3000000045}},{"attributes":{"ID":626202,"DIS_CODE":0,"TOWNNAME":"中西區","LI":"郡王里","LIN":"7鄰","STREET":"大埔街","SECT":" ","MAREA":" ","LANE":" ","ALLEY":" ","HOUSE_NO":"６５號四樓","E_COORD97":168821.31,"N_COORD97":2543070.2999999998,"ADDRESS":"大埔街６５號四樓","OBJECTID":626175},"geometry":{"x":168821.31000000052,"y":2543070.3000000045}},{"attributes":{"ID":626203,"DIS_CODE":0,"TOWNNAME":"中西區","LI":"法華里","LIN":"6鄰","STREET":"健康路","SECT":"一段","MAREA":" ","LANE":" ","ALLEY":" ","HOUSE_NO":"１２號三樓","E_COORD97":169165.29999999999,"N_COORD97":2542440.4700000002,"ADDRESS":"健康路一段１２號三樓","OBJECTID":626176},"geometry":{"x":169165.29999999981,"y":2542440.4700000007}},{"attributes":{"ID":626204,"DIS_CODE":0,"TOWNNAME":"中西區","LI":"法華里","LIN":"6鄰","STREET":"健康路","SECT":"一段","MAREA":" ","LANE":" ","ALLEY":" ","HOUSE_NO":"１２號五樓","E_COORD97":169165.29999999999,"N_COORD97":2542440.4700000002,"ADDRESS":"健康路一段１２號五樓","OBJECTID":626177},"geometry":{"x":169165.29999999981,"y":2542440.4700000007}},{"attributes":{"ID":626205,"DIS_CODE":0,"TOWNNAME":"中西區","LI":"大南里","LIN":"6鄰","STREET":"南寧街","SECT":" ","MAREA":" ","LANE":" ","ALLEY":" ","HOUSE_NO":"９６號四樓","E_COORD97":168174.34,"N_COORD97":2542858.9300000002,"ADDRESS":"南寧街９６號四樓","OBJECTID":626178},"geometry":{"x":168174.34000000078,"y":2542858.9300000016}},{"attributes":{"ID":626206,"DIS_CODE":0,"TOWNNAME":"中西區","LI":"大南里","LIN":"6鄰","STREET":"南寧街","SECT":" ","MAREA":" ","LANE":" ","ALLEY":" ","HOUSE_NO":"９６號五樓","E_COORD97":168174.34,"N_COORD97":2542858.9300000002,"ADDRESS":"南寧街９６號五樓","OBJECTID":626179},"geometry":{"x":168174.34000000078,"y":2542858.9300000016}},{"attributes":{"ID":626207,"DIS_CODE":0,"TOWNNAME":"中西區","LI":"小西里","LIN":"3鄰","STREET":"和意路","SECT":" ","MAREA":" ","LANE":" ","ALLEY":" ","HOUSE_NO":"３６號一樓之１","E_COORD97":167887.78,"N_COORD97":2543237.4199999999,"ADDRESS":"和意路３６號一樓之１","OBJECTID":626180},"geometry":{"x":167887.77999999933,"y":2543237.4199999999}},{"attributes":{"ID":626208,"DIS_CODE":0,"TOWNNAME":"中西區","LI":"小西里","LIN":"3鄰","STREET":"和意路","SECT":" ","MAREA":" ","LANE":" ","ALLEY":" ","HOUSE_NO":"３６號一樓之２","E_COORD97":167878.19,"N_COORD97":2543238.6200000001,"ADDRESS":"和意路３６號一樓之２","OBJECTID":626181},"geometry":{"x":167878.19000000041,"y":2543238.6200000029}},{"attributes":{"ID":626209,"DIS_CODE":0,"TOWNNAME":"中西區","LI":"小西里","LIN":"3鄰","STREET":"和意路","SECT":" ","MAREA":" ","LANE":" ","ALLEY":" ","HOUSE_NO":"３６號一樓之３","E_COORD97":167893.17000000001,"N_COORD97":2543244.9900000002,"ADDRESS":"和意路３６號一樓之３","OBJECTID":626182},"geometry":{"x":167893.16999999993,"y":2543244.9900000039}},{"attributes":{"ID":626210,"DIS_CODE":0,"TOWNNAME":"中西區","LI":"小西里","LIN":"3鄰","STREET":"和意路","SECT":" ","MAREA":" ","LANE":" ","ALLEY":" ","HOUSE_NO":"３６號一樓之４","E_COORD97":167873.59,"N_COORD97":2543246.3999999999,"ADDRESS":"和意路３６號一樓之４","OBJECTID":626183},"geometry":{"x":167873.59000000171,"y":2543246.4000000022}},{"attributes":{"ID":626211,"DIS_CODE":0,"TOWNNAME":"中西區","LI":"小西里","LIN":"3鄰","STREET":"和意路","SECT":" ","MAREA":" ","LANE":" ","ALLEY":" ","HOUSE_NO":"３６號一樓之５","E_COORD97":167892.97,"N_COORD97":2543252.1899999999,"ADDRESS":"和意路３６號一樓之５","OBJECTID":626184},"geometry":{"x":167892.9700000016,"y":2543252.1899999995}},{"attributes":{"ID":626212,"DIS_CODE":0,"TOWNNAME":"中西區","LI":"小西里","LIN":"3鄰","STREET":"和意路","SECT":" ","MAREA":" ","LANE":" ","ALLEY":" ","HOUSE_NO":"３６號一樓之６","E_COORD97":167874.19,"N_COORD97":2543254.1800000002,"ADDRESS":"和意路３６號一樓之６","OBJECTID":626185},"geometry":{"x":167874.19000000134,"y":2543254.1800000016}},{"attributes":{"ID":626213,"DIS_CODE":0,"TOWNNAME":"中西區","LI":"小西里","LIN":"3鄰","STREET":"和意路","SECT":" ","MAREA":" ","LANE":" ","ALLEY":" ","HOUSE_NO":"３６號一樓之７","E_COORD97":167889.37,"N_COORD97":2543259.1699999999,"ADDRESS":"和意路３６號一樓之７","OBJECTID":626186},"geometry":{"x":167889.37000000104,"y":2543259.1699999999}},{"attributes":{"ID":626214,"DIS_CODE":0,"TOWNNAME":"中西區","LI":"小西里","LIN":"3鄰","STREET":"和意路","SECT":" ","MAREA":" ","LANE":" ","ALLEY":" ","HOUSE_NO":"３６號一樓之８","E_COORD97":167879.39000000001,"N_COORD97":2543260.77,"ADDRESS":"和意路３６號一樓之８","OBJECTID":626187},"geometry":{"x":167879.38999999966,"y":2543260.7700000014}},{"attributes":{"ID":626215,"DIS_CODE":0,"TOWNNAME":"中西區","LI":"小西里","LIN":"3鄰","STREET":"和意路","SECT":" ","MAREA":" ","LANE":" ","ALLEY":" ","HOUSE_NO":"３６號二樓之１","E_COORD97":167887.78,"N_COORD97":2543237.4199999999,"ADDRESS":"和意路３６號二樓之１","OBJECTID":626188},"geometry":{"x":167887.77999999933,"y":2543237.4199999999}},{"attributes":{"ID":626216,"DIS_CODE":0,"TOWNNAME":"中西區","LI":"小西里","LIN":"3鄰","STREET":"和意路","SECT":" ","MAREA":" ","LANE":" ","ALLEY":" ","HOUSE_NO":"３６號二樓之２","E_COORD97":167878.19,"N_COORD97":2543238.6200000001,"ADDRESS":"和意路３６號二樓之２","OBJECTID":626189},"geometry":{"x":167878.19000000041,"y":2543238.6200000029}},{"attributes":{"ID":626217,"DIS_CODE":0,"TOWNNAME":"中西區","LI":"小西里","LIN":"3鄰","STREET":"和意路","SECT":" ","MAREA":" ","LANE":" ","ALLEY":" ","HOUSE_NO":"３６號二樓之３","E_COORD97":167893.17000000001,"N_COORD97":2543244.9900000002,"ADDRESS":"和意路３６號二樓之３","OBJECTID":626190},"geometry":{"x":167893.16999999993,"y":2543244.9900000039}},{"attributes":{"ID":626218,"DIS_CODE":0,"TOWNNAME":"中西區","LI":"小西里","LIN":"3鄰","STREET":"和意路","SECT":" ","MAREA":" ","LANE":" ","ALLEY":" ","HOUSE_NO":"３６號二樓之４","E_COORD97":167873.59,"N_COORD97":2543246.3999999999,"ADDRESS":"和意路３６號二樓之４","OBJECTID":626191},"geometry":{"x":167873.59000000171,"y":2543246.4000000022}},{"attributes":{"ID":626219,"DIS_CODE":0,"TOWNNAME":"中西區","LI":"小西里","LIN":"3鄰","STREET":"和意路","SECT":" ","MAREA":" ","LANE":" ","ALLEY":" ","HOUSE_NO":"３６號二樓之５","E_COORD97":167892.97,"N_COORD97":2543252.1899999999,"ADDRESS":"和意路３６號二樓之５","OBJECTID":626192},"geometry":{"x":167892.9700000016,"y":2543252.1899999995}},{"attributes":{"ID":626220,"DIS_CODE":0,"TOWNNAME":"中西區","LI":"小西里","LIN":"3鄰","STREET":"和意路","SECT":" ","MAREA":" ","LANE":" ","ALLEY":" ","HOUSE_NO":"３６號二樓之６","E_COORD97":167874.19,"N_COORD97":2543254.1800000002,"ADDRESS":"和意路３６號二樓之６","OBJECTID":626193},"geometry":{"x":167874.19000000134,"y":2543254.1800000016}},{"attributes":{"ID":626221,"DIS_CODE":0,"TOWNNAME":"中西區","LI":"小西里","LIN":"3鄰","STREET":"和意路","SECT":" ","MAREA":" ","LANE":" ","ALLEY":" ","HOUSE_NO":"３６號二樓之７","E_COORD97":167889.37,"N_COORD97":2543259.1699999999,"ADDRESS":"和意路３６號二樓之７","OBJECTID":626194},"geometry":{"x":167889.37000000104,"y":2543259.1699999999}},{"attributes":{"ID":626222,"DIS_CODE":0,"TOWNNAME":"中西區","LI":"小西里","LIN":"3鄰","STREET":"和意路","SECT":" ","MAREA":" ","LANE":" ","ALLEY":" ","HOUSE_NO":"３６號二樓之８","E_COORD97":167879.39000000001,"N_COORD97":2543260.77,"ADDRESS":"和意路３６號二樓之８","OBJECTID":626195},"geometry":{"x":167879.38999999966,"y":2543260.7700000014}},{"attributes":{"ID":626223,"DIS_CODE":0,"TOWNNAME":"中西區","LI":"小西里","LIN":"3鄰","STREET":"和意路","SECT":" ","MAREA":" ","LANE":" ","ALLEY":" ","HOUSE_NO":"３６號三樓之１","E_COORD97":167887.78,"N_COORD97":2543237.4199999999,"ADDRESS":"和意路３６號三樓之１","OBJECTID":626196},"geometry":{"x":167887.77999999933,"y":2543237.4199999999}},{"attributes":{"ID":626224,"DIS_CODE":0,"TOWNNAME":"中西區","LI":"小西里","LIN":"3鄰","STREET":"和意路","SECT":" ","MAREA":" ","LANE":" ","ALLEY":" ","HOUSE_NO":"３６號三樓之２","E_COORD97":167878.19,"N_COORD97":2543238.6200000001,"ADDRESS":"和意路３６號三樓之２","OBJECTID":626197},"geometry":{"x":167878.19000000041,"y":2543238.6200000029}},{"attributes":{"ID":626225,"DIS_CODE":0,"TOWNNAME":"中西區","LI":"大南里","LIN":"15鄰","STREET":"忠義路","SECT":"一段","MAREA":" ","LANE":" ","ALLEY":" ","HOUSE_NO":"５０號二樓","E_COORD97":168175.04999999999,"N_COORD97":2542968.1499999999,"ADDRESS":"忠義路一段５０號二樓","OBJECTID":626198},"geometry":{"x":168175.04999999981,"y":2542968.1500000004}},{"attributes":{"ID":626226,"DIS_CODE":0,"TOWNNAME":"中西區","LI":"大南里","LIN":"15鄰","STREET":"忠義路","SECT":"一段","MAREA":" ","LANE":" ","ALLEY":" ","HOUSE_NO":"５０號三樓","E_COORD97":168175.04999999999,"N_COORD97":2542968.1499999999,"ADDRESS":"忠義路一段５０號三樓","OBJECTID":626199},"geometry":{"x":168175.04999999981,"y":2542968.1500000004}},{"attributes":{"ID":626227,"DIS_CODE":0,"TOWNNAME":"永康區","LI":"埔園里","LIN":"38鄰","STREET":"龍中街","SECT":" ","MAREA":" ","LANE":" ","ALLEY":" ","HOUSE_NO":"３５９號四樓之１","E_COORD97":174402.70000000001,"N_COORD97":2547932.0800000001,"ADDRESS":"龍中街３５９號四樓之１","OBJECTID":626200},"geometry":{"x":174402.70000000019,"y":2547932.0800000001}}]}