{"displayFieldName":"TOWNNAME","fieldAliases":{"ID":"ID","DIS_CODE":"DIS_CODE","TOWNNAME":"TOWNNAME","LI":"LI","LIN":"LIN","STREET":"STREET","SECT":"SECT","MAREA":"MAREA","LANE":"LANE","ALLEY":"ALLEY","HOUSE_NO":"HOUSE_NO","E_COORD97":"E_COORD97","N_COORD97":"N_COORD97","ADDRESS":"ADDRESS","OBJECTID":"OBJECTID"},"geometryType":"esriGeometryPoint","spatialReference":{"wkid":102443,"latestWkid":3826},"fields":[{"name":"ID","type":"esriFieldTypeDouble","alias":"ID"},{"name":"DIS_CODE","type":"esriFieldTypeInteger","alias":"DIS_CODE"},{"name":"TOWNNAME","type":"esriFieldTypeString","alias":"TOWNNAME","length":8},{"name":"LI","type":"esriFieldTypeString","alias":"LI","length":8},{"name":"LIN","type":"esriFieldTypeString","alias":"LIN","length":12},{"name":"STREET","type":"esriFieldTypeString","alias":"STREET","length":20},{"name":"SECT","type":"esriFieldTypeString","alias":"SECT","length":8},{"name":"MAREA","type":"esriFieldTypeString","alias":"MAREA","length":12},{"name":"LANE","type":"esriFieldTypeString","alias":"LANE","length":10},{"name":"ALLEY","type":"esriFieldTypeString","alias":"ALLEY","length":10},{"name":"HOUSE_NO","type":"esriFieldTypeString","alias":"HOUSE_NO","length":20},{"name":"E_COORD97","type":"esriFieldTypeDouble","alias":"E_COORD97"},{"name":"N_COORD97","type":"esriFieldTypeDouble","alias":"N_COORD97"},{"name":"ADDRESS","type":"esriFieldTypeString","alias":"ADDRESS","length":50},{"name":"OBJECTID","type":"esriFieldTypeOID","alias":"OBJECTID"}],"features":[{"attributes":{"ID":379011,"DIS_CODE":0,"TOWNNAME":"玉井區","LI":"玉田里","LIN":"21鄰","STREET":"大智街","SECT":" ","MAREA":" ","LANE":"１５８巷","ALLEY":" ","HOUSE_NO":"１０號","E_COORD97":195290.01000000001,"N_COORD97":2557842.25,"ADDRESS":"大智街１５８巷１０號","OBJECTID":379001},"geometry":{"x":195290.00999999978,"y":2557842.2500000019}},{"attributes":{"ID":379012,"DIS_CODE":0,"TOWNNAME":"北區","LI":"和順里","LIN":"21鄰","STREET":"民德路","SECT":" ","MAREA":" ","LANE":"８５巷","ALLEY":" ","HOUSE_NO":"２３號","E_COORD97":168214.70000000001,"N_COORD97":2545066.77,"ADDRESS":"民德路８５巷２３號","OBJECTID":379002},"geometry":{"x":168214.70000000019,"y":2545066.7700000014}},{"attributes":{"ID":379013,"DIS_CODE":0,"TOWNNAME":"北區","LI":"和順里","LIN":"21鄰","STREET":"民德路","SECT":" ","MAREA":" ","LANE":"８５巷","ALLEY":" ","HOUSE_NO":"１９號","E_COORD97":168222.62,"N_COORD97":2545070.1499999999,"ADDRESS":"民德路８５巷１９號","OBJECTID":379003},"geometry":{"x":168222.62000000011,"y":2545070.1500000004}},{"attributes":{"ID":379014,"DIS_CODE":0,"TOWNNAME":"北區","LI":"和順里","LIN":"21鄰","STREET":"民德路","SECT":" ","MAREA":" ","LANE":"８５巷","ALLEY":" ","HOUSE_NO":"１號","E_COORD97":168257.31,"N_COORD97":2545084.8199999998,"ADDRESS":"民德路８５巷１號","OBJECTID":379004},"geometry":{"x":168257.31000000052,"y":2545084.8200000022}},{"attributes":{"ID":379015,"DIS_CODE":0,"TOWNNAME":"北區","LI":"和順里","LIN":"21鄰","STREET":"民德路","SECT":" ","MAREA":" ","LANE":"８５巷","ALLEY":" ","HOUSE_NO":"２１號","E_COORD97":168218.88,"N_COORD97":2545067.9199999999,"ADDRESS":"民德路８５巷２１號","OBJECTID":379005},"geometry":{"x":168218.87999999989,"y":2545067.9199999999}},{"attributes":{"ID":379016,"DIS_CODE":0,"TOWNNAME":"北區","LI":"和順里","LIN":"21鄰","STREET":"民德路","SECT":" ","MAREA":" ","LANE":"８５巷","ALLEY":" ","HOUSE_NO":"２５號","E_COORD97":168210.82000000001,"N_COORD97":2545065.48,"ADDRESS":"民德路８５巷２５號","OBJECTID":379006},"geometry":{"x":168210.8200000003,"y":2545065.4799999986}},{"attributes":{"ID":379017,"DIS_CODE":0,"TOWNNAME":"北區","LI":"和順里","LIN":"21鄰","STREET":"民德路","SECT":" ","MAREA":" ","LANE":"８５巷","ALLEY":" ","HOUSE_NO":"２７號","E_COORD97":168206.92999999999,"N_COORD97":2545063.6099999999,"ADDRESS":"民德路８５巷２７號","OBJECTID":379007},"geometry":{"x":168206.93000000063,"y":2545063.6100000031}},{"attributes":{"ID":379018,"DIS_CODE":0,"TOWNNAME":"北區","LI":"和順里","LIN":"21鄰","STREET":"民德路","SECT":" ","MAREA":" ","LANE":"８５巷","ALLEY":" ","HOUSE_NO":"２９號","E_COORD97":168202.89999999999,"N_COORD97":2545062.0299999998,"ADDRESS":"民德路８５巷２９號","OBJECTID":379008},"geometry":{"x":168202.9000000013,"y":2545062.0300000012}},{"attributes":{"ID":379019,"DIS_CODE":0,"TOWNNAME":"北區","LI":"和順里","LIN":"21鄰","STREET":"民德路","SECT":" ","MAREA":" ","LANE":"８５巷","ALLEY":" ","HOUSE_NO":"３１號","E_COORD97":168199.16,"N_COORD97":2545060.1600000001,"ADDRESS":"民德路８５巷３１號","OBJECTID":379009},"geometry":{"x":168199.16000000108,"y":2545060.1600000001}},{"attributes":{"ID":379020,"DIS_CODE":0,"TOWNNAME":"北區","LI":"和順里","LIN":"21鄰","STREET":"民德路","SECT":" ","MAREA":" ","LANE":"８５巷","ALLEY":" ","HOUSE_NO":"３３號","E_COORD97":168195.70000000001,"N_COORD97":2545058.8700000001,"ADDRESS":"民德路８５巷３３號","OBJECTID":379010},"geometry":{"x":168195.70000000112,"y":2545058.870000001}},{"attributes":{"ID":379021,"DIS_CODE":0,"TOWNNAME":"北區","LI":"和順里","LIN":"21鄰","STREET":"民德路","SECT":" ","MAREA":" ","LANE":"８５巷","ALLEY":" ","HOUSE_NO":"３５號","E_COORD97":168191.53,"N_COORD97":2545057.1400000001,"ADDRESS":"民德路８５巷３５號","OBJECTID":379011},"geometry":{"x":168191.53000000119,"y":2545057.1400000006}},{"attributes":{"ID":379022,"DIS_CODE":0,"TOWNNAME":"北區","LI":"和順里","LIN":"21鄰","STREET":"民德路","SECT":" ","MAREA":" ","LANE":"８５巷","ALLEY":" ","HOUSE_NO":"３７號","E_COORD97":168187.5,"N_COORD97":2545055.7000000002,"ADDRESS":"民德路８５巷３７號","OBJECTID":379012},"geometry":{"x":168187.5,"y":2545055.6999999993}},{"attributes":{"ID":379023,"DIS_CODE":0,"TOWNNAME":"北區","LI":"和順里","LIN":"21鄰","STREET":"民德路","SECT":" ","MAREA":" ","LANE":"８５巷","ALLEY":" ","HOUSE_NO":"３９號","E_COORD97":168183.89999999999,"N_COORD97":2545054.4100000001,"ADDRESS":"民德路８５巷３９號","OBJECTID":379013},"geometry":{"x":168183.90000000224,"y":2545054.4100000001}},{"attributes":{"ID":379024,"DIS_CODE":0,"TOWNNAME":"北區","LI":"和順里","LIN":"21鄰","STREET":"民德路","SECT":" ","MAREA":" ","LANE":"８５巷","ALLEY":" ","HOUSE_NO":"３號","E_COORD97":168253.85000000001,"N_COORD97":2545083.3799999999,"ADDRESS":"民德路８５巷３號","OBJECTID":379014},"geometry":{"x":168253.84999999963,"y":2545083.3800000008}},{"attributes":{"ID":379025,"DIS_CODE":0,"TOWNNAME":"北區","LI":"和順里","LIN":"21鄰","STREET":"民德路","SECT":" ","MAREA":" ","LANE":"８５巷","ALLEY":" ","HOUSE_NO":"４１號","E_COORD97":168179.57999999999,"N_COORD97":2545053.6899999999,"ADDRESS":"民德路８５巷４１號","OBJECTID":379015},"geometry":{"x":168179.58000000101,"y":2545053.6900000013}},{"attributes":{"ID":379026,"DIS_CODE":0,"TOWNNAME":"北區","LI":"和順里","LIN":"21鄰","STREET":"民德路","SECT":" ","MAREA":" ","LANE":"８５巷","ALLEY":" ","HOUSE_NO":"４３號","E_COORD97":168175.84,"N_COORD97":2545051.6800000002,"ADDRESS":"民德路８５巷４３號","OBJECTID":379016},"geometry":{"x":168175.84000000078,"y":2545051.6800000016}},{"attributes":{"ID":379027,"DIS_CODE":0,"TOWNNAME":"北區","LI":"和順里","LIN":"21鄰","STREET":"民德路","SECT":" ","MAREA":" ","LANE":"８５巷","ALLEY":" ","HOUSE_NO":"４５號","E_COORD97":168171.51999999999,"N_COORD97":2545049.6600000001,"ADDRESS":"民德路８５巷４５號","OBJECTID":379017},"geometry":{"x":168171.51999999955,"y":2545049.6600000001}},{"attributes":{"ID":379028,"DIS_CODE":0,"TOWNNAME":"北區","LI":"和順里","LIN":"21鄰","STREET":"民德路","SECT":" ","MAREA":" ","LANE":"８５巷","ALLEY":" ","HOUSE_NO":"４７號","E_COORD97":168167.48999999999,"N_COORD97":2545048.23,"ADDRESS":"民德路８５巷４７號","OBJECTID":379018},"geometry":{"x":168167.49000000022,"y":2545048.2300000023}},{"attributes":{"ID":379029,"DIS_CODE":0,"TOWNNAME":"北區","LI":"和順里","LIN":"21鄰","STREET":"民德路","SECT":" ","MAREA":" ","LANE":"８５巷","ALLEY":" ","HOUSE_NO":"４９號","E_COORD97":168163.32000000001,"N_COORD97":2545046.79,"ADDRESS":"民德路８５巷４９號","OBJECTID":379019},"geometry":{"x":168163.3200000003,"y":2545046.790000001}},{"attributes":{"ID":379030,"DIS_CODE":0,"TOWNNAME":"北區","LI":"和順里","LIN":"21鄰","STREET":"民德路","SECT":" ","MAREA":" ","LANE":"８５巷","ALLEY":" ","HOUSE_NO":"５１號","E_COORD97":168160.14999999999,"N_COORD97":2545045.3500000001,"ADDRESS":"民德路８５巷５１號","OBJECTID":379020},"geometry":{"x":168160.15000000224,"y":2545045.3500000034}},{"attributes":{"ID":379031,"DIS_CODE":0,"TOWNNAME":"北區","LI":"和順里","LIN":"21鄰","STREET":"民德路","SECT":" ","MAREA":" ","LANE":"８５巷","ALLEY":" ","HOUSE_NO":"５３號","E_COORD97":168155.98000000001,"N_COORD97":2545043.48,"ADDRESS":"民德路８５巷５３號","OBJECTID":379021},"geometry":{"x":168155.98000000045,"y":2545043.4800000023}},{"attributes":{"ID":379032,"DIS_CODE":0,"TOWNNAME":"北區","LI":"和順里","LIN":"21鄰","STREET":"民德路","SECT":" ","MAREA":" ","LANE":"８５巷","ALLEY":" ","HOUSE_NO":"５５號","E_COORD97":168152.09,"N_COORD97":2545042.04,"ADDRESS":"民德路８５巷５５號","OBJECTID":379022},"geometry":{"x":168152.09000000078,"y":2545042.0399999991}},{"attributes":{"ID":379033,"DIS_CODE":0,"TOWNNAME":"北區","LI":"和順里","LIN":"21鄰","STREET":"民德路","SECT":" ","MAREA":" ","LANE":"８５巷","ALLEY":" ","HOUSE_NO":"５７號","E_COORD97":168148.06,"N_COORD97":2545040.6099999999,"ADDRESS":"民德路８５巷５７號","OBJECTID":379023},"geometry":{"x":168148.06000000145,"y":2545040.6100000013}},{"attributes":{"ID":379034,"DIS_CODE":0,"TOWNNAME":"北區","LI":"和順里","LIN":"21鄰","STREET":"民德路","SECT":" ","MAREA":" ","LANE":"８５巷","ALLEY":" ","HOUSE_NO":"５９號","E_COORD97":168144.32000000001,"N_COORD97":2545038.52,"ADDRESS":"民德路８５巷５９號","OBJECTID":379024},"geometry":{"x":168144.32000000123,"y":2545038.5200000014}},{"attributes":{"ID":379035,"DIS_CODE":0,"TOWNNAME":"北區","LI":"和順里","LIN":"21鄰","STREET":"民德路","SECT":" ","MAREA":" ","LANE":"８５巷","ALLEY":" ","HOUSE_NO":"５號","E_COORD97":168249.97,"N_COORD97":2545081.7999999998,"ADDRESS":"民德路８５巷５號","OBJECTID":379025},"geometry":{"x":168249.96999999974,"y":2545081.8000000026}},{"attributes":{"ID":379036,"DIS_CODE":0,"TOWNNAME":"北區","LI":"和順里","LIN":"21鄰","STREET":"民德路","SECT":" ","MAREA":" ","LANE":"８５巷","ALLEY":" ","HOUSE_NO":"６１號","E_COORD97":168140.29000000001,"N_COORD97":2545037.23,"ADDRESS":"民德路８５巷６１號","OBJECTID":379026},"geometry":{"x":168140.2900000019,"y":2545037.2300000023}},{"attributes":{"ID":379037,"DIS_CODE":0,"TOWNNAME":"北區","LI":"和順里","LIN":"21鄰","STREET":"民德路","SECT":" ","MAREA":" ","LANE":"８５巷","ALLEY":" ","HOUSE_NO":"７１號","E_COORD97":168120.70999999999,"N_COORD97":2545031.04,"ADDRESS":"民德路８５巷７１號","OBJECTID":379027},"geometry":{"x":168120.71000000089,"y":2545031.040000001}},{"attributes":{"ID":379038,"DIS_CODE":0,"TOWNNAME":"北區","LI":"和順里","LIN":"21鄰","STREET":"民德路","SECT":" ","MAREA":" ","LANE":"８５巷","ALLEY":" ","HOUSE_NO":"７３號","E_COORD97":168117.10999999999,"N_COORD97":2545028.1699999999,"ADDRESS":"民德路８５巷７３號","OBJECTID":379028},"geometry":{"x":168117.11000000127,"y":2545028.1700000018}},{"attributes":{"ID":379039,"DIS_CODE":0,"TOWNNAME":"北區","LI":"和順里","LIN":"21鄰","STREET":"民德路","SECT":" ","MAREA":" ","LANE":"８５巷","ALLEY":" ","HOUSE_NO":"７５號","E_COORD97":168112.79000000001,"N_COORD97":2545027.5899999999,"ADDRESS":"民德路８５巷７５號","OBJECTID":379029},"geometry":{"x":168112.79000000004,"y":2545027.5900000017}},{"attributes":{"ID":379040,"DIS_CODE":0,"TOWNNAME":"北區","LI":"和順里","LIN":"21鄰","STREET":"民德路","SECT":" ","MAREA":" ","LANE":"８５巷","ALLEY":" ","HOUSE_NO":"７７號","E_COORD97":168108.62,"N_COORD97":2545025.5800000001,"ADDRESS":"民德路８５巷７７號","OBJECTID":379030},"geometry":{"x":168108.62000000011,"y":2545025.5800000019}},{"attributes":{"ID":379041,"DIS_CODE":0,"TOWNNAME":"北區","LI":"和順里","LIN":"21鄰","STREET":"民德路","SECT":" ","MAREA":" ","LANE":"８５巷","ALLEY":" ","HOUSE_NO":"７９號","E_COORD97":168105.31,"N_COORD97":2545024.1400000001,"ADDRESS":"民德路８５巷７９號","OBJECTID":379031},"geometry":{"x":168105.30999999959,"y":2545024.1400000043}},{"attributes":{"ID":379042,"DIS_CODE":0,"TOWNNAME":"北區","LI":"和順里","LIN":"21鄰","STREET":"民德路","SECT":" ","MAREA":" ","LANE":"８５巷","ALLEY":" ","HOUSE_NO":"８１號","E_COORD97":168101.14000000001,"N_COORD97":2545022.8500000001,"ADDRESS":"民德路８５巷８１號","OBJECTID":379032},"geometry":{"x":168101.13999999966,"y":2545022.8500000015}},{"attributes":{"ID":379043,"DIS_CODE":0,"TOWNNAME":"北區","LI":"和順里","LIN":"21鄰","STREET":"民德路","SECT":" ","MAREA":" ","LANE":"８５巷","ALLEY":" ","HOUSE_NO":"９號","E_COORD97":168241.91,"N_COORD97":2545078.9199999999,"ADDRESS":"民德路８５巷９號","OBJECTID":379033},"geometry":{"x":168241.91000000108,"y":2545078.9199999981}},{"attributes":{"ID":379044,"DIS_CODE":0,"TOWNNAME":"北區","LI":"和順里","LIN":"21鄰","STREET":"民德路","SECT":" ","MAREA":" ","LANE":"８５巷","ALLEY":" ","HOUSE_NO":"８５號","E_COORD97":168092.79000000001,"N_COORD97":2545020.2599999998,"ADDRESS":"民德路８５巷８５號","OBJECTID":379034},"geometry":{"x":168092.7900000019,"y":2545020.2600000016}},{"attributes":{"ID":379045,"DIS_CODE":0,"TOWNNAME":"北區","LI":"和順里","LIN":"21鄰","STREET":"民德路","SECT":" ","MAREA":" ","LANE":"８５巷","ALLEY":" ","HOUSE_NO":"８７號","E_COORD97":168088.47,"N_COORD97":2545018.8199999998,"ADDRESS":"民德路８５巷８７號","OBJECTID":379035},"geometry":{"x":168088.47000000067,"y":2545018.8200000003}},{"attributes":{"ID":379046,"DIS_CODE":0,"TOWNNAME":"北區","LI":"和順里","LIN":"21鄰","STREET":"民德路","SECT":" ","MAREA":" ","LANE":"８５巷","ALLEY":" ","HOUSE_NO":"８９號","E_COORD97":168085.01999999999,"N_COORD97":2545017.1000000001,"ADDRESS":"民德路８５巷８９號","OBJECTID":379036},"geometry":{"x":168085.01999999955,"y":2545017.1000000015}},{"attributes":{"ID":379047,"DIS_CODE":0,"TOWNNAME":"北區","LI":"和順里","LIN":"21鄰","STREET":"民德路","SECT":" ","MAREA":" ","LANE":"８５巷","ALLEY":" ","HOUSE_NO":"８３號","E_COORD97":168096.82000000001,"N_COORD97":2545021.5600000001,"ADDRESS":"民德路８５巷８３號","OBJECTID":379037},"geometry":{"x":168096.82000000123,"y":2545021.5600000024}},{"attributes":{"ID":379048,"DIS_CODE":0,"TOWNNAME":"歸仁區","LI":"大廟里","LIN":"21鄰","STREET":"大廟一街","SECT":" ","MAREA":" ","LANE":"３８巷","ALLEY":" ","HOUSE_NO":"５４號","E_COORD97":175660.70000000001,"N_COORD97":2544113.1200000001,"ADDRESS":"大廟一街３８巷５４號","OBJECTID":379038},"geometry":{"x":175660.69999999925,"y":2544113.1200000029}},{"attributes":{"ID":379049,"DIS_CODE":0,"TOWNNAME":"南區","LI":"鯤鯓里","LIN":"21鄰","STREET":"鯤鯓路","SECT":" ","MAREA":" ","LANE":"１８４巷","ALLEY":" ","HOUSE_NO":"２號","E_COORD97":164894.57000000001,"N_COORD97":2540254.2000000002,"ADDRESS":"鯤鯓路１８４巷２號","OBJECTID":379039},"geometry":{"x":164894.57000000123,"y":2540254.1999999993}},{"attributes":{"ID":379050,"DIS_CODE":0,"TOWNNAME":"南區","LI":"鯤鯓里","LIN":"21鄰","STREET":"鯤鯓路","SECT":" ","MAREA":" ","LANE":"１８４巷","ALLEY":" ","HOUSE_NO":"６號","E_COORD97":164912.69,"N_COORD97":2540262.1600000001,"ADDRESS":"鯤鯓路１８４巷６號","OBJECTID":379040},"geometry":{"x":164912.69000000134,"y":2540262.1600000001}},{"attributes":{"ID":379051,"DIS_CODE":0,"TOWNNAME":"南區","LI":"鯤鯓里","LIN":"21鄰","STREET":"鯤鯓路","SECT":" ","MAREA":" ","LANE":"１６２巷","ALLEY":" ","HOUSE_NO":"１１號","E_COORD97":164954.12,"N_COORD97":2540196.5899999999,"ADDRESS":"鯤鯓路１６２巷１１號","OBJECTID":379041},"geometry":{"x":164954.12000000011,"y":2540196.5900000017}},{"attributes":{"ID":379052,"DIS_CODE":0,"TOWNNAME":"中西區","LI":"仙草里","LIN":"15鄰","STREET":"五妃街","SECT":" ","MAREA":" ","LANE":"３０９巷","ALLEY":" ","HOUSE_NO":"１０號","E_COORD97":167887.20000000001,"N_COORD97":2542536.25,"ADDRESS":"五妃街３０９巷１０號","OBJECTID":379042},"geometry":{"x":167887.20000000112,"y":2542536.25}},{"attributes":{"ID":379053,"DIS_CODE":0,"TOWNNAME":"中西區","LI":"仙草里","LIN":"15鄰","STREET":"五妃街","SECT":" ","MAREA":" ","LANE":"３０９巷","ALLEY":" ","HOUSE_NO":"１２號","E_COORD97":167878.17000000001,"N_COORD97":2542527.27,"ADDRESS":"五妃街３０９巷１２號","OBJECTID":379043},"geometry":{"x":167878.17000000179,"y":2542527.2700000014}},{"attributes":{"ID":379054,"DIS_CODE":0,"TOWNNAME":"中西區","LI":"仙草里","LIN":"15鄰","STREET":"五妃街","SECT":" ","MAREA":" ","LANE":"３０９巷","ALLEY":" ","HOUSE_NO":"１４號","E_COORD97":167884.06,"N_COORD97":2542523.54,"ADDRESS":"五妃街３０９巷１４號","OBJECTID":379044},"geometry":{"x":167884.06000000052,"y":2542523.5399999991}},{"attributes":{"ID":379055,"DIS_CODE":0,"TOWNNAME":"中西區","LI":"仙草里","LIN":"15鄰","STREET":"五妃街","SECT":" ","MAREA":" ","LANE":"３０９巷","ALLEY":" ","HOUSE_NO":"１６號","E_COORD97":167892.31,"N_COORD97":2542523.1499999999,"ADDRESS":"五妃街３０９巷１６號","OBJECTID":379045},"geometry":{"x":167892.31000000052,"y":2542523.1500000022}},{"attributes":{"ID":379056,"DIS_CODE":0,"TOWNNAME":"中西區","LI":"仙草里","LIN":"15鄰","STREET":"五妃街","SECT":" ","MAREA":" ","LANE":"３２１巷","ALLEY":" ","HOUSE_NO":"１０號","E_COORD97":167866.57999999999,"N_COORD97":2542538.7999999998,"ADDRESS":"五妃街３２１巷１０號","OBJECTID":379046},"geometry":{"x":167866.58000000007,"y":2542538.8000000026}},{"attributes":{"ID":379057,"DIS_CODE":0,"TOWNNAME":"中西區","LI":"仙草里","LIN":"15鄰","STREET":"五妃街","SECT":" ","MAREA":" ","LANE":"３２１巷","ALLEY":" ","HOUSE_NO":"１２號","E_COORD97":167867.17000000001,"N_COORD97":2542533.3100000001,"ADDRESS":"五妃街３２１巷１２號","OBJECTID":379047},"geometry":{"x":167867.16999999993,"y":2542533.3100000005}},{"attributes":{"ID":379058,"DIS_CODE":0,"TOWNNAME":"中西區","LI":"仙草里","LIN":"15鄰","STREET":"五妃街","SECT":" ","MAREA":" ","LANE":"３２１巷","ALLEY":" ","HOUSE_NO":"１４號","E_COORD97":167867.76000000001,"N_COORD97":2542528.0099999998,"ADDRESS":"五妃街３２１巷１４號","OBJECTID":379048},"geometry":{"x":167867.76000000071,"y":2542528.0099999998}},{"attributes":{"ID":379059,"DIS_CODE":0,"TOWNNAME":"中西區","LI":"仙草里","LIN":"15鄰","STREET":"五妃街","SECT":" ","MAREA":" ","LANE":"３２１巷","ALLEY":" ","HOUSE_NO":"１號","E_COORD97":167882.09,"N_COORD97":2542564.5099999998,"ADDRESS":"五妃街３２１巷１號","OBJECTID":379049},"geometry":{"x":167882.09000000171,"y":2542564.5099999998}},{"attributes":{"ID":379060,"DIS_CODE":0,"TOWNNAME":"楠西區","LI":"東勢里","LIN":"21鄰","STREET":"民生路","SECT":" ","MAREA":" ","LANE":"１０６巷","ALLEY":" ","HOUSE_NO":"８號","E_COORD97":197382.29000000001,"N_COORD97":2564219.29,"ADDRESS":"民生路１０６巷８號","OBJECTID":379050},"geometry":{"x":197382.2900000019,"y":2564219.290000001}},{"attributes":{"ID":379061,"DIS_CODE":0,"TOWNNAME":"新營區","LI":"新北里","LIN":"21鄰","STREET":"民生路","SECT":" ","MAREA":" ","LANE":"３３６巷","ALLEY":" ","HOUSE_NO":"７５之１號","E_COORD97":179041.03,"N_COORD97":2579244.0299999998,"ADDRESS":"民生路３３６巷７５之１號","OBJECTID":379051},"geometry":{"x":179041.03000000119,"y":2579244.0300000012}},{"attributes":{"ID":379062,"DIS_CODE":0,"TOWNNAME":"新營區","LI":"王公里","LIN":"21鄰","STREET":"民族路","SECT":" ","MAREA":" ","LANE":"１５０巷","ALLEY":" ","HOUSE_NO":"２１號","E_COORD97":180497.64000000001,"N_COORD97":2579361.1000000001,"ADDRESS":"民族路１５０巷２１號","OBJECTID":379052},"geometry":{"x":180497.6400000006,"y":2579361.1000000034}},{"attributes":{"ID":379063,"DIS_CODE":0,"TOWNNAME":"新營區","LI":"南紙里","LIN":"21鄰","STREET":"建業路","SECT":" ","MAREA":" ","LANE":"２２７巷","ALLEY":" ","HOUSE_NO":"１０號","E_COORD97":178111.29000000001,"N_COORD97":2577444.3999999999,"ADDRESS":"建業路２２７巷１０號","OBJECTID":379053},"geometry":{"x":178111.2900000019,"y":2577444.4000000041}},{"attributes":{"ID":379064,"DIS_CODE":0,"TOWNNAME":"新營區","LI":"南興里","LIN":"21鄰","STREET":"延平路","SECT":" ","MAREA":" ","LANE":"１４０巷","ALLEY":" ","HOUSE_NO":"４８號","E_COORD97":179643.69,"N_COORD97":2577438.1600000001,"ADDRESS":"延平路１４０巷４８號","OBJECTID":379054},"geometry":{"x":179643.69000000134,"y":2577438.1600000001}},{"attributes":{"ID":379065,"DIS_CODE":0,"TOWNNAME":"新營區","LI":"民生里","LIN":"21鄰","STREET":"民生路","SECT":" ","MAREA":" ","LANE":"１６３巷","ALLEY":" ","HOUSE_NO":"１１０號","E_COORD97":179115.98000000001,"N_COORD97":2578503.8300000001,"ADDRESS":"民生路１６３巷１１０號","OBJECTID":379055},"geometry":{"x":179115.98000000138,"y":2578503.8300000019}},{"attributes":{"ID":379066,"DIS_CODE":0,"TOWNNAME":"新營區","LI":"新北里","LIN":"21鄰","STREET":"民生路","SECT":" ","MAREA":" ","LANE":"３３６巷","ALLEY":" ","HOUSE_NO":"３號","E_COORD97":178943.19,"N_COORD97":2579232.2400000002,"ADDRESS":"民生路３３６巷３號","OBJECTID":379056},"geometry":{"x":178943.19000000134,"y":2579232.2400000021}},{"attributes":{"ID":379067,"DIS_CODE":0,"TOWNNAME":"新營區","LI":"王公里","LIN":"21鄰","STREET":"民族路","SECT":" ","MAREA":" ","LANE":"１５０巷","ALLEY":" ","HOUSE_NO":"４３號","E_COORD97":180552.88,"N_COORD97":2579359.73,"ADDRESS":"民族路１５０巷４３號","OBJECTID":379057},"geometry":{"x":180552.87999999989,"y":2579359.7300000004}},{"attributes":{"ID":379068,"DIS_CODE":0,"TOWNNAME":"新營區","LI":"民生里","LIN":"21鄰","STREET":"民生路","SECT":" ","MAREA":" ","LANE":"１６３巷","ALLEY":" ","HOUSE_NO":"１０８之５號","E_COORD97":179077.57000000001,"N_COORD97":2578504.0800000001,"ADDRESS":"民生路１６３巷１０８之５號","OBJECTID":379058},"geometry":{"x":179077.57000000216,"y":2578504.0800000038}},{"attributes":{"ID":379069,"DIS_CODE":0,"TOWNNAME":"新營區","LI":"王公里","LIN":"21鄰","STREET":"民族路","SECT":" ","MAREA":" ","LANE":"１５０巷","ALLEY":" ","HOUSE_NO":"３３號","E_COORD97":180532.44,"N_COORD97":2579359.8199999998,"ADDRESS":"民族路１５０巷３３號","OBJECTID":379059},"geometry":{"x":180532.44000000041,"y":2579359.8200000003}},{"attributes":{"ID":379070,"DIS_CODE":0,"TOWNNAME":"新營區","LI":"忠政里","LIN":"21鄰","STREET":"府西路","SECT":" ","MAREA":" ","LANE":"２３１巷","ALLEY":" ","HOUSE_NO":"１７號","E_COORD97":179737.75,"N_COORD97":2579599.46,"ADDRESS":"府西路２３１巷１７號","OBJECTID":379060},"geometry":{"x":179737.75000000093,"y":2579599.4600000009}},{"attributes":{"ID":379071,"DIS_CODE":0,"TOWNNAME":"新營區","LI":"南紙里","LIN":"21鄰","STREET":"建業路","SECT":" ","MAREA":" ","LANE":"２６９巷","ALLEY":" ","HOUSE_NO":"７號","E_COORD97":178001.67999999999,"N_COORD97":2577454.8999999999,"ADDRESS":"建業路２６９巷７號","OBJECTID":379061},"geometry":{"x":178001.68000000063,"y":2577454.9000000022}},{"attributes":{"ID":379072,"DIS_CODE":0,"TOWNNAME":"新營區","LI":"民生里","LIN":"21鄰","STREET":"民生路","SECT":" ","MAREA":" ","LANE":"１６３巷","ALLEY":" ","HOUSE_NO":"１２０號","E_COORD97":179122.01999999999,"N_COORD97":2578482.7599999998,"ADDRESS":"民生路１６３巷１２０號","OBJECTID":379062},"geometry":{"x":179122.02000000048,"y":2578482.7600000016}},{"attributes":{"ID":379073,"DIS_CODE":0,"TOWNNAME":"中西區","LI":"仙草里","LIN":"19鄰","STREET":"健康路","SECT":"一段","MAREA":" ","LANE":"３９０巷","ALLEY":" ","HOUSE_NO":"１２號","E_COORD97":167854.48000000001,"N_COORD97":2542493.75,"ADDRESS":"健康路一段３９０巷１２號","OBJECTID":379063},"geometry":{"x":167854.48000000231,"y":2542493.7500000037}},{"attributes":{"ID":379074,"DIS_CODE":0,"TOWNNAME":"中西區","LI":"仙草里","LIN":"19鄰","STREET":"健康路","SECT":"一段","MAREA":" ","LANE":"３９０巷","ALLEY":" ","HOUSE_NO":"１４號","E_COORD97":167854.67999999999,"N_COORD97":2542495.9100000001,"ADDRESS":"健康路一段３９０巷１４號","OBJECTID":379064},"geometry":{"x":167854.68000000063,"y":2542495.9100000039}},{"attributes":{"ID":379075,"DIS_CODE":0,"TOWNNAME":"中西區","LI":"仙草里","LIN":"19鄰","STREET":"健康路","SECT":"一段","MAREA":" ","LANE":"３９０巷","ALLEY":" ","HOUSE_NO":"１６號","E_COORD97":167854.88,"N_COORD97":2542499.4399999999,"ADDRESS":"健康路一段３９０巷１６號","OBJECTID":379065},"geometry":{"x":167854.88000000082,"y":2542499.4400000013}},{"attributes":{"ID":379076,"DIS_CODE":0,"TOWNNAME":"中西區","LI":"仙草里","LIN":"19鄰","STREET":"健康路","SECT":"一段","MAREA":" ","LANE":"３９０巷","ALLEY":" ","HOUSE_NO":"１８號","E_COORD97":167855.07000000001,"N_COORD97":2542502.5800000001,"ADDRESS":"健康路一段３９０巷１８號","OBJECTID":379066},"geometry":{"x":167855.0700000003,"y":2542502.5800000019}},{"attributes":{"ID":379077,"DIS_CODE":0,"TOWNNAME":"中西區","LI":"仙草里","LIN":"19鄰","STREET":"健康路","SECT":"一段","MAREA":" ","LANE":"３９０巷","ALLEY":" ","HOUSE_NO":"２０號","E_COORD97":167855.26999999999,"N_COORD97":2542507.1000000001,"ADDRESS":"健康路一段３９０巷２０號","OBJECTID":379067},"geometry":{"x":167855.27000000048,"y":2542507.0999999996}},{"attributes":{"ID":379078,"DIS_CODE":0,"TOWNNAME":"中西區","LI":"仙草里","LIN":"19鄰","STREET":"健康路","SECT":"一段","MAREA":" ","LANE":"３９０巷","ALLEY":" ","HOUSE_NO":"２２號","E_COORD97":167855.26999999999,"N_COORD97":2542511.7999999998,"ADDRESS":"健康路一段３９０巷２２號","OBJECTID":379068},"geometry":{"x":167855.27000000048,"y":2542511.8000000026}},{"attributes":{"ID":379079,"DIS_CODE":0,"TOWNNAME":"中西區","LI":"仙草里","LIN":"19鄰","STREET":"健康路","SECT":"一段","MAREA":" ","LANE":"３９０巷","ALLEY":" ","HOUSE_NO":"２４號","E_COORD97":167856.04999999999,"N_COORD97":2542515.9300000002,"ADDRESS":"健康路一段３９０巷２４號","OBJECTID":379069},"geometry":{"x":167856.04999999981,"y":2542515.9300000034}},{"attributes":{"ID":379080,"DIS_CODE":0,"TOWNNAME":"中西區","LI":"仙草里","LIN":"19鄰","STREET":"健康路","SECT":"一段","MAREA":" ","LANE":"３９０巷","ALLEY":" ","HOUSE_NO":"２６號","E_COORD97":167855.26999999999,"N_COORD97":2542520.4399999999,"ADDRESS":"健康路一段３９０巷２６號","OBJECTID":379070},"geometry":{"x":167855.27000000048,"y":2542520.4400000013}},{"attributes":{"ID":379081,"DIS_CODE":0,"TOWNNAME":"中西區","LI":"仙草里","LIN":"19鄰","STREET":"健康路","SECT":"一段","MAREA":" ","LANE":"３９０巷","ALLEY":" ","HOUSE_NO":"２８號","E_COORD97":167855.47,"N_COORD97":2542523.5800000001,"ADDRESS":"健康路一段３９０巷２８號","OBJECTID":379071},"geometry":{"x":167855.46999999881,"y":2542523.5800000001}},{"attributes":{"ID":379082,"DIS_CODE":0,"TOWNNAME":"中西區","LI":"仙草里","LIN":"19鄰","STREET":"健康路","SECT":"一段","MAREA":" ","LANE":"３９０巷","ALLEY":" ","HOUSE_NO":"２號","E_COORD97":167850.75,"N_COORD97":2542467.8700000001,"ADDRESS":"健康路一段３９０巷２號","OBJECTID":379072},"geometry":{"x":167850.75000000093,"y":2542467.8700000029}},{"attributes":{"ID":379083,"DIS_CODE":0,"TOWNNAME":"中西區","LI":"仙草里","LIN":"19鄰","STREET":"健康路","SECT":"一段","MAREA":" ","LANE":"３９０巷","ALLEY":" ","HOUSE_NO":"３０號","E_COORD97":167855.85999999999,"N_COORD97":2542527.1099999999,"ADDRESS":"健康路一段３９０巷３０號","OBJECTID":379073},"geometry":{"x":167855.86000000127,"y":2542527.1099999994}},{"attributes":{"ID":379084,"DIS_CODE":0,"TOWNNAME":"中西區","LI":"仙草里","LIN":"19鄰","STREET":"健康路","SECT":"一段","MAREA":" ","LANE":"３９０巷","ALLEY":" ","HOUSE_NO":"３２號","E_COORD97":167856.04999999999,"N_COORD97":2542529.8599999999,"ADDRESS":"健康路一段３９０巷３２號","OBJECTID":379074},"geometry":{"x":167856.04999999981,"y":2542529.8600000013}},{"attributes":{"ID":379085,"DIS_CODE":0,"TOWNNAME":"中西區","LI":"仙草里","LIN":"19鄰","STREET":"健康路","SECT":"一段","MAREA":" ","LANE":"３９０巷","ALLEY":" ","HOUSE_NO":"３４號","E_COORD97":167855.47,"N_COORD97":2542535.3500000001,"ADDRESS":"健康路一段３９０巷３４號","OBJECTID":379075},"geometry":{"x":167855.46999999881,"y":2542535.3499999996}},{"attributes":{"ID":379086,"DIS_CODE":0,"TOWNNAME":"中西區","LI":"仙草里","LIN":"19鄰","STREET":"健康路","SECT":"一段","MAREA":" ","LANE":"３９０巷","ALLEY":" ","HOUSE_NO":"３６號","E_COORD97":167856.45000000001,"N_COORD97":2542540.0600000001,"ADDRESS":"健康路一段３９０巷３６號","OBJECTID":379076},"geometry":{"x":167856.45000000112,"y":2542540.0600000024}},{"attributes":{"ID":379087,"DIS_CODE":0,"TOWNNAME":"中西區","LI":"仙草里","LIN":"19鄰","STREET":"健康路","SECT":"一段","MAREA":" ","LANE":"３９０巷","ALLEY":" ","HOUSE_NO":"３８號","E_COORD97":167855.47,"N_COORD97":2542544.5800000001,"ADDRESS":"健康路一段３９０巷３８號","OBJECTID":379077},"geometry":{"x":167855.46999999881,"y":2542544.5800000001}},{"attributes":{"ID":379088,"DIS_CODE":0,"TOWNNAME":"中西區","LI":"仙草里","LIN":"19鄰","STREET":"健康路","SECT":"一段","MAREA":" ","LANE":"３９０巷","ALLEY":" ","HOUSE_NO":"４０號","E_COORD97":167855.66,"N_COORD97":2542551.0499999998,"ADDRESS":"健康路一段３９０巷４０號","OBJECTID":379078},"geometry":{"x":167855.66000000015,"y":2542551.0500000026}},{"attributes":{"ID":379089,"DIS_CODE":0,"TOWNNAME":"新營區","LI":"忠政里","LIN":"21鄰","STREET":"府西路","SECT":" ","MAREA":" ","LANE":"２３１巷","ALLEY":" ","HOUSE_NO":"２號","E_COORD97":179772.41,"N_COORD97":2579610.3599999999,"ADDRESS":"府西路２３１巷２號","OBJECTID":379079},"geometry":{"x":179772.41000000108,"y":2579610.3600000013}},{"attributes":{"ID":379090,"DIS_CODE":0,"TOWNNAME":"中西區","LI":"仙草里","LIN":"19鄰","STREET":"健康路","SECT":"一段","MAREA":" ","LANE":"３９０巷","ALLEY":" ","HOUSE_NO":"４號","E_COORD97":167854.48000000001,"N_COORD97":2542477.8700000001,"ADDRESS":"健康路一段３９０巷４號","OBJECTID":379080},"geometry":{"x":167854.48000000231,"y":2542477.8700000029}},{"attributes":{"ID":379091,"DIS_CODE":0,"TOWNNAME":"中西區","LI":"仙草里","LIN":"19鄰","STREET":"健康路","SECT":"一段","MAREA":" ","LANE":"３９０巷","ALLEY":" ","HOUSE_NO":"４４號","E_COORD97":167854.88,"N_COORD97":2542565.21,"ADDRESS":"健康路一段３９０巷４４號","OBJECTID":379081},"geometry":{"x":167854.88000000082,"y":2542565.2100000009}},{"attributes":{"ID":379092,"DIS_CODE":0,"TOWNNAME":"中西區","LI":"仙草里","LIN":"19鄰","STREET":"健康路","SECT":"一段","MAREA":" ","LANE":"３９０巷","ALLEY":" ","HOUSE_NO":"４６號","E_COORD97":167854.48000000001,"N_COORD97":2542573.0600000001,"ADDRESS":"健康路一段３９０巷４６號","OBJECTID":379082},"geometry":{"x":167854.48000000231,"y":2542573.0599999987}},{"attributes":{"ID":379093,"DIS_CODE":0,"TOWNNAME":"中西區","LI":"仙草里","LIN":"19鄰","STREET":"健康路","SECT":"一段","MAREA":" ","LANE":"３９０巷","ALLEY":" ","HOUSE_NO":"６號","E_COORD97":167853.70000000001,"N_COORD97":2542482.98,"ADDRESS":"健康路一段３９０巷６號","OBJECTID":379083},"geometry":{"x":167853.70000000019,"y":2542482.9800000023}},{"attributes":{"ID":379094,"DIS_CODE":0,"TOWNNAME":"中西區","LI":"仙草里","LIN":"19鄰","STREET":"健康路","SECT":"一段","MAREA":" ","LANE":"３９０巷","ALLEY":" ","HOUSE_NO":"８號","E_COORD97":167854.67999999999,"N_COORD97":2542487.8599999999,"ADDRESS":"健康路一段３９０巷８號","OBJECTID":379084},"geometry":{"x":167854.68000000063,"y":2542487.8599999994}},{"attributes":{"ID":379095,"DIS_CODE":0,"TOWNNAME":"新營區","LI":"王公里","LIN":"21鄰","STREET":"民族路","SECT":" ","MAREA":" ","LANE":"１５０巷","ALLEY":" ","HOUSE_NO":"２８號","E_COORD97":180533.37,"N_COORD97":2579345.4199999999,"ADDRESS":"民族路１５０巷２８號","OBJECTID":379085},"geometry":{"x":180533.37000000197,"y":2579345.4199999981}},{"attributes":{"ID":379096,"DIS_CODE":0,"TOWNNAME":"新營區","LI":"新北里","LIN":"21鄰","STREET":"民生路","SECT":" ","MAREA":" ","LANE":"３３６巷","ALLEY":" ","HOUSE_NO":"１５號","E_COORD97":178972.06,"N_COORD97":2579250.9500000002,"ADDRESS":"民生路３３６巷１５號","OBJECTID":379086},"geometry":{"x":178972.06000000052,"y":2579250.9500000011}},{"attributes":{"ID":379097,"DIS_CODE":0,"TOWNNAME":"新營區","LI":"王公里","LIN":"21鄰","STREET":"民族路","SECT":" ","MAREA":" ","LANE":"１４２巷","ALLEY":" ","HOUSE_NO":"１０號","E_COORD97":180444.12,"N_COORD97":2579302.6499999999,"ADDRESS":"民族路１４２巷１０號","OBJECTID":379087},"geometry":{"x":180444.12000000104,"y":2579302.6500000004}},{"attributes":{"ID":379098,"DIS_CODE":0,"TOWNNAME":"新營區","LI":"新北里","LIN":"21鄰","STREET":"民生路","SECT":" ","MAREA":" ","LANE":"３３６巷","ALLEY":" ","HOUSE_NO":"３３號","E_COORD97":179001.75,"N_COORD97":2579238.6099999999,"ADDRESS":"民生路３３６巷３３號","OBJECTID":379088},"geometry":{"x":179001.75000000093,"y":2579238.6100000031}},{"attributes":{"ID":379099,"DIS_CODE":0,"TOWNNAME":"新營區","LI":"忠政里","LIN":"21鄰","STREET":"府西路","SECT":" ","MAREA":" ","LANE":"２３１巷","ALLEY":" ","HOUSE_NO":"２４號","E_COORD97":179723.54999999999,"N_COORD97":2579610.6000000001,"ADDRESS":"府西路２３１巷２４號","OBJECTID":379089},"geometry":{"x":179723.55000000075,"y":2579610.5999999996}},{"attributes":{"ID":379100,"DIS_CODE":0,"TOWNNAME":"新營區","LI":"民生里","LIN":"21鄰","STREET":"民生路","SECT":" ","MAREA":" ","LANE":"１６３巷","ALLEY":" ","HOUSE_NO":"９８號","E_COORD97":179099.59,"N_COORD97":2578549.3100000001,"ADDRESS":"民生路１６３巷９８號","OBJECTID":379090},"geometry":{"x":179099.59000000078,"y":2578549.3100000005}},{"attributes":{"ID":379101,"DIS_CODE":0,"TOWNNAME":"新營區","LI":"王公里","LIN":"21鄰","STREET":"民族路","SECT":" ","MAREA":" ","LANE":"１５０巷","ALLEY":" ","HOUSE_NO":"１０號","E_COORD97":180494.39000000001,"N_COORD97":2579335.6299999999,"ADDRESS":"民族路１５０巷１０號","OBJECTID":379091},"geometry":{"x":180494.3900000006,"y":2579335.629999999}},{"attributes":{"ID":379102,"DIS_CODE":0,"TOWNNAME":"新營區","LI":"新北里","LIN":"21鄰","STREET":"民生路","SECT":" ","MAREA":" ","LANE":"３３６巷","ALLEY":" ","HOUSE_NO":"１９之１號","E_COORD97":178993,"N_COORD97":2579257.5499999998,"ADDRESS":"民生路３３６巷１９之１號","OBJECTID":379092},"geometry":{"x":178993.00000000186,"y":2579257.5500000045}},{"attributes":{"ID":379103,"DIS_CODE":0,"TOWNNAME":"新營區","LI":"忠政里","LIN":"21鄰","STREET":"府西路","SECT":" ","MAREA":" ","LANE":"２３１巷","ALLEY":" ","HOUSE_NO":"８號","E_COORD97":179759.12,"N_COORD97":2579610.4300000002,"ADDRESS":"府西路２３１巷８號","OBJECTID":379093},"geometry":{"x":179759.12000000104,"y":2579610.4300000016}},{"attributes":{"ID":379104,"DIS_CODE":0,"TOWNNAME":"新營區","LI":"新南里","LIN":"21鄰","STREET":"復興路","SECT":" ","MAREA":" ","LANE":"３７８巷","ALLEY":" ","HOUSE_NO":"１２號","E_COORD97":178543.69,"N_COORD97":2578230.8199999998,"ADDRESS":"復興路３７８巷１２號","OBJECTID":379094},"geometry":{"x":178543.69000000134,"y":2578230.8200000003}},{"attributes":{"ID":379105,"DIS_CODE":0,"TOWNNAME":"新營區","LI":"新南里","LIN":"21鄰","STREET":"復興路","SECT":" ","MAREA":" ","LANE":"３７８巷","ALLEY":" ","HOUSE_NO":"１９之５號","E_COORD97":178506.51000000001,"N_COORD97":2578276.4700000002,"ADDRESS":"復興路３７８巷１９之５號","OBJECTID":379095},"geometry":{"x":178506.51000000071,"y":2578276.4700000007}},{"attributes":{"ID":379106,"DIS_CODE":0,"TOWNNAME":"新營區","LI":"民生里","LIN":"21鄰","STREET":"民生路","SECT":" ","MAREA":" ","LANE":"１６３巷","ALLEY":" ","HOUSE_NO":"１２８號","E_COORD97":179128.09,"N_COORD97":2578466.1200000001,"ADDRESS":"民生路１６３巷１２８號","OBJECTID":379096},"geometry":{"x":179128.09000000078,"y":2578466.120000001}},{"attributes":{"ID":379107,"DIS_CODE":0,"TOWNNAME":"新營區","LI":"忠政里","LIN":"21鄰","STREET":"府西路","SECT":" ","MAREA":" ","LANE":"２３１巷","ALLEY":" ","HOUSE_NO":"１６號","E_COORD97":179742.92999999999,"N_COORD97":2579613.8300000001,"ADDRESS":"府西路２３１巷１６號","OBJECTID":379097},"geometry":{"x":179742.93000000063,"y":2579613.8300000001}},{"attributes":{"ID":379108,"DIS_CODE":0,"TOWNNAME":"新營區","LI":"新北里","LIN":"21鄰","STREET":"民生路","SECT":" ","MAREA":" ","LANE":"３４２巷","ALLEY":" ","HOUSE_NO":"３號","E_COORD97":178941.23000000001,"N_COORD97":2579252.2000000002,"ADDRESS":"民生路３４２巷３號","OBJECTID":379098},"geometry":{"x":178941.23000000138,"y":2579252.2000000011}},{"attributes":{"ID":379109,"DIS_CODE":0,"TOWNNAME":"南區","LI":"南華里","LIN":"21鄰","STREET":"中華南路","SECT":"二段","MAREA":" ","LANE":"３００巷","ALLEY":" ","HOUSE_NO":"２５號","E_COORD97":166706.17999999999,"N_COORD97":2540383.2200000002,"ADDRESS":"中華南路二段３００巷２５號","OBJECTID":379099},"geometry":{"x":166706.1799999997,"y":2540383.2200000025}},{"attributes":{"ID":379110,"DIS_CODE":0,"TOWNNAME":"南區","LI":"南華里","LIN":"21鄰","STREET":"中華南路","SECT":"二段","MAREA":" ","LANE":"３００巷","ALLEY":" ","HOUSE_NO":"５號","E_COORD97":166704.51000000001,"N_COORD97":2540338.7000000002,"ADDRESS":"中華南路二段３００巷５號","OBJECTID":379100},"geometry":{"x":166704.51000000071,"y":2540338.6999999993}},{"attributes":{"ID":379111,"DIS_CODE":0,"TOWNNAME":"學甲區","LI":"慈福里","LIN":"21鄰","STREET":"華宗路","SECT":" ","MAREA":" ","LANE":"３９３巷","ALLEY":" ","HOUSE_NO":"１７號","E_COORD97":166226.23000000001,"N_COORD97":2570333.9500000002,"ADDRESS":"華宗路３９３巷１７號","OBJECTID":379101},"geometry":{"x":166226.23000000138,"y":2570333.9500000011}},{"attributes":{"ID":379112,"DIS_CODE":0,"TOWNNAME":"學甲區","LI":"慈福里","LIN":"21鄰","STREET":"華宗路","SECT":" ","MAREA":" ","LANE":"３９３巷","ALLEY":" ","HOUSE_NO":"１９號","E_COORD97":166220.70000000001,"N_COORD97":2570337.0699999998,"ADDRESS":"華宗路３９３巷１９號","OBJECTID":379102},"geometry":{"x":166220.70000000112,"y":2570337.070000004}},{"attributes":{"ID":379113,"DIS_CODE":0,"TOWNNAME":"南區","LI":"郡南里","LIN":"21鄰","STREET":"新都路","SECT":" ","MAREA":" ","LANE":"３２９巷","ALLEY":" ","HOUSE_NO":"２７號","E_COORD97":167581.48000000001,"N_COORD97":2540815.8599999999,"ADDRESS":"新都路３２９巷２７號","OBJECTID":379103},"geometry":{"x":167581.47999999952,"y":2540815.8599999994}},{"attributes":{"ID":379114,"DIS_CODE":0,"TOWNNAME":"南區","LI":"郡南里","LIN":"21鄰","STREET":"新都路","SECT":" ","MAREA":" ","LANE":"３２９巷","ALLEY":" ","HOUSE_NO":"２９號","E_COORD97":167575.12,"N_COORD97":2540819.6699999999,"ADDRESS":"新都路３２９巷２９號","OBJECTID":379104},"geometry":{"x":167575.11999999918,"y":2540819.6700000018}},{"attributes":{"ID":379115,"DIS_CODE":0,"TOWNNAME":"北區","LI":"六甲里","LIN":"21鄰","STREET":"西門路","SECT":"四段","MAREA":" ","LANE":"３３０巷","ALLEY":" ","HOUSE_NO":"３６號","E_COORD97":169094.34,"N_COORD97":2545976.52,"ADDRESS":"西門路四段３３０巷３６號","OBJECTID":379105},"geometry":{"x":169094.34000000078,"y":2545976.5200000033}},{"attributes":{"ID":379116,"DIS_CODE":0,"TOWNNAME":"北區","LI":"六甲里","LIN":"21鄰","STREET":"西門路","SECT":"四段","MAREA":" ","LANE":"３３０巷","ALLEY":" ","HOUSE_NO":"４６號","E_COORD97":169119,"N_COORD97":2545974.8500000001,"ADDRESS":"西門路四段３３０巷４６號","OBJECTID":379106},"geometry":{"x":169119.00000000093,"y":2545974.8500000015}},{"attributes":{"ID":379117,"DIS_CODE":0,"TOWNNAME":"北區","LI":"六甲里","LIN":"21鄰","STREET":"西門路","SECT":"四段","MAREA":" ","LANE":"３３０巷","ALLEY":" ","HOUSE_NO":"４８號","E_COORD97":169124.85000000001,"N_COORD97":2545974.4399999999,"ADDRESS":"西門路四段３３０巷４８號","OBJECTID":379107},"geometry":{"x":169124.85000000056,"y":2545974.4400000013}},{"attributes":{"ID":379118,"DIS_CODE":0,"TOWNNAME":"北區","LI":"六甲里","LIN":"21鄰","STREET":"西門路","SECT":"四段","MAREA":" ","LANE":"３３０巷","ALLEY":" ","HOUSE_NO":"５０號","E_COORD97":169129.23999999999,"N_COORD97":2545974.23,"ADDRESS":"西門路四段３３０巷５０號","OBJECTID":379108},"geometry":{"x":169129.24000000115,"y":2545974.2300000023}},{"attributes":{"ID":379119,"DIS_CODE":0,"TOWNNAME":"北區","LI":"六甲里","LIN":"21鄰","STREET":"西門路","SECT":"四段","MAREA":" ","LANE":"３３０巷","ALLEY":" ","HOUSE_NO":"５２號","E_COORD97":169135.09,"N_COORD97":2545974.23,"ADDRESS":"西門路四段３３０巷５２號","OBJECTID":379109},"geometry":{"x":169135.09000000078,"y":2545974.2300000023}},{"attributes":{"ID":379120,"DIS_CODE":0,"TOWNNAME":"北區","LI":"六甲里","LIN":"21鄰","STREET":"西門路","SECT":"四段","MAREA":" ","LANE":"３３０巷","ALLEY":" ","HOUSE_NO":"５４號","E_COORD97":169139.89999999999,"N_COORD97":2545974.02,"ADDRESS":"西門路四段３３０巷５４號","OBJECTID":379110},"geometry":{"x":169139.90000000224,"y":2545974.0200000014}},{"attributes":{"ID":379121,"DIS_CODE":0,"TOWNNAME":"北區","LI":"六甲里","LIN":"21鄰","STREET":"西門路","SECT":"四段","MAREA":" ","LANE":"３３０巷","ALLEY":" ","HOUSE_NO":"５６號","E_COORD97":169145.75,"N_COORD97":2545973.6000000001,"ADDRESS":"西門路四段３３０巷５６號","OBJECTID":379111},"geometry":{"x":169145.75000000186,"y":2545973.6000000015}},{"attributes":{"ID":379122,"DIS_CODE":0,"TOWNNAME":"北區","LI":"六甲里","LIN":"21鄰","STREET":"西門路","SECT":"四段","MAREA":" ","LANE":"３３０巷","ALLEY":" ","HOUSE_NO":"５８號","E_COORD97":169150.14000000001,"N_COORD97":2545973.3900000001,"ADDRESS":"西門路四段３３０巷５８號","OBJECTID":379112},"geometry":{"x":169150.1400000006,"y":2545973.3900000025}},{"attributes":{"ID":379123,"DIS_CODE":0,"TOWNNAME":"北區","LI":"六甲里","LIN":"21鄰","STREET":"西門路","SECT":"四段","MAREA":" ","LANE":"３３０巷","ALLEY":" ","HOUSE_NO":"６０號","E_COORD97":169156.41,"N_COORD97":2545972.98,"ADDRESS":"西門路四段３３０巷６０號","OBJECTID":379113},"geometry":{"x":169156.41000000015,"y":2545972.9800000004}},{"attributes":{"ID":379124,"DIS_CODE":0,"TOWNNAME":"北區","LI":"六甲里","LIN":"21鄰","STREET":"西門路","SECT":"四段","MAREA":" ","LANE":"３３０巷","ALLEY":" ","HOUSE_NO":"６２號","E_COORD97":169160.59,"N_COORD97":2545972.98,"ADDRESS":"西門路四段３３０巷６２號","OBJECTID":379114},"geometry":{"x":169160.59000000078,"y":2545972.9800000004}},{"attributes":{"ID":379125,"DIS_CODE":0,"TOWNNAME":"北區","LI":"六甲里","LIN":"21鄰","STREET":"西門路","SECT":"四段","MAREA":" ","LANE":"３３０巷","ALLEY":" ","HOUSE_NO":"６４號","E_COORD97":169166.64999999999,"N_COORD97":2545972.5600000001,"ADDRESS":"西門路四段３３０巷６４號","OBJECTID":379115},"geometry":{"x":169166.65000000037,"y":2545972.5600000005}},{"attributes":{"ID":379126,"DIS_CODE":0,"TOWNNAME":"北區","LI":"六甲里","LIN":"21鄰","STREET":"西門路","SECT":"四段","MAREA":" ","LANE":"３３０巷","ALLEY":" ","HOUSE_NO":"６６號","E_COORD97":169171.45000000001,"N_COORD97":2545972.1400000001,"ADDRESS":"西門路四段３３０巷６６號","OBJECTID":379116},"geometry":{"x":169171.45000000019,"y":2545972.1400000006}},{"attributes":{"ID":379127,"DIS_CODE":0,"TOWNNAME":"北區","LI":"文元里","LIN":"21鄰","STREET":"文成路","SECT":" ","MAREA":" ","LANE":"５３６巷","ALLEY":" ","HOUSE_NO":"１０號","E_COORD97":167967.98000000001,"N_COORD97":2545919.9300000002,"ADDRESS":"文成路５３６巷１０號","OBJECTID":379117},"geometry":{"x":167967.97999999952,"y":2545919.9300000016}},{"attributes":{"ID":379128,"DIS_CODE":0,"TOWNNAME":"北區","LI":"文元里","LIN":"21鄰","STREET":"文成路","SECT":" ","MAREA":" ","LANE":"５３６巷","ALLEY":" ","HOUSE_NO":"１１號","E_COORD97":167946.39000000001,"N_COORD97":2545927.5499999998,"ADDRESS":"文成路５３６巷１１號","OBJECTID":379118},"geometry":{"x":167946.3900000006,"y":2545927.5500000026}},{"attributes":{"ID":379129,"DIS_CODE":0,"TOWNNAME":"北區","LI":"文元里","LIN":"21鄰","STREET":"文成路","SECT":" ","MAREA":" ","LANE":"５３６巷","ALLEY":" ","HOUSE_NO":"１２號","E_COORD97":167967.59,"N_COORD97":2545924.3700000001,"ADDRESS":"文成路５３６巷１２號","OBJECTID":379119},"geometry":{"x":167967.58999999985,"y":2545924.370000001}},{"attributes":{"ID":379130,"DIS_CODE":0,"TOWNNAME":"北區","LI":"文元里","LIN":"21鄰","STREET":"文成路","SECT":" ","MAREA":" ","LANE":"５３６巷","ALLEY":" ","HOUSE_NO":"１３號","E_COORD97":167946.26000000001,"N_COORD97":2545931.9900000002,"ADDRESS":"文成路５３６巷１３號","OBJECTID":379120},"geometry":{"x":167946.25999999978,"y":2545931.9900000002}},{"attributes":{"ID":379131,"DIS_CODE":0,"TOWNNAME":"北區","LI":"文元里","LIN":"21鄰","STREET":"文成路","SECT":" ","MAREA":" ","LANE":"５３６巷","ALLEY":" ","HOUSE_NO":"１５號","E_COORD97":167946.13,"N_COORD97":2545936.4399999999,"ADDRESS":"文成路５３６巷１５號","OBJECTID":379121},"geometry":{"x":167946.13000000175,"y":2545936.4400000032}},{"attributes":{"ID":379132,"DIS_CODE":0,"TOWNNAME":"北區","LI":"文元里","LIN":"21鄰","STREET":"文成路","SECT":" ","MAREA":" ","LANE":"５３６巷","ALLEY":" ","HOUSE_NO":"１６號","E_COORD97":167967.20999999999,"N_COORD97":2545928.8199999998,"ADDRESS":"文成路５３６巷１６號","OBJECTID":379122},"geometry":{"x":167967.20999999996,"y":2545928.8200000022}},{"attributes":{"ID":379133,"DIS_CODE":0,"TOWNNAME":"北區","LI":"文元里","LIN":"21鄰","STREET":"文成路","SECT":" ","MAREA":" ","LANE":"５３６巷","ALLEY":" ","HOUSE_NO":"１７號","E_COORD97":167946.13,"N_COORD97":2545940.8799999999,"ADDRESS":"文成路５３６巷１７號","OBJECTID":379123},"geometry":{"x":167946.13000000175,"y":2545940.8800000008}},{"attributes":{"ID":379134,"DIS_CODE":0,"TOWNNAME":"北區","LI":"文元里","LIN":"21鄰","STREET":"文成路","SECT":" ","MAREA":" ","LANE":"５３６巷","ALLEY":" ","HOUSE_NO":"１８號","E_COORD97":167967.09,"N_COORD97":2545933.0099999998,"ADDRESS":"文成路５３６巷１８號","OBJECTID":379124},"geometry":{"x":167967.09000000078,"y":2545933.0100000016}},{"attributes":{"ID":379135,"DIS_CODE":0,"TOWNNAME":"北區","LI":"文元里","LIN":"21鄰","STREET":"文成路","SECT":" ","MAREA":" ","LANE":"５３６巷","ALLEY":" ","HOUSE_NO":"１號","E_COORD97":167947.48999999999,"N_COORD97":2545905.7000000002,"ADDRESS":"文成路５３６巷１號","OBJECTID":379125},"geometry":{"x":167947.49000000209,"y":2545905.6999999993}},{"attributes":{"ID":379136,"DIS_CODE":0,"TOWNNAME":"北區","LI":"文元里","LIN":"21鄰","STREET":"文成路","SECT":" ","MAREA":" ","LANE":"５３６巷","ALLEY":" ","HOUSE_NO":"２０號","E_COORD97":167966.70999999999,"N_COORD97":2545937.7000000002,"ADDRESS":"文成路５３６巷２０號","OBJECTID":379126},"geometry":{"x":167966.71000000089,"y":2545937.700000003}},{"attributes":{"ID":379137,"DIS_CODE":0,"TOWNNAME":"北區","LI":"文元里","LIN":"21鄰","STREET":"文成路","SECT":" ","MAREA":" ","LANE":"５３６巷","ALLEY":" ","HOUSE_NO":"２２號","E_COORD97":167966.32000000001,"N_COORD97":2545942.2799999998,"ADDRESS":"文成路５３６巷２２號","OBJECTID":379127},"geometry":{"x":167966.32000000123,"y":2545942.2800000012}},{"attributes":{"ID":379138,"DIS_CODE":0,"TOWNNAME":"北區","LI":"文元里","LIN":"21鄰","STREET":"文成路","SECT":" ","MAREA":" ","LANE":"５３６巷","ALLEY":" ","HOUSE_NO":"２號","E_COORD97":167968.60999999999,"N_COORD97":2545906.8500000001,"ADDRESS":"文成路５３６巷２號","OBJECTID":379128},"geometry":{"x":167968.61000000034,"y":2545906.8500000015}},{"attributes":{"ID":379139,"DIS_CODE":0,"TOWNNAME":"北區","LI":"文元里","LIN":"21鄰","STREET":"文成路","SECT":" ","MAREA":" ","LANE":"５３６巷","ALLEY":" ","HOUSE_NO":"３號","E_COORD97":167947.14999999999,"N_COORD97":2545910.02,"ADDRESS":"文成路５３６巷３號","OBJECTID":379129},"geometry":{"x":167947.1500000013,"y":2545910.0200000014}},{"attributes":{"ID":379140,"DIS_CODE":0,"TOWNNAME":"北區","LI":"文元里","LIN":"21鄰","STREET":"文成路","SECT":" ","MAREA":" ","LANE":"５３６巷","ALLEY":" ","HOUSE_NO":"５號","E_COORD97":167946.89000000001,"N_COORD97":2545914.4700000002,"ADDRESS":"文成路５３６巷５號","OBJECTID":379130},"geometry":{"x":167946.88999999966,"y":2545914.4700000025}},{"attributes":{"ID":379141,"DIS_CODE":0,"TOWNNAME":"北區","LI":"文元里","LIN":"21鄰","STREET":"文成路","SECT":" ","MAREA":" ","LANE":"５３６巷","ALLEY":" ","HOUSE_NO":"６號","E_COORD97":167968.48000000001,"N_COORD97":2545911.1600000001,"ADDRESS":"文成路５３６巷６號","OBJECTID":379131},"geometry":{"x":167968.48000000138,"y":2545911.1600000001}},{"attributes":{"ID":379142,"DIS_CODE":0,"TOWNNAME":"北區","LI":"文元里","LIN":"21鄰","STREET":"文成路","SECT":" ","MAREA":" ","LANE":"５３６巷","ALLEY":" ","HOUSE_NO":"７號","E_COORD97":167946.76999999999,"N_COORD97":2545918.9100000001,"ADDRESS":"文成路５３６巷７號","OBJECTID":379132},"geometry":{"x":167946.77000000048,"y":2545918.9100000001}},{"attributes":{"ID":379143,"DIS_CODE":0,"TOWNNAME":"北區","LI":"文元里","LIN":"21鄰","STREET":"文成路","SECT":" ","MAREA":" ","LANE":"５３６巷","ALLEY":" ","HOUSE_NO":"８號","E_COORD97":167968.23000000001,"N_COORD97":2545915.7400000002,"ADDRESS":"文成路５３６巷８號","OBJECTID":379133},"geometry":{"x":167968.23000000231,"y":2545915.7400000021}},{"attributes":{"ID":379144,"DIS_CODE":0,"TOWNNAME":"北區","LI":"文元里","LIN":"21鄰","STREET":"文成路","SECT":" ","MAREA":" ","LANE":"５３６巷","ALLEY":" ","HOUSE_NO":"９號","E_COORD97":167946.64000000001,"N_COORD97":2545923.1000000001,"ADDRESS":"文成路５３６巷９號","OBJECTID":379134},"geometry":{"x":167946.6400000006,"y":2545923.1000000015}},{"attributes":{"ID":379145,"DIS_CODE":0,"TOWNNAME":"北區","LI":"大豐里","LIN":"21鄰","STREET":"大興街","SECT":" ","MAREA":" ","LANE":"２８５巷","ALLEY":" ","HOUSE_NO":"２０號","E_COORD97":166689.32000000001,"N_COORD97":2545630.8100000001,"ADDRESS":"大興街２８５巷２０號","OBJECTID":379135},"geometry":{"x":166689.32000000123,"y":2545630.8100000024}},{"attributes":{"ID":379146,"DIS_CODE":0,"TOWNNAME":"北區","LI":"大豐里","LIN":"21鄰","STREET":"大興街","SECT":" ","MAREA":" ","LANE":"２８５巷","ALLEY":" ","HOUSE_NO":"２２號","E_COORD97":166688.85000000001,"N_COORD97":2545625.98,"ADDRESS":"大興街２８５巷２２號","OBJECTID":379136},"geometry":{"x":166688.85000000056,"y":2545625.9800000023}},{"attributes":{"ID":379147,"DIS_CODE":0,"TOWNNAME":"北區","LI":"大豐里","LIN":"21鄰","STREET":"大興街","SECT":" ","MAREA":" ","LANE":"２８５巷","ALLEY":" ","HOUSE_NO":"２４號","E_COORD97":166688.29000000001,"N_COORD97":2545621.54,"ADDRESS":"大興街２８５巷２４號","OBJECTID":379137},"geometry":{"x":166688.29000000004,"y":2545621.540000001}},{"attributes":{"ID":379148,"DIS_CODE":0,"TOWNNAME":"北區","LI":"大豐里","LIN":"21鄰","STREET":"大興街","SECT":" ","MAREA":" ","LANE":"２８５巷","ALLEY":" ","HOUSE_NO":"２１號","E_COORD97":166709.48000000001,"N_COORD97":2545638.2999999998,"ADDRESS":"大興街２８５巷２１號","OBJECTID":379138},"geometry":{"x":166709.48000000045,"y":2545638.3000000026}},{"attributes":{"ID":379149,"DIS_CODE":0,"TOWNNAME":"北區","LI":"大豐里","LIN":"21鄰","STREET":"大興街","SECT":" ","MAREA":" ","LANE":"２８５巷","ALLEY":" ","HOUSE_NO":"２３號","E_COORD97":166709.17000000001,"N_COORD97":2545633.8599999999,"ADDRESS":"大興街２８５巷２３號","OBJECTID":379139},"geometry":{"x":166709.17000000086,"y":2545633.8599999994}},{"attributes":{"ID":379150,"DIS_CODE":0,"TOWNNAME":"北區","LI":"大豐里","LIN":"21鄰","STREET":"大興街","SECT":" ","MAREA":" ","LANE":"２８５巷","ALLEY":" ","HOUSE_NO":"１１號","E_COORD97":166709.48000000001,"N_COORD97":2545659.71,"ADDRESS":"大興街２８５巷１１號","OBJECTID":379140},"geometry":{"x":166709.48000000045,"y":2545659.7100000009}},{"attributes":{"ID":379151,"DIS_CODE":0,"TOWNNAME":"北區","LI":"大豐里","LIN":"21鄰","STREET":"大興街","SECT":" ","MAREA":" ","LANE":"２８５巷","ALLEY":" ","HOUSE_NO":"１３號","E_COORD97":166709.17000000001,"N_COORD97":2545655.9900000002,"ADDRESS":"大興街２８５巷１３號","OBJECTID":379141},"geometry":{"x":166709.17000000086,"y":2545655.9900000021}},{"attributes":{"ID":379152,"DIS_CODE":0,"TOWNNAME":"北區","LI":"大豐里","LIN":"21鄰","STREET":"大興街","SECT":" ","MAREA":" ","LANE":"２８５巷","ALLEY":" ","HOUSE_NO":"１５號","E_COORD97":166709.01000000001,"N_COORD97":2545651.29,"ADDRESS":"大興街２８５巷１５號","OBJECTID":379142},"geometry":{"x":166709.00999999978,"y":2545651.2899999991}},{"attributes":{"ID":379153,"DIS_CODE":0,"TOWNNAME":"北區","LI":"大豐里","LIN":"21鄰","STREET":"大興街","SECT":" ","MAREA":" ","LANE":"２８５巷","ALLEY":" ","HOUSE_NO":"１７號","E_COORD97":166709.56,"N_COORD97":2545647.4100000001,"ADDRESS":"大興街２８５巷１７號","OBJECTID":379143},"geometry":{"x":166709.56000000052,"y":2545647.4100000001}},{"attributes":{"ID":379154,"DIS_CODE":0,"TOWNNAME":"北區","LI":"大豐里","LIN":"21鄰","STREET":"大興街","SECT":" ","MAREA":" ","LANE":"２８５巷","ALLEY":" ","HOUSE_NO":"１９號","E_COORD97":166709.17000000001,"N_COORD97":2545642.1800000002,"ADDRESS":"大興街２８５巷１９號","OBJECTID":379144},"geometry":{"x":166709.17000000086,"y":2545642.1799999997}},{"attributes":{"ID":379155,"DIS_CODE":0,"TOWNNAME":"北區","LI":"大豐里","LIN":"21鄰","STREET":"大興街","SECT":" ","MAREA":" ","LANE":"２８５巷","ALLEY":" ","HOUSE_NO":"１號","E_COORD97":166710.20000000001,"N_COORD97":2545681.2200000002,"ADDRESS":"大興街２８５巷１號","OBJECTID":379145},"geometry":{"x":166710.20000000205,"y":2545681.2199999988}},{"attributes":{"ID":379156,"DIS_CODE":0,"TOWNNAME":"北區","LI":"大豐里","LIN":"21鄰","STREET":"大興街","SECT":" ","MAREA":" ","LANE":"２８５巷","ALLEY":" ","HOUSE_NO":"３號","E_COORD97":166710.20000000001,"N_COORD97":2545676.4199999999,"ADDRESS":"大興街２８５巷３號","OBJECTID":379146},"geometry":{"x":166710.20000000205,"y":2545676.4200000018}},{"attributes":{"ID":379157,"DIS_CODE":0,"TOWNNAME":"北區","LI":"大豐里","LIN":"21鄰","STREET":"大興街","SECT":" ","MAREA":" ","LANE":"２８５巷","ALLEY":" ","HOUSE_NO":"５號","E_COORD97":166710.04000000001,"N_COORD97":2545672.23,"ADDRESS":"大興街２８５巷５號","OBJECTID":379147},"geometry":{"x":166710.04000000097,"y":2545672.2300000023}},{"attributes":{"ID":379158,"DIS_CODE":0,"TOWNNAME":"北區","LI":"大豐里","LIN":"21鄰","STREET":"大興街","SECT":" ","MAREA":" ","LANE":"２８５巷","ALLEY":" ","HOUSE_NO":"７號","E_COORD97":166709.88,"N_COORD97":2545668.4300000002,"ADDRESS":"大興街２８５巷７號","OBJECTID":379148},"geometry":{"x":166709.87999999989,"y":2545668.4299999997}},{"attributes":{"ID":379159,"DIS_CODE":0,"TOWNNAME":"北區","LI":"大豐里","LIN":"21鄰","STREET":"大興街","SECT":" ","MAREA":" ","LANE":"２８５巷","ALLEY":" ","HOUSE_NO":"９號","E_COORD97":166709.72,"N_COORD97":2545664.0699999998,"ADDRESS":"大興街２８５巷９號","OBJECTID":379149},"geometry":{"x":166709.7200000016,"y":2545664.0700000003}},{"attributes":{"ID":379160,"DIS_CODE":0,"TOWNNAME":"北區","LI":"大豐里","LIN":"21鄰","STREET":"中華北路","SECT":"一段","MAREA":" ","LANE":"７８巷","ALLEY":" ","HOUSE_NO":"１９號","E_COORD97":166584.14000000001,"N_COORD97":2545490.3300000001,"ADDRESS":"中華北路一段７８巷１９號","OBJECTID":379150},"geometry":{"x":166584.13999999966,"y":2545490.3300000038}},{"attributes":{"ID":379161,"DIS_CODE":0,"TOWNNAME":"永康區","LI":"崑山里","LIN":"21鄰","STREET":"大仁街","SECT":" ","MAREA":" ","LANE":"３１巷","ALLEY":" ","HOUSE_NO":"３５號四樓之１４","E_COORD97":173709.92999999999,"N_COORD97":2544604.9399999999,"ADDRESS":"大仁街３１巷３５號四樓之１４","OBJECTID":379151},"geometry":{"x":173709.93000000063,"y":2544604.9400000013}},{"attributes":{"ID":379162,"DIS_CODE":0,"TOWNNAME":"永康區","LI":"崑山里","LIN":"21鄰","STREET":"大仁街","SECT":" ","MAREA":" ","LANE":"３１巷","ALLEY":" ","HOUSE_NO":"３５號六樓之７","E_COORD97":173708.73000000001,"N_COORD97":2544604.9399999999,"ADDRESS":"大仁街３１巷３５號六樓之７","OBJECTID":379152},"geometry":{"x":173708.73000000138,"y":2544604.9400000013}},{"attributes":{"ID":379163,"DIS_CODE":0,"TOWNNAME":"永康區","LI":"崑山里","LIN":"21鄰","STREET":"大仁街","SECT":" ","MAREA":" ","LANE":"３１巷","ALLEY":" ","HOUSE_NO":"３５號七樓之４","E_COORD97":173708.67999999999,"N_COORD97":2544604.9399999999,"ADDRESS":"大仁街３１巷３５號七樓之４","OBJECTID":379153},"geometry":{"x":173708.6799999997,"y":2544604.9400000013}},{"attributes":{"ID":379164,"DIS_CODE":0,"TOWNNAME":"永康區","LI":"崑山里","LIN":"21鄰","STREET":"大仁街","SECT":" ","MAREA":" ","LANE":"３１巷","ALLEY":" ","HOUSE_NO":"３５號五樓之１","E_COORD97":173708.64999999999,"N_COORD97":2544604.9399999999,"ADDRESS":"大仁街３１巷３５號五樓之１","OBJECTID":379154},"geometry":{"x":173708.6500000013,"y":2544604.9400000013}},{"attributes":{"ID":379165,"DIS_CODE":0,"TOWNNAME":"永康區","LI":"崑山里","LIN":"21鄰","STREET":"大仁街","SECT":" ","MAREA":" ","LANE":"３１巷","ALLEY":" ","HOUSE_NO":"３５號五樓之１４","E_COORD97":173709.92999999999,"N_COORD97":2544604.9399999999,"ADDRESS":"大仁街３１巷３５號五樓之１４","OBJECTID":379155},"geometry":{"x":173709.93000000063,"y":2544604.9400000013}},{"attributes":{"ID":379166,"DIS_CODE":0,"TOWNNAME":"永康區","LI":"崑山里","LIN":"21鄰","STREET":"大仁街","SECT":" ","MAREA":" ","LANE":"３１巷","ALLEY":" ","HOUSE_NO":"３５號四樓之１８","E_COORD97":173710.04999999999,"N_COORD97":2544604.9399999999,"ADDRESS":"大仁街３１巷３５號四樓之１８","OBJECTID":379156},"geometry":{"x":173710.04999999981,"y":2544604.9400000013}},{"attributes":{"ID":379167,"DIS_CODE":0,"TOWNNAME":"永康區","LI":"崑山里","LIN":"21鄰","STREET":"大仁街","SECT":" ","MAREA":" ","LANE":"３１巷","ALLEY":" ","HOUSE_NO":"３５號五樓之１０","E_COORD97":173709.95999999999,"N_COORD97":2544604.9399999999,"ADDRESS":"大仁街３１巷３５號五樓之１０","OBJECTID":379157},"geometry":{"x":173709.96000000089,"y":2544604.9400000013}},{"attributes":{"ID":379168,"DIS_CODE":0,"TOWNNAME":"永康區","LI":"崑山里","LIN":"21鄰","STREET":"大仁街","SECT":" ","MAREA":" ","LANE":"３１巷","ALLEY":" ","HOUSE_NO":"３５號三樓之２","E_COORD97":173708.79000000001,"N_COORD97":2544604.9399999999,"ADDRESS":"大仁街３１巷３５號三樓之２","OBJECTID":379158},"geometry":{"x":173708.78999999911,"y":2544604.9400000013}},{"attributes":{"ID":379169,"DIS_CODE":0,"TOWNNAME":"永康區","LI":"崑山里","LIN":"21鄰","STREET":"大仁街","SECT":" ","MAREA":" ","LANE":"３１巷","ALLEY":" ","HOUSE_NO":"３５號六樓之６","E_COORD97":173708.76000000001,"N_COORD97":2544604.9399999999,"ADDRESS":"大仁街３１巷３５號六樓之６","OBJECTID":379159},"geometry":{"x":173708.76000000164,"y":2544604.9400000013}},{"attributes":{"ID":379170,"DIS_CODE":0,"TOWNNAME":"東區","LI":"大智里","LIN":"21鄰","STREET":"崇善十五街","SECT":" ","MAREA":" ","LANE":"３３巷","ALLEY":" ","HOUSE_NO":"５６號三樓之１１","E_COORD97":171313.64000000001,"N_COORD97":2540466.8500000001,"ADDRESS":"崇善十五街３３巷５６號三樓之１１","OBJECTID":379160},"geometry":{"x":171313.63999999966,"y":2540466.8499999996}},{"attributes":{"ID":379171,"DIS_CODE":0,"TOWNNAME":"東區","LI":"大智里","LIN":"21鄰","STREET":"崇善十五街","SECT":" ","MAREA":" ","LANE":"３３巷","ALLEY":" ","HOUSE_NO":"５６號三樓之１２","E_COORD97":171313.64000000001,"N_COORD97":2540466.8500000001,"ADDRESS":"崇善十五街３３巷５６號三樓之１２","OBJECTID":379161},"geometry":{"x":171313.63999999966,"y":2540466.8499999996}},{"attributes":{"ID":379172,"DIS_CODE":0,"TOWNNAME":"東區","LI":"大智里","LIN":"21鄰","STREET":"崇善十五街","SECT":" ","MAREA":" ","LANE":"３３巷","ALLEY":" ","HOUSE_NO":"５６號三樓之１３","E_COORD97":171313.64000000001,"N_COORD97":2540466.8500000001,"ADDRESS":"崇善十五街３３巷５６號三樓之１３","OBJECTID":379162},"geometry":{"x":171313.63999999966,"y":2540466.8499999996}},{"attributes":{"ID":379173,"DIS_CODE":0,"TOWNNAME":"東區","LI":"大智里","LIN":"21鄰","STREET":"崇善十五街","SECT":" ","MAREA":" ","LANE":"３３巷","ALLEY":" ","HOUSE_NO":"５６號三樓之２","E_COORD97":171313.64000000001,"N_COORD97":2540466.8500000001,"ADDRESS":"崇善十五街３３巷５６號三樓之２","OBJECTID":379163},"geometry":{"x":171313.63999999966,"y":2540466.8499999996}},{"attributes":{"ID":379174,"DIS_CODE":0,"TOWNNAME":"東區","LI":"大智里","LIN":"21鄰","STREET":"崇善十五街","SECT":" ","MAREA":" ","LANE":"３３巷","ALLEY":" ","HOUSE_NO":"５６號三樓之５","E_COORD97":171313.64000000001,"N_COORD97":2540466.8500000001,"ADDRESS":"崇善十五街３３巷５６號三樓之５","OBJECTID":379164},"geometry":{"x":171313.63999999966,"y":2540466.8499999996}},{"attributes":{"ID":379175,"DIS_CODE":0,"TOWNNAME":"東區","LI":"大智里","LIN":"21鄰","STREET":"崇善十五街","SECT":" ","MAREA":" ","LANE":"３３巷","ALLEY":" ","HOUSE_NO":"５６號三樓之６","E_COORD97":171313.64000000001,"N_COORD97":2540466.8500000001,"ADDRESS":"崇善十五街３３巷５６號三樓之６","OBJECTID":379165},"geometry":{"x":171313.63999999966,"y":2540466.8499999996}},{"attributes":{"ID":379176,"DIS_CODE":0,"TOWNNAME":"東區","LI":"大智里","LIN":"21鄰","STREET":"崇善十五街","SECT":" ","MAREA":" ","LANE":"３３巷","ALLEY":" ","HOUSE_NO":"５６號三樓之７","E_COORD97":171313.64000000001,"N_COORD97":2540466.8500000001,"ADDRESS":"崇善十五街３３巷５６號三樓之７","OBJECTID":379166},"geometry":{"x":171313.63999999966,"y":2540466.8499999996}},{"attributes":{"ID":379177,"DIS_CODE":0,"TOWNNAME":"東區","LI":"大智里","LIN":"21鄰","STREET":"崇善十五街","SECT":" ","MAREA":" ","LANE":"３３巷","ALLEY":" ","HOUSE_NO":"５６號三樓之８","E_COORD97":171313.64000000001,"N_COORD97":2540466.8500000001,"ADDRESS":"崇善十五街３３巷５６號三樓之８","OBJECTID":379167},"geometry":{"x":171313.63999999966,"y":2540466.8499999996}},{"attributes":{"ID":379178,"DIS_CODE":0,"TOWNNAME":"東區","LI":"大智里","LIN":"21鄰","STREET":"崇善十五街","SECT":" ","MAREA":" ","LANE":"３３巷","ALLEY":" ","HOUSE_NO":"５６號五樓之１","E_COORD97":171313.64000000001,"N_COORD97":2540466.8500000001,"ADDRESS":"崇善十五街３３巷５６號五樓之１","OBJECTID":379168},"geometry":{"x":171313.63999999966,"y":2540466.8499999996}},{"attributes":{"ID":379179,"DIS_CODE":0,"TOWNNAME":"東區","LI":"大智里","LIN":"21鄰","STREET":"崇善十五街","SECT":" ","MAREA":" ","LANE":"３３巷","ALLEY":" ","HOUSE_NO":"５６號五樓之１０","E_COORD97":171313.64000000001,"N_COORD97":2540466.8500000001,"ADDRESS":"崇善十五街３３巷５６號五樓之１０","OBJECTID":379169},"geometry":{"x":171313.63999999966,"y":2540466.8499999996}},{"attributes":{"ID":379180,"DIS_CODE":0,"TOWNNAME":"東區","LI":"大智里","LIN":"21鄰","STREET":"崇善十五街","SECT":" ","MAREA":" ","LANE":"３３巷","ALLEY":" ","HOUSE_NO":"５６號五樓之１１","E_COORD97":171313.64000000001,"N_COORD97":2540466.8500000001,"ADDRESS":"崇善十五街３３巷５６號五樓之１１","OBJECTID":379170},"geometry":{"x":171313.63999999966,"y":2540466.8499999996}},{"attributes":{"ID":379181,"DIS_CODE":0,"TOWNNAME":"東區","LI":"大智里","LIN":"21鄰","STREET":"崇善十五街","SECT":" ","MAREA":" ","LANE":"３３巷","ALLEY":" ","HOUSE_NO":"５６號五樓之１３","E_COORD97":171313.64000000001,"N_COORD97":2540466.8500000001,"ADDRESS":"崇善十五街３３巷５６號五樓之１３","OBJECTID":379171},"geometry":{"x":171313.63999999966,"y":2540466.8499999996}},{"attributes":{"ID":379182,"DIS_CODE":0,"TOWNNAME":"東區","LI":"大智里","LIN":"21鄰","STREET":"崇善十五街","SECT":" ","MAREA":" ","LANE":"３３巷","ALLEY":" ","HOUSE_NO":"５６號五樓之１４","E_COORD97":171313.64000000001,"N_COORD97":2540466.8500000001,"ADDRESS":"崇善十五街３３巷５６號五樓之１４","OBJECTID":379172},"geometry":{"x":171313.63999999966,"y":2540466.8499999996}},{"attributes":{"ID":379183,"DIS_CODE":0,"TOWNNAME":"東區","LI":"大智里","LIN":"21鄰","STREET":"崇善十五街","SECT":" ","MAREA":" ","LANE":"３３巷","ALLEY":" ","HOUSE_NO":"５６號五樓之３","E_COORD97":171313.64000000001,"N_COORD97":2540466.8500000001,"ADDRESS":"崇善十五街３３巷５６號五樓之３","OBJECTID":379173},"geometry":{"x":171313.63999999966,"y":2540466.8499999996}},{"attributes":{"ID":379184,"DIS_CODE":0,"TOWNNAME":"東區","LI":"大智里","LIN":"21鄰","STREET":"崇善十五街","SECT":" ","MAREA":" ","LANE":"３３巷","ALLEY":" ","HOUSE_NO":"５６號五樓之４","E_COORD97":171313.64000000001,"N_COORD97":2540466.8500000001,"ADDRESS":"崇善十五街３３巷５６號五樓之４","OBJECTID":379174},"geometry":{"x":171313.63999999966,"y":2540466.8499999996}},{"attributes":{"ID":379185,"DIS_CODE":0,"TOWNNAME":"東區","LI":"大智里","LIN":"21鄰","STREET":"崇善十五街","SECT":" ","MAREA":" ","LANE":"３３巷","ALLEY":" ","HOUSE_NO":"５６號五樓之５","E_COORD97":171313.64000000001,"N_COORD97":2540466.8500000001,"ADDRESS":"崇善十五街３３巷５６號五樓之５","OBJECTID":379175},"geometry":{"x":171313.63999999966,"y":2540466.8499999996}},{"attributes":{"ID":379186,"DIS_CODE":0,"TOWNNAME":"東區","LI":"大智里","LIN":"21鄰","STREET":"崇善十五街","SECT":" ","MAREA":" ","LANE":"３３巷","ALLEY":" ","HOUSE_NO":"５６號五樓之６","E_COORD97":171313.64000000001,"N_COORD97":2540466.8500000001,"ADDRESS":"崇善十五街３３巷５６號五樓之６","OBJECTID":379176},"geometry":{"x":171313.63999999966,"y":2540466.8499999996}},{"attributes":{"ID":379187,"DIS_CODE":0,"TOWNNAME":"東區","LI":"大智里","LIN":"21鄰","STREET":"崇善十五街","SECT":" ","MAREA":" ","LANE":"３３巷","ALLEY":" ","HOUSE_NO":"５６號六樓","E_COORD97":171313.64000000001,"N_COORD97":2540466.8500000001,"ADDRESS":"崇善十五街３３巷５６號六樓","OBJECTID":379177},"geometry":{"x":171313.63999999966,"y":2540466.8499999996}},{"attributes":{"ID":379188,"DIS_CODE":0,"TOWNNAME":"東區","LI":"大智里","LIN":"21鄰","STREET":"崇善十五街","SECT":" ","MAREA":" ","LANE":"３３巷","ALLEY":" ","HOUSE_NO":"５６號六樓之１０","E_COORD97":171313.64000000001,"N_COORD97":2540466.8500000001,"ADDRESS":"崇善十五街３３巷５６號六樓之１０","OBJECTID":379178},"geometry":{"x":171313.63999999966,"y":2540466.8499999996}},{"attributes":{"ID":379189,"DIS_CODE":0,"TOWNNAME":"東區","LI":"大智里","LIN":"21鄰","STREET":"崇善十五街","SECT":" ","MAREA":" ","LANE":"３３巷","ALLEY":" ","HOUSE_NO":"５６號六樓之１１","E_COORD97":171313.64000000001,"N_COORD97":2540466.8500000001,"ADDRESS":"崇善十五街３３巷５６號六樓之１１","OBJECTID":379179},"geometry":{"x":171313.63999999966,"y":2540466.8499999996}},{"attributes":{"ID":379190,"DIS_CODE":0,"TOWNNAME":"東區","LI":"大智里","LIN":"21鄰","STREET":"崇善十五街","SECT":" ","MAREA":" ","LANE":"３３巷","ALLEY":" ","HOUSE_NO":"５６號六樓之１２","E_COORD97":171313.64000000001,"N_COORD97":2540466.8500000001,"ADDRESS":"崇善十五街３３巷５６號六樓之１２","OBJECTID":379180},"geometry":{"x":171313.63999999966,"y":2540466.8499999996}},{"attributes":{"ID":379191,"DIS_CODE":0,"TOWNNAME":"東區","LI":"大智里","LIN":"21鄰","STREET":"崇善十五街","SECT":" ","MAREA":" ","LANE":"３３巷","ALLEY":" ","HOUSE_NO":"５６號六樓之４","E_COORD97":171313.64000000001,"N_COORD97":2540466.8500000001,"ADDRESS":"崇善十五街３３巷５６號六樓之４","OBJECTID":379181},"geometry":{"x":171313.63999999966,"y":2540466.8499999996}},{"attributes":{"ID":379192,"DIS_CODE":0,"TOWNNAME":"東區","LI":"大智里","LIN":"21鄰","STREET":"崇善十五街","SECT":" ","MAREA":" ","LANE":"３３巷","ALLEY":" ","HOUSE_NO":"５６號六樓之６","E_COORD97":171313.64000000001,"N_COORD97":2540466.8500000001,"ADDRESS":"崇善十五街３３巷５６號六樓之６","OBJECTID":379182},"geometry":{"x":171313.63999999966,"y":2540466.8499999996}},{"attributes":{"ID":379193,"DIS_CODE":0,"TOWNNAME":"東區","LI":"大智里","LIN":"21鄰","STREET":"崇善十五街","SECT":" ","MAREA":" ","LANE":"３３巷","ALLEY":" ","HOUSE_NO":"５６號六樓之７","E_COORD97":171313.64000000001,"N_COORD97":2540466.8500000001,"ADDRESS":"崇善十五街３３巷５６號六樓之７","OBJECTID":379183},"geometry":{"x":171313.63999999966,"y":2540466.8499999996}},{"attributes":{"ID":379194,"DIS_CODE":0,"TOWNNAME":"東區","LI":"大學里","LIN":"21鄰","STREET":"長榮路","SECT":"三段","MAREA":" ","LANE":"８６巷","ALLEY":" ","HOUSE_NO":"６號五樓","E_COORD97":170306.22,"N_COORD97":2543841.73,"ADDRESS":"長榮路三段８６巷６號五樓","OBJECTID":379184},"geometry":{"x":170306.21999999974,"y":2543841.7300000023}},{"attributes":{"ID":379195,"DIS_CODE":0,"TOWNNAME":"東區","LI":"大智里","LIN":"21鄰","STREET":"崇善十五街","SECT":" ","MAREA":" ","LANE":"３３巷","ALLEY":" ","HOUSE_NO":"５６號六樓之８","E_COORD97":171313.64000000001,"N_COORD97":2540466.8500000001,"ADDRESS":"崇善十五街３３巷５６號六樓之８","OBJECTID":379185},"geometry":{"x":171313.63999999966,"y":2540466.8499999996}},{"attributes":{"ID":379196,"DIS_CODE":0,"TOWNNAME":"東區","LI":"大智里","LIN":"21鄰","STREET":"崇善十五街","SECT":" ","MAREA":" ","LANE":"３３巷","ALLEY":" ","HOUSE_NO":"５６號六樓之９","E_COORD97":171313.64000000001,"N_COORD97":2540466.8500000001,"ADDRESS":"崇善十五街３３巷５６號六樓之９","OBJECTID":379186},"geometry":{"x":171313.63999999966,"y":2540466.8499999996}},{"attributes":{"ID":379197,"DIS_CODE":0,"TOWNNAME":"東區","LI":"大智里","LIN":"21鄰","STREET":"崇善十五街","SECT":" ","MAREA":" ","LANE":"３３巷","ALLEY":" ","HOUSE_NO":"５６號四樓","E_COORD97":171313.64000000001,"N_COORD97":2540466.8500000001,"ADDRESS":"崇善十五街３３巷５６號四樓","OBJECTID":379187},"geometry":{"x":171313.63999999966,"y":2540466.8499999996}},{"attributes":{"ID":379198,"DIS_CODE":0,"TOWNNAME":"東區","LI":"大智里","LIN":"21鄰","STREET":"崇善十五街","SECT":" ","MAREA":" ","LANE":"３３巷","ALLEY":" ","HOUSE_NO":"５６號四樓之１","E_COORD97":171313.64000000001,"N_COORD97":2540466.8500000001,"ADDRESS":"崇善十五街３３巷５６號四樓之１","OBJECTID":379188},"geometry":{"x":171313.63999999966,"y":2540466.8499999996}},{"attributes":{"ID":379199,"DIS_CODE":0,"TOWNNAME":"東區","LI":"大智里","LIN":"21鄰","STREET":"崇善十五街","SECT":" ","MAREA":" ","LANE":"３３巷","ALLEY":" ","HOUSE_NO":"５６號四樓之１０","E_COORD97":171313.64000000001,"N_COORD97":2540466.8500000001,"ADDRESS":"崇善十五街３３巷５６號四樓之１０","OBJECTID":379189},"geometry":{"x":171313.63999999966,"y":2540466.8499999996}},{"attributes":{"ID":379200,"DIS_CODE":0,"TOWNNAME":"東區","LI":"大智里","LIN":"21鄰","STREET":"崇善十五街","SECT":" ","MAREA":" ","LANE":"３３巷","ALLEY":" ","HOUSE_NO":"５６號四樓之１１","E_COORD97":171313.64000000001,"N_COORD97":2540466.8500000001,"ADDRESS":"崇善十五街３３巷５６號四樓之１１","OBJECTID":379190},"geometry":{"x":171313.63999999966,"y":2540466.8499999996}},{"attributes":{"ID":379201,"DIS_CODE":0,"TOWNNAME":"東區","LI":"大智里","LIN":"21鄰","STREET":"崇善十五街","SECT":" ","MAREA":" ","LANE":"３３巷","ALLEY":" ","HOUSE_NO":"５６號四樓之１２","E_COORD97":171313.64000000001,"N_COORD97":2540466.8500000001,"ADDRESS":"崇善十五街３３巷５６號四樓之１２","OBJECTID":379191},"geometry":{"x":171313.63999999966,"y":2540466.8499999996}},{"attributes":{"ID":379202,"DIS_CODE":0,"TOWNNAME":"東區","LI":"大智里","LIN":"21鄰","STREET":"崇善十五街","SECT":" ","MAREA":" ","LANE":"３３巷","ALLEY":" ","HOUSE_NO":"５６號四樓之１５","E_COORD97":171313.64000000001,"N_COORD97":2540466.8500000001,"ADDRESS":"崇善十五街３３巷５６號四樓之１５","OBJECTID":379192},"geometry":{"x":171313.63999999966,"y":2540466.8499999996}},{"attributes":{"ID":379203,"DIS_CODE":0,"TOWNNAME":"東區","LI":"大智里","LIN":"21鄰","STREET":"崇善十五街","SECT":" ","MAREA":" ","LANE":"３３巷","ALLEY":" ","HOUSE_NO":"５６號四樓之３","E_COORD97":171313.64000000001,"N_COORD97":2540466.8500000001,"ADDRESS":"崇善十五街３３巷５６號四樓之３","OBJECTID":379193},"geometry":{"x":171313.63999999966,"y":2540466.8499999996}},{"attributes":{"ID":379204,"DIS_CODE":0,"TOWNNAME":"東區","LI":"大智里","LIN":"21鄰","STREET":"崇善十五街","SECT":" ","MAREA":" ","LANE":"３３巷","ALLEY":" ","HOUSE_NO":"５６號四樓之１６","E_COORD97":171313.64000000001,"N_COORD97":2540466.8500000001,"ADDRESS":"崇善十五街３３巷５６號四樓之１６","OBJECTID":379194},"geometry":{"x":171313.63999999966,"y":2540466.8499999996}},{"attributes":{"ID":379205,"DIS_CODE":0,"TOWNNAME":"東區","LI":"大智里","LIN":"21鄰","STREET":"崇善十五街","SECT":" ","MAREA":" ","LANE":"３３巷","ALLEY":" ","HOUSE_NO":"５６號四樓之５","E_COORD97":171313.64000000001,"N_COORD97":2540466.8500000001,"ADDRESS":"崇善十五街３３巷５６號四樓之５","OBJECTID":379195},"geometry":{"x":171313.63999999966,"y":2540466.8499999996}},{"attributes":{"ID":379206,"DIS_CODE":0,"TOWNNAME":"東區","LI":"大智里","LIN":"21鄰","STREET":"崇善十五街","SECT":" ","MAREA":" ","LANE":"３３巷","ALLEY":" ","HOUSE_NO":"５６號四樓之７","E_COORD97":171313.64000000001,"N_COORD97":2540466.8500000001,"ADDRESS":"崇善十五街３３巷５６號四樓之７","OBJECTID":379196},"geometry":{"x":171313.63999999966,"y":2540466.8499999996}},{"attributes":{"ID":379207,"DIS_CODE":0,"TOWNNAME":"東區","LI":"大智里","LIN":"21鄰","STREET":"崇善十五街","SECT":" ","MAREA":" ","LANE":"３３巷","ALLEY":" ","HOUSE_NO":"５６號四樓之９","E_COORD97":171313.64000000001,"N_COORD97":2540466.8500000001,"ADDRESS":"崇善十五街３３巷５６號四樓之９","OBJECTID":379197},"geometry":{"x":171313.63999999966,"y":2540466.8499999996}},{"attributes":{"ID":379208,"DIS_CODE":0,"TOWNNAME":"永康區","LI":"崑山里","LIN":"21鄰","STREET":"大仁街","SECT":" ","MAREA":" ","LANE":"３１巷","ALLEY":" ","HOUSE_NO":"３５號六樓之１７","E_COORD97":173709.98000000001,"N_COORD97":2544604.9399999999,"ADDRESS":"大仁街３１巷３５號六樓之１７","OBJECTID":379198},"geometry":{"x":173709.98000000138,"y":2544604.9400000013}},{"attributes":{"ID":379209,"DIS_CODE":0,"TOWNNAME":"永康區","LI":"崑山里","LIN":"21鄰","STREET":"大仁街","SECT":" ","MAREA":" ","LANE":"３１巷","ALLEY":" ","HOUSE_NO":"３５號六樓之１８","E_COORD97":173710.04999999999,"N_COORD97":2544604.9399999999,"ADDRESS":"大仁街３１巷３５號六樓之１８","OBJECTID":379199},"geometry":{"x":173710.04999999981,"y":2544604.9400000013}},{"attributes":{"ID":379210,"DIS_CODE":0,"TOWNNAME":"永康區","LI":"崑山里","LIN":"21鄰","STREET":"大仁街","SECT":" ","MAREA":" ","LANE":"３１巷","ALLEY":" ","HOUSE_NO":"３５號六樓之１","E_COORD97":173708.64999999999,"N_COORD97":2544604.9399999999,"ADDRESS":"大仁街３１巷３５號六樓之１","OBJECTID":379200},"geometry":{"x":173708.6500000013,"y":2544604.9400000013}}]}