{"displayFieldName":"TOWNNAME","fieldAliases":{"ID":"ID","DIS_CODE":"DIS_CODE","TOWNNAME":"TOWNNAME","LI":"LI","LIN":"LIN","STREET":"STREET","SECT":"SECT","MAREA":"MAREA","LANE":"LANE","ALLEY":"ALLEY","HOUSE_NO":"HOUSE_NO","E_COORD97":"E_COORD97","N_COORD97":"N_COORD97","ADDRESS":"ADDRESS","OBJECTID":"OBJECTID"},"geometryType":"esriGeometryPoint","spatialReference":{"wkid":102443,"latestWkid":3826},"fields":[{"name":"ID","type":"esriFieldTypeDouble","alias":"ID"},{"name":"DIS_CODE","type":"esriFieldTypeInteger","alias":"DIS_CODE"},{"name":"TOWNNAME","type":"esriFieldTypeString","alias":"TOWNNAME","length":8},{"name":"LI","type":"esriFieldTypeString","alias":"LI","length":8},{"name":"LIN","type":"esriFieldTypeString","alias":"LIN","length":12},{"name":"STREET","type":"esriFieldTypeString","alias":"STREET","length":20},{"name":"SECT","type":"esriFieldTypeString","alias":"SECT","length":8},{"name":"MAREA","type":"esriFieldTypeString","alias":"MAREA","length":12},{"name":"LANE","type":"esriFieldTypeString","alias":"LANE","length":10},{"name":"ALLEY","type":"esriFieldTypeString","alias":"ALLEY","length":10},{"name":"HOUSE_NO","type":"esriFieldTypeString","alias":"HOUSE_NO","length":20},{"name":"E_COORD97","type":"esriFieldTypeDouble","alias":"E_COORD97"},{"name":"N_COORD97","type":"esriFieldTypeDouble","alias":"N_COORD97"},{"name":"ADDRESS","type":"esriFieldTypeString","alias":"ADDRESS","length":50},{"name":"OBJECTID","type":"esriFieldTypeOID","alias":"OBJECTID"}],"features":[{"attributes":{"ID":358411,"DIS_CODE":0,"TOWNNAME":"永康區","LI":"\u25A0洲里","LIN":"30鄰","STREET":"洲尾街","SECT":" ","MAREA":" ","LANE":"３２１巷","ALLEY":" ","HOUSE_NO":"１２號","E_COORD97":171170,"N_COORD97":2549174.3999999999,"ADDRESS":"洲尾街３２１巷１２號","OBJECTID":358401},"geometry":{"x":171170.00000000093,"y":2549174.4000000004}},{"attributes":{"ID":358412,"DIS_CODE":0,"TOWNNAME":"永康區","LI":"\u25A0洲里","LIN":"30鄰","STREET":"洲尾街","SECT":" ","MAREA":" ","LANE":"３２１巷","ALLEY":" ","HOUSE_NO":"５８號","E_COORD97":171228.51999999999,"N_COORD97":2549214.2599999998,"ADDRESS":"洲尾街３２１巷５８號","OBJECTID":358402},"geometry":{"x":171228.52000000142,"y":2549214.2600000016}},{"attributes":{"ID":358413,"DIS_CODE":0,"TOWNNAME":"永康區","LI":"\u25A0洲里","LIN":"30鄰","STREET":"洲尾街","SECT":" ","MAREA":" ","LANE":"３２１巷","ALLEY":" ","HOUSE_NO":"３８號","E_COORD97":171202.64999999999,"N_COORD97":2549199.73,"ADDRESS":"洲尾街３２１巷３８號","OBJECTID":358403},"geometry":{"x":171202.65000000037,"y":2549199.7300000004}},{"attributes":{"ID":358414,"DIS_CODE":0,"TOWNNAME":"永康區","LI":"\u25A0洲里","LIN":"30鄰","STREET":"洲尾街","SECT":" ","MAREA":" ","LANE":"３２１巷","ALLEY":" ","HOUSE_NO":"６號","E_COORD97":171162.76999999999,"N_COORD97":2549163.3399999999,"ADDRESS":"洲尾街３２１巷６號","OBJECTID":358404},"geometry":{"x":171162.77000000048,"y":2549163.3399999999}},{"attributes":{"ID":358415,"DIS_CODE":0,"TOWNNAME":"永康區","LI":"\u25A0洲里","LIN":"30鄰","STREET":"洲尾街","SECT":" ","MAREA":" ","LANE":"３３５巷","ALLEY":" ","HOUSE_NO":"５０號","E_COORD97":171231.66,"N_COORD97":2549158.9900000002,"ADDRESS":"洲尾街３３５巷５０號","OBJECTID":358405},"geometry":{"x":171231.66000000108,"y":2549158.9900000021}},{"attributes":{"ID":358416,"DIS_CODE":0,"TOWNNAME":"永康區","LI":"\u25A0洲里","LIN":"30鄰","STREET":"洲尾街","SECT":" ","MAREA":" ","LANE":"３２１巷","ALLEY":" ","HOUSE_NO":"５２號","E_COORD97":171216.75,"N_COORD97":2549214.79,"ADDRESS":"洲尾街３２１巷５２號","OBJECTID":358406},"geometry":{"x":171216.75,"y":2549214.7899999991}},{"attributes":{"ID":358417,"DIS_CODE":0,"TOWNNAME":"永康區","LI":"\u25A0洲里","LIN":"30鄰","STREET":"洲尾街","SECT":" ","MAREA":" ","LANE":"３３５巷","ALLEY":" ","HOUSE_NO":"３３號","E_COORD97":171211.57999999999,"N_COORD97":2549179.6699999999,"ADDRESS":"洲尾街３３５巷３３號","OBJECTID":358407},"geometry":{"x":171211.58000000194,"y":2549179.6700000037}},{"attributes":{"ID":358418,"DIS_CODE":0,"TOWNNAME":"永康區","LI":"\u25A0洲里","LIN":"30鄰","STREET":"洲尾街","SECT":" ","MAREA":" ","LANE":"３２１巷","ALLEY":" ","HOUSE_NO":"１６號","E_COORD97":171173.10999999999,"N_COORD97":2549176.6099999999,"ADDRESS":"洲尾街３２１巷１６號","OBJECTID":358408},"geometry":{"x":171173.11000000127,"y":2549176.6100000013}},{"attributes":{"ID":358419,"DIS_CODE":0,"TOWNNAME":"永康區","LI":"\u25A0洲里","LIN":"30鄰","STREET":"洲尾街","SECT":" ","MAREA":" ","LANE":"３３５巷","ALLEY":" ","HOUSE_NO":"２２號","E_COORD97":171210.37,"N_COORD97":2549138.8799999999,"ADDRESS":"洲尾街３３５巷２２號","OBJECTID":358409},"geometry":{"x":171210.37000000104,"y":2549138.879999999}},{"attributes":{"ID":358420,"DIS_CODE":0,"TOWNNAME":"永康區","LI":"\u25A0洲里","LIN":"30鄰","STREET":"洲尾街","SECT":" ","MAREA":" ","LANE":"３３５巷","ALLEY":" ","HOUSE_NO":"９號","E_COORD97":171173.26000000001,"N_COORD97":2549145.96,"ADDRESS":"洲尾街３３５巷９號","OBJECTID":358410},"geometry":{"x":171173.26000000071,"y":2549145.9600000028}},{"attributes":{"ID":358421,"DIS_CODE":0,"TOWNNAME":"永康區","LI":"\u25A0洲里","LIN":"30鄰","STREET":"洲尾街","SECT":" ","MAREA":" ","LANE":"３３５巷","ALLEY":" ","HOUSE_NO":"５號","E_COORD97":171169.70000000001,"N_COORD97":2549135.2000000002,"ADDRESS":"洲尾街３３５巷５號","OBJECTID":358411},"geometry":{"x":171169.70000000019,"y":2549135.2000000011}},{"attributes":{"ID":358422,"DIS_CODE":0,"TOWNNAME":"永康區","LI":"\u25A0洲里","LIN":"30鄰","STREET":"洲尾街","SECT":" ","MAREA":" ","LANE":"３３５巷","ALLEY":" ","HOUSE_NO":"２號","E_COORD97":171174.62,"N_COORD97":2549115.7400000002,"ADDRESS":"洲尾街３３５巷２號","OBJECTID":358412},"geometry":{"x":171174.62000000104,"y":2549115.7400000021}},{"attributes":{"ID":358423,"DIS_CODE":0,"TOWNNAME":"永康區","LI":"西勢里","LIN":"30鄰","STREET":"富強路","SECT":"一段","MAREA":" ","LANE":"２巷","ALLEY":" ","HOUSE_NO":"３１之５號","E_COORD97":175546.89999999999,"N_COORD97":2545894.2000000002,"ADDRESS":"富強路一段２巷３１之５號","OBJECTID":358413},"geometry":{"x":175546.9000000013,"y":2545894.2000000011}},{"attributes":{"ID":358424,"DIS_CODE":0,"TOWNNAME":"永康區","LI":"\u25A0洲里","LIN":"30鄰","STREET":"洲尾街","SECT":" ","MAREA":" ","LANE":"３３５巷","ALLEY":" ","HOUSE_NO":"２３號","E_COORD97":171195.92000000001,"N_COORD97":2549165.75,"ADDRESS":"洲尾街３３５巷２３號","OBJECTID":358414},"geometry":{"x":171195.92000000086,"y":2549165.7500000037}},{"attributes":{"ID":358425,"DIS_CODE":0,"TOWNNAME":"永康區","LI":"\u25A0洲里","LIN":"30鄰","STREET":"洲尾街","SECT":" ","MAREA":" ","LANE":"３２１巷","ALLEY":" ","HOUSE_NO":"１８號","E_COORD97":171176.76999999999,"N_COORD97":2549179.21,"ADDRESS":"洲尾街３２１巷１８號","OBJECTID":358415},"geometry":{"x":171176.76999999955,"y":2549179.2100000009}},{"attributes":{"ID":358426,"DIS_CODE":0,"TOWNNAME":"永康區","LI":"\u25A0洲里","LIN":"30鄰","STREET":"洲尾街","SECT":" ","MAREA":" ","LANE":"３３５巷","ALLEY":" ","HOUSE_NO":"３８號","E_COORD97":171228.60999999999,"N_COORD97":2549156.1200000001,"ADDRESS":"洲尾街３３５巷３８號","OBJECTID":358416},"geometry":{"x":171228.6100000022,"y":2549156.120000001}},{"attributes":{"ID":358427,"DIS_CODE":0,"TOWNNAME":"永康區","LI":"\u25A0洲里","LIN":"30鄰","STREET":"洲尾街","SECT":" ","MAREA":" ","LANE":"３３５巷","ALLEY":" ","HOUSE_NO":"３２號","E_COORD97":171222.53,"N_COORD97":2549150.3700000001,"ADDRESS":"洲尾街３３５巷３２號","OBJECTID":358417},"geometry":{"x":171222.53000000119,"y":2549150.3700000029}},{"attributes":{"ID":358428,"DIS_CODE":0,"TOWNNAME":"永康區","LI":"\u25A0洲里","LIN":"30鄰","STREET":"洲尾街","SECT":" ","MAREA":" ","LANE":"３３５巷","ALLEY":" ","HOUSE_NO":"３５號","E_COORD97":171214.29000000001,"N_COORD97":2549182.8900000001,"ADDRESS":"洲尾街３３５巷３５號","OBJECTID":358418},"geometry":{"x":171214.29000000097,"y":2549182.8900000025}},{"attributes":{"ID":358429,"DIS_CODE":0,"TOWNNAME":"南區","LI":"光明里","LIN":"30鄰","STREET":"新建路","SECT":" ","MAREA":" ","LANE":"２９巷","ALLEY":" ","HOUSE_NO":"２０號","E_COORD97":166558.23000000001,"N_COORD97":2541237.3599999999,"ADDRESS":"新建路２９巷２０號","OBJECTID":358419},"geometry":{"x":166558.23000000138,"y":2541237.3599999994}},{"attributes":{"ID":358430,"DIS_CODE":0,"TOWNNAME":"安南區","LI":"安富里","LIN":"30鄰","STREET":"府安路","SECT":"五段","MAREA":" ","LANE":"２１８巷","ALLEY":" ","HOUSE_NO":"６６號","E_COORD97":167643.57999999999,"N_COORD97":2547161.2999999998,"ADDRESS":"府安路五段２１８巷６６號","OBJECTID":358420},"geometry":{"x":167643.58000000101,"y":2547161.3000000007}},{"attributes":{"ID":358431,"DIS_CODE":0,"TOWNNAME":"仁德區","LI":"太子里","LIN":"30鄰","STREET":"中正路","SECT":"三段","MAREA":" ","LANE":"５６６巷","ALLEY":" ","HOUSE_NO":"３號","E_COORD97":173949.85999999999,"N_COORD97":2543214.0299999998,"ADDRESS":"中正路三段５６６巷３號","OBJECTID":358421},"geometry":{"x":173949.86000000127,"y":2543214.0300000012}},{"attributes":{"ID":358432,"DIS_CODE":0,"TOWNNAME":"仁德區","LI":"太子里","LIN":"30鄰","STREET":"中正路","SECT":"三段","MAREA":" ","LANE":"５６６巷","ALLEY":" ","HOUSE_NO":"７號","E_COORD97":173955.62,"N_COORD97":2543206.2799999998,"ADDRESS":"中正路三段５６６巷７號","OBJECTID":358422},"geometry":{"x":173955.62000000011,"y":2543206.2799999993}},{"attributes":{"ID":358433,"DIS_CODE":0,"TOWNNAME":"仁德區","LI":"成功里","LIN":"30鄰","STREET":"成功一街","SECT":" ","MAREA":" ","LANE":"３巷","ALLEY":" ","HOUSE_NO":"１號","E_COORD97":170555.66,"N_COORD97":2540221.52,"ADDRESS":"成功一街３巷１號","OBJECTID":358423},"geometry":{"x":170555.66000000108,"y":2540221.5199999996}},{"attributes":{"ID":358434,"DIS_CODE":0,"TOWNNAME":"仁德區","LI":"後壁里","LIN":"30鄰","STREET":"德洋一街","SECT":" ","MAREA":" ","LANE":"５１巷","ALLEY":" ","HOUSE_NO":"１號","E_COORD97":173119.23000000001,"N_COORD97":2539199.52,"ADDRESS":"德洋一街５１巷１號","OBJECTID":358424},"geometry":{"x":173119.23000000045,"y":2539199.5200000014}},{"attributes":{"ID":358435,"DIS_CODE":0,"TOWNNAME":"永康區","LI":"永康里","LIN":"30鄰","STREET":"永華路","SECT":" ","MAREA":" ","LANE":"７７６巷","ALLEY":" ","HOUSE_NO":"２６號","E_COORD97":174154.39000000001,"N_COORD97":2547157,"ADDRESS":"永華路７７６巷２６號","OBJECTID":358425},"geometry":{"x":174154.3900000006,"y":2547157.0000000037}},{"attributes":{"ID":358436,"DIS_CODE":0,"TOWNNAME":"永康區","LI":"永康里","LIN":"30鄰","STREET":"永華路","SECT":" ","MAREA":" ","LANE":"７７６巷","ALLEY":" ","HOUSE_NO":"１８號","E_COORD97":174144.54000000001,"N_COORD97":2547163.75,"ADDRESS":"永華路７７６巷１８號","OBJECTID":358426},"geometry":{"x":174144.5400000019,"y":2547163.75}},{"attributes":{"ID":358437,"DIS_CODE":0,"TOWNNAME":"永康區","LI":"永康里","LIN":"30鄰","STREET":"永華路","SECT":" ","MAREA":" ","LANE":"７０２巷","ALLEY":" ","HOUSE_NO":"１７號","E_COORD97":174128.37,"N_COORD97":2547083.7400000002,"ADDRESS":"永華路７０２巷１７號","OBJECTID":358427},"geometry":{"x":174128.37000000011,"y":2547083.7400000002}},{"attributes":{"ID":358438,"DIS_CODE":0,"TOWNNAME":"永康區","LI":"永康里","LIN":"30鄰","STREET":"永華路","SECT":" ","MAREA":" ","LANE":"７４０巷","ALLEY":" ","HOUSE_NO":"６號","E_COORD97":174134.69,"N_COORD97":2547127.5499999998,"ADDRESS":"永華路７４０巷６號","OBJECTID":358428},"geometry":{"x":174134.69000000041,"y":2547127.5500000026}},{"attributes":{"ID":358439,"DIS_CODE":0,"TOWNNAME":"永康區","LI":"西勢里","LIN":"30鄰","STREET":"富強路","SECT":"一段","MAREA":" ","LANE":"２巷","ALLEY":" ","HOUSE_NO":"１９號","E_COORD97":175460.66,"N_COORD97":2545924.5299999998,"ADDRESS":"富強路一段２巷１９號","OBJECTID":358429},"geometry":{"x":175460.66000000015,"y":2545924.5299999993}},{"attributes":{"ID":358440,"DIS_CODE":0,"TOWNNAME":"永康區","LI":"二王里","LIN":"30鄰","STREET":"中山南路","SECT":" ","MAREA":" ","LANE":"５１０巷","ALLEY":" ","HOUSE_NO":"３號","E_COORD97":172215.17999999999,"N_COORD97":2546415.6600000001,"ADDRESS":"中山南路５１０巷３號","OBJECTID":358430},"geometry":{"x":172215.1799999997,"y":2546415.6600000001}},{"attributes":{"ID":358441,"DIS_CODE":0,"TOWNNAME":"永康區","LI":"北灣里","LIN":"30鄰","STREET":"大同街","SECT":" ","MAREA":" ","LANE":"３３巷","ALLEY":" ","HOUSE_NO":"１９號","E_COORD97":175262.60999999999,"N_COORD97":2545332.02,"ADDRESS":"大同街３３巷１９號","OBJECTID":358431},"geometry":{"x":175262.61000000034,"y":2545332.0199999996}},{"attributes":{"ID":358442,"DIS_CODE":0,"TOWNNAME":"永康區","LI":"五王里","LIN":"30鄰","STREET":"中山東路","SECT":" ","MAREA":" ","LANE":"１２０巷","ALLEY":" ","HOUSE_NO":"２號","E_COORD97":171735.72,"N_COORD97":2545914.5299999998,"ADDRESS":"中山東路１２０巷２號","OBJECTID":358432},"geometry":{"x":171735.71999999881,"y":2545914.5299999993}},{"attributes":{"ID":358443,"DIS_CODE":0,"TOWNNAME":"永康區","LI":"西灣里","LIN":"30鄰","STREET":"國光八街","SECT":" ","MAREA":" ","LANE":"６０巷","ALLEY":" ","HOUSE_NO":"３４號","E_COORD97":174266.54000000001,"N_COORD97":2545850.1899999999,"ADDRESS":"國光八街６０巷３４號","OBJECTID":358433},"geometry":{"x":174266.5400000019,"y":2545850.1900000013}},{"attributes":{"ID":358444,"DIS_CODE":0,"TOWNNAME":"永康區","LI":"西勢里","LIN":"30鄰","STREET":"富強路","SECT":"一段","MAREA":" ","LANE":"２巷","ALLEY":" ","HOUSE_NO":"３５號","E_COORD97":175584.62,"N_COORD97":2545811.0299999998,"ADDRESS":"富強路一段２巷３５號","OBJECTID":358434},"geometry":{"x":175584.62000000011,"y":2545811.0300000012}},{"attributes":{"ID":358445,"DIS_CODE":0,"TOWNNAME":"永康區","LI":"西勢里","LIN":"30鄰","STREET":"富強路","SECT":"一段","MAREA":" ","LANE":"２巷","ALLEY":" ","HOUSE_NO":"２９號","E_COORD97":175483.16,"N_COORD97":2545903.7799999998,"ADDRESS":"富強路一段２巷２９號","OBJECTID":358435},"geometry":{"x":175483.16000000201,"y":2545903.7800000012}},{"attributes":{"ID":358446,"DIS_CODE":0,"TOWNNAME":"永康區","LI":"西勢里","LIN":"30鄰","STREET":"富強路","SECT":"一段","MAREA":" ","LANE":"２巷","ALLEY":" ","HOUSE_NO":"１３號","E_COORD97":175441.63,"N_COORD97":2545941.02,"ADDRESS":"富強路一段２巷１３號","OBJECTID":358436},"geometry":{"x":175441.62999999989,"y":2545941.0199999996}},{"attributes":{"ID":358447,"DIS_CODE":0,"TOWNNAME":"將軍區","LI":"西和里","LIN":"25鄰","STREET":" ","SECT":" ","MAREA":"西湖","LANE":" ","ALLEY":" ","HOUSE_NO":"９２號","E_COORD97":162122.82999999999,"N_COORD97":2566203.77,"ADDRESS":"西湖９２號","OBJECTID":358437},"geometry":{"x":162122.83000000101,"y":2566203.7699999996}},{"attributes":{"ID":358448,"DIS_CODE":0,"TOWNNAME":"永康區","LI":"西勢里","LIN":"30鄰","STREET":"富強路","SECT":"一段","MAREA":" ","LANE":"２巷","ALLEY":" ","HOUSE_NO":"２１號","E_COORD97":175466.82000000001,"N_COORD97":2545918.5299999998,"ADDRESS":"富強路一段２巷２１號","OBJECTID":358438},"geometry":{"x":175466.82000000216,"y":2545918.5300000031}},{"attributes":{"ID":358449,"DIS_CODE":0,"TOWNNAME":"永康區","LI":"西灣里","LIN":"30鄰","STREET":"大勇路","SECT":" ","MAREA":" ","LANE":"２４１巷","ALLEY":" ","HOUSE_NO":"１１號","E_COORD97":174263.38,"N_COORD97":2545865.4700000002,"ADDRESS":"大勇路２４１巷１１號","OBJECTID":358439},"geometry":{"x":174263.37999999989,"y":2545865.4700000007}},{"attributes":{"ID":358450,"DIS_CODE":0,"TOWNNAME":"永康區","LI":"西勢里","LIN":"30鄰","STREET":"富強路","SECT":"一段","MAREA":" ","LANE":"２巷","ALLEY":" ","HOUSE_NO":"２７號","E_COORD97":175479.62,"N_COORD97":2545907.0299999998,"ADDRESS":"富強路一段２巷２７號","OBJECTID":358440},"geometry":{"x":175479.62000000011,"y":2545907.0299999993}},{"attributes":{"ID":358451,"DIS_CODE":0,"TOWNNAME":"永康區","LI":"西勢里","LIN":"30鄰","STREET":"富強路","SECT":"一段","MAREA":" ","LANE":"２巷","ALLEY":" ","HOUSE_NO":"２３號","E_COORD97":175470.42999999999,"N_COORD97":2545914.7799999998,"ADDRESS":"富強路一段２巷２３號","OBJECTID":358441},"geometry":{"x":175470.4299999997,"y":2545914.7800000012}},{"attributes":{"ID":358452,"DIS_CODE":0,"TOWNNAME":"永康區","LI":"西灣里","LIN":"30鄰","STREET":"國光八街","SECT":" ","MAREA":" ","LANE":"６０巷","ALLEY":" ","HOUSE_NO":"２８號","E_COORD97":174268.35999999999,"N_COORD97":2545838.2599999998,"ADDRESS":"國光八街６０巷２８號","OBJECTID":358442},"geometry":{"x":174268.36000000127,"y":2545838.2599999998}},{"attributes":{"ID":358453,"DIS_CODE":0,"TOWNNAME":"永康區","LI":"西勢里","LIN":"30鄰","STREET":"富強路","SECT":"一段","MAREA":" ","LANE":"２巷","ALLEY":" ","HOUSE_NO":"１１號","E_COORD97":175435.38,"N_COORD97":2545946.77,"ADDRESS":"富強路一段２巷１１號","OBJECTID":358443},"geometry":{"x":175435.37999999896,"y":2545946.7699999996}},{"attributes":{"ID":358454,"DIS_CODE":0,"TOWNNAME":"南區","LI":"金華里","LIN":"30鄰","STREET":"新孝路","SECT":" ","MAREA":" ","LANE":"１２６巷","ALLEY":" ","HOUSE_NO":"１號","E_COORD97":166577.73999999999,"N_COORD97":2542090.6200000001,"ADDRESS":"新孝路１２６巷１號","OBJECTID":358444},"geometry":{"x":166577.74000000209,"y":2542090.620000001}},{"attributes":{"ID":358455,"DIS_CODE":0,"TOWNNAME":"東區","LI":"中西里","LIN":"30鄰","STREET":"東寧路","SECT":" ","MAREA":" ","LANE":"１７０巷","ALLEY":" ","HOUSE_NO":"１２號","E_COORD97":170382.42000000001,"N_COORD97":2543501,"ADDRESS":"東寧路１７０巷１２號","OBJECTID":358445},"geometry":{"x":170382.42000000086,"y":2543501}},{"attributes":{"ID":358456,"DIS_CODE":0,"TOWNNAME":"東區","LI":"中西里","LIN":"30鄰","STREET":"東寧路","SECT":" ","MAREA":" ","LANE":"１７０巷","ALLEY":" ","HOUSE_NO":"１３號","E_COORD97":170429.16,"N_COORD97":2543474.02,"ADDRESS":"東寧路１７０巷１３號","OBJECTID":358446},"geometry":{"x":170429.16000000015,"y":2543474.0199999996}},{"attributes":{"ID":358457,"DIS_CODE":0,"TOWNNAME":"東區","LI":"中西里","LIN":"30鄰","STREET":"東寧路","SECT":" ","MAREA":" ","LANE":"１７０巷","ALLEY":" ","HOUSE_NO":"１５號","E_COORD97":170421.85000000001,"N_COORD97":2543476.5499999998,"ADDRESS":"東寧路１７０巷１５號","OBJECTID":358447},"geometry":{"x":170421.85000000056,"y":2543476.5500000026}},{"attributes":{"ID":358458,"DIS_CODE":0,"TOWNNAME":"東區","LI":"中西里","LIN":"30鄰","STREET":"東寧路","SECT":" ","MAREA":" ","LANE":"１７０巷","ALLEY":" ","HOUSE_NO":"１７號之１","E_COORD97":170414.07999999999,"N_COORD97":2543479.3599999999,"ADDRESS":"東寧路１７０巷１７號之１","OBJECTID":358448},"geometry":{"x":170414.08000000007,"y":2543479.3600000013}},{"attributes":{"ID":358459,"DIS_CODE":0,"TOWNNAME":"東區","LI":"中西里","LIN":"30鄰","STREET":"東寧路","SECT":" ","MAREA":" ","LANE":"１７０巷","ALLEY":" ","HOUSE_NO":"１號","E_COORD97":170412.95000000001,"N_COORD97":2543491.02,"ADDRESS":"東寧路１７０巷１號","OBJECTID":358449},"geometry":{"x":170412.95000000112,"y":2543491.0199999996}},{"attributes":{"ID":358460,"DIS_CODE":0,"TOWNNAME":"東區","LI":"中西里","LIN":"30鄰","STREET":"東寧路","SECT":" ","MAREA":" ","LANE":"１７０巷","ALLEY":" ","HOUSE_NO":"２２號","E_COORD97":170388.19,"N_COORD97":2543488.77,"ADDRESS":"東寧路１７０巷２２號","OBJECTID":358450},"geometry":{"x":170388.19000000134,"y":2543488.7699999996}},{"attributes":{"ID":358461,"DIS_CODE":0,"TOWNNAME":"東區","LI":"中西里","LIN":"30鄰","STREET":"東寧路","SECT":" ","MAREA":" ","LANE":"１７０巷","ALLEY":" ","HOUSE_NO":"２４號","E_COORD97":170392.13,"N_COORD97":2543487.5099999998,"ADDRESS":"東寧路１７０巷２４號","OBJECTID":358451},"geometry":{"x":170392.12999999989,"y":2543487.5099999998}},{"attributes":{"ID":358462,"DIS_CODE":0,"TOWNNAME":"東區","LI":"中西里","LIN":"30鄰","STREET":"東寧路","SECT":" ","MAREA":" ","LANE":"１７０巷","ALLEY":" ","HOUSE_NO":"２６號","E_COORD97":170395.5,"N_COORD97":2543485.6800000002,"ADDRESS":"東寧路１７０巷２６號","OBJECTID":358452},"geometry":{"x":170395.50000000093,"y":2543485.6799999997}},{"attributes":{"ID":358463,"DIS_CODE":0,"TOWNNAME":"東區","LI":"中西里","LIN":"30鄰","STREET":"東寧路","SECT":" ","MAREA":" ","LANE":"１７０巷","ALLEY":" ","HOUSE_NO":"２８號","E_COORD97":170400.01000000001,"N_COORD97":2543484.7000000002,"ADDRESS":"東寧路１７０巷２８號","OBJECTID":358453},"geometry":{"x":170400.01000000071,"y":2543484.7000000011}},{"attributes":{"ID":358464,"DIS_CODE":0,"TOWNNAME":"東區","LI":"中西里","LIN":"30鄰","STREET":"東寧路","SECT":" ","MAREA":" ","LANE":"１７０巷","ALLEY":" ","HOUSE_NO":"３０號","E_COORD97":170396.85999999999,"N_COORD97":2543470.1600000001,"ADDRESS":"東寧路１７０巷３０號","OBJECTID":358454},"geometry":{"x":170396.86000000127,"y":2543470.1600000001}},{"attributes":{"ID":358465,"DIS_CODE":0,"TOWNNAME":"東區","LI":"中西里","LIN":"30鄰","STREET":"東寧路","SECT":" ","MAREA":" ","LANE":"１７０巷","ALLEY":" ","HOUSE_NO":"３２號","E_COORD97":170398.34,"N_COORD97":2543466.5299999998,"ADDRESS":"東寧路１７０巷３２號","OBJECTID":358455},"geometry":{"x":170398.34000000078,"y":2543466.5299999993}},{"attributes":{"ID":358466,"DIS_CODE":0,"TOWNNAME":"東區","LI":"中西里","LIN":"30鄰","STREET":"東寧路","SECT":" ","MAREA":" ","LANE":"１７０巷","ALLEY":" ","HOUSE_NO":"３４號","E_COORD97":170399.51999999999,"N_COORD97":2543462.2999999998,"ADDRESS":"東寧路１７０巷３４號","OBJECTID":358456},"geometry":{"x":170399.52000000142,"y":2543462.3000000007}},{"attributes":{"ID":358467,"DIS_CODE":0,"TOWNNAME":"東區","LI":"中西里","LIN":"30鄰","STREET":"東寧路","SECT":" ","MAREA":" ","LANE":"１７０巷","ALLEY":" ","HOUSE_NO":"３６號","E_COORD97":170401.98000000001,"N_COORD97":2543459.1600000001,"ADDRESS":"東寧路１７０巷３６號","OBJECTID":358457},"geometry":{"x":170401.98000000045,"y":2543459.1600000001}},{"attributes":{"ID":358468,"DIS_CODE":0,"TOWNNAME":"東區","LI":"中西里","LIN":"30鄰","STREET":"東寧路","SECT":" ","MAREA":" ","LANE":"１７０巷","ALLEY":" ","HOUSE_NO":"３８號","E_COORD97":170402.95999999999,"N_COORD97":2543454.9399999999,"ADDRESS":"東寧路１７０巷３８號","OBJECTID":358458},"geometry":{"x":170402.95999999996,"y":2543454.9400000013}},{"attributes":{"ID":358469,"DIS_CODE":0,"TOWNNAME":"東區","LI":"中西里","LIN":"30鄰","STREET":"東寧路","SECT":" ","MAREA":" ","LANE":"１７０巷","ALLEY":" ","HOUSE_NO":"３號","E_COORD97":170418.01000000001,"N_COORD97":2543489.7599999998,"ADDRESS":"東寧路１７０巷３號","OBJECTID":358459},"geometry":{"x":170418.00999999978,"y":2543489.7599999979}},{"attributes":{"ID":358470,"DIS_CODE":0,"TOWNNAME":"東區","LI":"中西里","LIN":"30鄰","STREET":"東寧路","SECT":" ","MAREA":" ","LANE":"１７０巷","ALLEY":" ","HOUSE_NO":"４號","E_COORD97":170398.88,"N_COORD97":2543495.3799999999,"ADDRESS":"東寧路１７０巷４號","OBJECTID":358460},"geometry":{"x":170398.87999999989,"y":2543495.3800000008}},{"attributes":{"ID":358471,"DIS_CODE":0,"TOWNNAME":"東區","LI":"中西里","LIN":"30鄰","STREET":"東寧路","SECT":" ","MAREA":" ","LANE":"１７０巷","ALLEY":" ","HOUSE_NO":"９號","E_COORD97":170430.14999999999,"N_COORD97":2543484.98,"ADDRESS":"東寧路１７０巷９號","OBJECTID":358461},"geometry":{"x":170430.1500000013,"y":2543484.9800000004}},{"attributes":{"ID":358472,"DIS_CODE":0,"TOWNNAME":"東區","LI":"中西里","LIN":"30鄰","STREET":"東寧路","SECT":" ","MAREA":" ","LANE":"１７０巷","ALLEY":" ","HOUSE_NO":"２０號","E_COORD97":170383.97,"N_COORD97":2543490.7400000002,"ADDRESS":"東寧路１７０巷２０號","OBJECTID":358462},"geometry":{"x":170383.96999999974,"y":2543490.7400000039}},{"attributes":{"ID":358473,"DIS_CODE":0,"TOWNNAME":"永康區","LI":"西灣里","LIN":"30鄰","STREET":"國光八街","SECT":" ","MAREA":" ","LANE":"６０巷","ALLEY":" ","HOUSE_NO":"２６號","E_COORD97":174269.12,"N_COORD97":2545834.5099999998,"ADDRESS":"國光八街６０巷２６號","OBJECTID":358463},"geometry":{"x":174269.12000000011,"y":2545834.5100000035}},{"attributes":{"ID":358474,"DIS_CODE":0,"TOWNNAME":"永康區","LI":"西灣里","LIN":"30鄰","STREET":"公園路","SECT":" ","MAREA":" ","LANE":"９３巷","ALLEY":" ","HOUSE_NO":"１３號","E_COORD97":174256.34,"N_COORD97":2545916.5299999998,"ADDRESS":"公園路９３巷１３號","OBJECTID":358464},"geometry":{"x":174256.34000000078,"y":2545916.5300000012}},{"attributes":{"ID":358475,"DIS_CODE":0,"TOWNNAME":"永康區","LI":"西灣里","LIN":"30鄰","STREET":"公園路","SECT":" ","MAREA":" ","LANE":"９３巷","ALLEY":" ","HOUSE_NO":"７號","E_COORD97":174253.78,"N_COORD97":2545929.5299999998,"ADDRESS":"公園路９３巷７號","OBJECTID":358465},"geometry":{"x":174253.78000000119,"y":2545929.5300000012}},{"attributes":{"ID":358476,"DIS_CODE":0,"TOWNNAME":"永康區","LI":"西勢里","LIN":"30鄰","STREET":"富強路","SECT":"一段","MAREA":" ","LANE":"２巷","ALLEY":" ","HOUSE_NO":"１４號","E_COORD97":175444.76999999999,"N_COORD97":2545938.02,"ADDRESS":"富強路一段２巷１４號","OBJECTID":358466},"geometry":{"x":175444.77000000048,"y":2545938.0199999996}},{"attributes":{"ID":358477,"DIS_CODE":0,"TOWNNAME":"永康區","LI":"西灣里","LIN":"30鄰","STREET":"國光八街","SECT":" ","MAREA":" ","LANE":"６０巷","ALLEY":" ","HOUSE_NO":"２２號","E_COORD97":174270.82999999999,"N_COORD97":2545826.8999999999,"ADDRESS":"國光八街６０巷２２號","OBJECTID":358467},"geometry":{"x":174270.83000000007,"y":2545826.9000000022}},{"attributes":{"ID":358478,"DIS_CODE":0,"TOWNNAME":"永康區","LI":"\u25A0行里","LIN":"30鄰","STREET":"中正北路","SECT":" ","MAREA":" ","LANE":"３１８巷","ALLEY":" ","HOUSE_NO":"１２號","E_COORD97":172952.78,"N_COORD97":2548936.25,"ADDRESS":"中正北路３１８巷１２號","OBJECTID":358468},"geometry":{"x":172952.78000000026,"y":2548936.2500000019}},{"attributes":{"ID":358479,"DIS_CODE":0,"TOWNNAME":"將軍區","LI":"西和里","LIN":"25鄰","STREET":" ","SECT":" ","MAREA":"西湖","LANE":" ","ALLEY":" ","HOUSE_NO":"９１之２０號","E_COORD97":162218.10000000001,"N_COORD97":2566494.73,"ADDRESS":"西湖９１之２０號","OBJECTID":358469},"geometry":{"x":162218.10000000149,"y":2566494.7300000042}},{"attributes":{"ID":358480,"DIS_CODE":0,"TOWNNAME":"將軍區","LI":"西和里","LIN":"25鄰","STREET":" ","SECT":" ","MAREA":"西湖","LANE":" ","ALLEY":" ","HOUSE_NO":"９１之３０號","E_COORD97":162044.91,"N_COORD97":2566566.8599999999,"ADDRESS":"西湖９１之３０號","OBJECTID":358470},"geometry":{"x":162044.91000000015,"y":2566566.8599999994}},{"attributes":{"ID":358481,"DIS_CODE":0,"TOWNNAME":"永康區","LI":"勝利里","LIN":"25鄰","STREET":"中華路","SECT":" ","MAREA":" ","LANE":"１５５巷","ALLEY":" ","HOUSE_NO":"４６號","E_COORD97":171475.85999999999,"N_COORD97":2544802.5499999998,"ADDRESS":"中華路１５５巷４６號","OBJECTID":358471},"geometry":{"x":171475.86000000034,"y":2544802.5500000026}},{"attributes":{"ID":358482,"DIS_CODE":0,"TOWNNAME":"永康區","LI":"\u25A0行里","LIN":"30鄰","STREET":"竹林街","SECT":" ","MAREA":" ","LANE":"１４巷","ALLEY":" ","HOUSE_NO":"１０號","E_COORD97":172704.17000000001,"N_COORD97":2548982.2400000002,"ADDRESS":"竹林街１４巷１０號","OBJECTID":358472},"geometry":{"x":172704.16999999993,"y":2548982.2400000002}},{"attributes":{"ID":358483,"DIS_CODE":0,"TOWNNAME":"永康區","LI":"\u25A0行里","LIN":"30鄰","STREET":"中正北路","SECT":" ","MAREA":" ","LANE":"３１７巷","ALLEY":" ","HOUSE_NO":"１之１號","E_COORD97":172870.35000000001,"N_COORD97":2549208.0499999998,"ADDRESS":"中正北路３１７巷１之１號","OBJECTID":358473},"geometry":{"x":172870.34999999963,"y":2549208.0500000007}},{"attributes":{"ID":358484,"DIS_CODE":0,"TOWNNAME":"中西區","LI":"三合里","LIN":"8鄰","STREET":"成功路","SECT":" ","MAREA":" ","LANE":" ","ALLEY":" ","HOUSE_NO":"４５７號十樓之６","E_COORD97":167602.39000000001,"N_COORD97":2544649.3900000001,"ADDRESS":"成功路４５７號十樓之６","OBJECTID":358474},"geometry":{"x":167602.3900000006,"y":2544649.3900000043}},{"attributes":{"ID":358485,"DIS_CODE":0,"TOWNNAME":"永康區","LI":"\u25A0行里","LIN":"30鄰","STREET":"中正北路","SECT":" ","MAREA":" ","LANE":"３１８巷","ALLEY":" ","HOUSE_NO":"２號之１","E_COORD97":173150.42999999999,"N_COORD97":2548993.29,"ADDRESS":"中正北路３１８巷２號之１","OBJECTID":358475},"geometry":{"x":173150.43000000063,"y":2548993.290000001}},{"attributes":{"ID":358486,"DIS_CODE":0,"TOWNNAME":"永康區","LI":"\u25A0行里","LIN":"30鄰","STREET":"中正北路","SECT":" ","MAREA":" ","LANE":"３１８巷","ALLEY":" ","HOUSE_NO":"７號","E_COORD97":172968.82999999999,"N_COORD97":2549019.75,"ADDRESS":"中正北路３１８巷７號","OBJECTID":358476},"geometry":{"x":172968.83000000007,"y":2549019.7499999981}},{"attributes":{"ID":358487,"DIS_CODE":0,"TOWNNAME":"永康區","LI":"\u25A0行里","LIN":"30鄰","STREET":"中正北路","SECT":" ","MAREA":" ","LANE":"３１８巷","ALLEY":" ","HOUSE_NO":"１號","E_COORD97":173096.57000000001,"N_COORD97":2549053.6099999999,"ADDRESS":"中正北路３１８巷１號","OBJECTID":358477},"geometry":{"x":173096.5700000003,"y":2549053.6099999994}},{"attributes":{"ID":358488,"DIS_CODE":0,"TOWNNAME":"永康區","LI":"\u25A0行里","LIN":"30鄰","STREET":"新行街","SECT":" ","MAREA":" ","LANE":"１２２巷","ALLEY":" ","HOUSE_NO":"１３號","E_COORD97":172401.79000000001,"N_COORD97":2549048.9900000002,"ADDRESS":"新行街１２２巷１３號","OBJECTID":358478},"geometry":{"x":172401.78999999911,"y":2549048.9900000039}},{"attributes":{"ID":358489,"DIS_CODE":0,"TOWNNAME":"永康區","LI":"正強里","LIN":"30鄰","STREET":"正強街","SECT":" ","MAREA":" ","LANE":"２１５巷","ALLEY":" ","HOUSE_NO":"４７號","E_COORD97":173145.84,"N_COORD97":2547677.4900000002,"ADDRESS":"正強街２１５巷４７號","OBJECTID":358479},"geometry":{"x":173145.84000000078,"y":2547677.4900000021}},{"attributes":{"ID":358490,"DIS_CODE":0,"TOWNNAME":"永康區","LI":"\u25A0行里","LIN":"30鄰","STREET":"新行街","SECT":" ","MAREA":" ","LANE":"１２２巷","ALLEY":" ","HOUSE_NO":"１５號","E_COORD97":172407.64999999999,"N_COORD97":2549048.7400000002,"ADDRESS":"新行街１２２巷１５號","OBJECTID":358480},"geometry":{"x":172407.65000000037,"y":2549048.7400000021}},{"attributes":{"ID":358491,"DIS_CODE":0,"TOWNNAME":"永康區","LI":"\u25A0行里","LIN":"30鄰","STREET":"竹林街","SECT":" ","MAREA":" ","LANE":"１４巷","ALLEY":" ","HOUSE_NO":"９號","E_COORD97":172669.48000000001,"N_COORD97":2548985.2400000002,"ADDRESS":"竹林街１４巷９號","OBJECTID":358481},"geometry":{"x":172669.48000000138,"y":2548985.2400000002}},{"attributes":{"ID":358492,"DIS_CODE":0,"TOWNNAME":"永康區","LI":"\u25A0行里","LIN":"30鄰","STREET":"中正北路","SECT":" ","MAREA":" ","LANE":"３１８巷","ALLEY":" ","HOUSE_NO":"２號之２","E_COORD97":173150.56,"N_COORD97":2548993.29,"ADDRESS":"中正北路３１８巷２號之２","OBJECTID":358482},"geometry":{"x":173150.56000000145,"y":2548993.290000001}},{"attributes":{"ID":358493,"DIS_CODE":0,"TOWNNAME":"仁德區","LI":"仁義里","LIN":"30鄰","STREET":"中清一街","SECT":" ","MAREA":" ","LANE":"８３巷","ALLEY":" ","HOUSE_NO":"２號","E_COORD97":173612.35000000001,"N_COORD97":2541536.5499999998,"ADDRESS":"中清一街８３巷２號","OBJECTID":358483},"geometry":{"x":173612.34999999963,"y":2541536.5500000026}},{"attributes":{"ID":358494,"DIS_CODE":0,"TOWNNAME":"仁德區","LI":"仁義里","LIN":"30鄰","STREET":"中清一街","SECT":" ","MAREA":" ","LANE":"８３巷","ALLEY":" ","HOUSE_NO":"８號","E_COORD97":173610.76000000001,"N_COORD97":2541510.79,"ADDRESS":"中清一街８３巷８號","OBJECTID":358484},"geometry":{"x":173610.76000000071,"y":2541510.7899999991}},{"attributes":{"ID":358495,"DIS_CODE":0,"TOWNNAME":"仁德區","LI":"仁義里","LIN":"30鄰","STREET":"中清一街","SECT":" ","MAREA":" ","LANE":"８３巷","ALLEY":" ","HOUSE_NO":"５號","E_COORD97":173611.63,"N_COORD97":2541523.79,"ADDRESS":"中清一街８３巷５號","OBJECTID":358485},"geometry":{"x":173611.63000000082,"y":2541523.790000001}},{"attributes":{"ID":358496,"DIS_CODE":0,"TOWNNAME":"仁德區","LI":"太子里","LIN":"30鄰","STREET":"中正路","SECT":"三段","MAREA":" ","LANE":"６３６巷","ALLEY":" ","HOUSE_NO":"６號","E_COORD97":173825.26999999999,"N_COORD97":2543362.02,"ADDRESS":"中正路三段６３６巷６號","OBJECTID":358486},"geometry":{"x":173825.26999999955,"y":2543362.0199999996}},{"attributes":{"ID":358497,"DIS_CODE":0,"TOWNNAME":"仁德區","LI":"太子里","LIN":"30鄰","STREET":"太子路","SECT":" ","MAREA":" ","LANE":"６１３巷","ALLEY":" ","HOUSE_NO":"１３號","E_COORD97":173774.22,"N_COORD97":2543460.75,"ADDRESS":"太子路６１３巷１３號","OBJECTID":358487},"geometry":{"x":173774.22000000067,"y":2543460.7500000019}},{"attributes":{"ID":358498,"DIS_CODE":0,"TOWNNAME":"仁德區","LI":"太子里","LIN":"30鄰","STREET":"太子路","SECT":" ","MAREA":" ","LANE":"６１３巷","ALLEY":" ","HOUSE_NO":"１８之１號","E_COORD97":173748.48999999999,"N_COORD97":2543427.5499999998,"ADDRESS":"太子路６１３巷１８之１號","OBJECTID":358488},"geometry":{"x":173748.49000000209,"y":2543427.5500000007}},{"attributes":{"ID":358499,"DIS_CODE":0,"TOWNNAME":"仁德區","LI":"太子里","LIN":"30鄰","STREET":"太子路","SECT":" ","MAREA":" ","LANE":"６１３巷","ALLEY":" ","HOUSE_NO":"２５號","E_COORD97":173783.97,"N_COORD97":2543411.7599999998,"ADDRESS":"太子路６１３巷２５號","OBJECTID":358489},"geometry":{"x":173783.97000000067,"y":2543411.7599999979}},{"attributes":{"ID":358500,"DIS_CODE":0,"TOWNNAME":"仁德區","LI":"太子里","LIN":"30鄰","STREET":"太子路","SECT":" ","MAREA":" ","LANE":"６１３巷","ALLEY":" ","HOUSE_NO":"７號","E_COORD97":173729.64999999999,"N_COORD97":2543478,"ADDRESS":"太子路６１３巷７號","OBJECTID":358490},"geometry":{"x":173729.6500000013,"y":2543478}},{"attributes":{"ID":358501,"DIS_CODE":0,"TOWNNAME":"仁德區","LI":"太子里","LIN":"30鄰","STREET":"太子路","SECT":" ","MAREA":" ","LANE":"６１３巷","ALLEY":" ","HOUSE_NO":"２１號","E_COORD97":173776.56,"N_COORD97":2543434.0099999998,"ADDRESS":"太子路６１３巷２１號","OBJECTID":358491},"geometry":{"x":173776.56000000052,"y":2543434.0100000035}},{"attributes":{"ID":358502,"DIS_CODE":0,"TOWNNAME":"仁德區","LI":"太子里","LIN":"30鄰","STREET":"中正路","SECT":"三段","MAREA":" ","LANE":"６３６巷","ALLEY":" ","HOUSE_NO":"２號","E_COORD97":173820.04000000001,"N_COORD97":2543365.27,"ADDRESS":"中正路三段６３６巷２號","OBJECTID":358492},"geometry":{"x":173820.04000000004,"y":2543365.2700000014}},{"attributes":{"ID":358503,"DIS_CODE":0,"TOWNNAME":"仁德區","LI":"太子里","LIN":"30鄰","STREET":"太子路","SECT":" ","MAREA":" ","LANE":"６１３巷","ALLEY":" ","HOUSE_NO":"２０號","E_COORD97":173776.95000000001,"N_COORD97":2543397.5,"ADDRESS":"太子路６１３巷２０號","OBJECTID":358493},"geometry":{"x":173776.95000000019,"y":2543397.5000000019}},{"attributes":{"ID":358504,"DIS_CODE":0,"TOWNNAME":"仁德區","LI":"太子里","LIN":"30鄰","STREET":"太子路","SECT":" ","MAREA":" ","LANE":"６１３巷","ALLEY":" ","HOUSE_NO":"２７號","E_COORD97":173786,"N_COORD97":2543408.0099999998,"ADDRESS":"太子路６１３巷２７號","OBJECTID":358494},"geometry":{"x":173786.00000000093,"y":2543408.0100000016}},{"attributes":{"ID":358505,"DIS_CODE":0,"TOWNNAME":"仁德區","LI":"太子里","LIN":"30鄰","STREET":"中正路","SECT":"三段","MAREA":" ","LANE":"６３６巷","ALLEY":" ","HOUSE_NO":"１６號","E_COORD97":173838.42999999999,"N_COORD97":2543343.0299999998,"ADDRESS":"中正路三段６３６巷１６號","OBJECTID":358495},"geometry":{"x":173838.43000000063,"y":2543343.0300000012}},{"attributes":{"ID":358506,"DIS_CODE":0,"TOWNNAME":"仁德區","LI":"太子里","LIN":"30鄰","STREET":"太子路","SECT":" ","MAREA":" ","LANE":"６１３巷","ALLEY":" ","HOUSE_NO":"２４號","E_COORD97":173781.70999999999,"N_COORD97":2543388.75,"ADDRESS":"太子路６１３巷２４號","OBJECTID":358496},"geometry":{"x":173781.70999999996,"y":2543388.7500000037}},{"attributes":{"ID":358507,"DIS_CODE":0,"TOWNNAME":"安南區","LI":"州北里","LIN":"30鄰","STREET":"安昌街","SECT":" ","MAREA":" ","LANE":"８５巷","ALLEY":" ","HOUSE_NO":"１３５號","E_COORD97":169914.57000000001,"N_COORD97":2552507.77,"ADDRESS":"安昌街８５巷１３５號","OBJECTID":358497},"geometry":{"x":169914.5700000003,"y":2552507.7699999996}},{"attributes":{"ID":358508,"DIS_CODE":0,"TOWNNAME":"佳里區","LI":"安西里","LIN":"25鄰","STREET":"忠孝路","SECT":" ","MAREA":" ","LANE":" ","ALLEY":" ","HOUSE_NO":"２８０號","E_COORD97":164924.54999999999,"N_COORD97":2563412.46,"ADDRESS":"忠孝路２８０號","OBJECTID":358498},"geometry":{"x":164924.55000000075,"y":2563412.4600000028}},{"attributes":{"ID":358509,"DIS_CODE":0,"TOWNNAME":"新市區","LI":"大社里","LIN":"25鄰","STREET":" ","SECT":" ","MAREA":"大社","LANE":" ","ALLEY":" ","HOUSE_NO":"９１９號","E_COORD97":179916.34,"N_COORD97":2554015.25,"ADDRESS":"大社９１９號","OBJECTID":358499},"geometry":{"x":179916.34000000078,"y":2554015.2500000019}},{"attributes":{"ID":358510,"DIS_CODE":0,"TOWNNAME":"佳里區","LI":"六安里","LIN":"25鄰","STREET":"林園街","SECT":" ","MAREA":" ","LANE":"１７４巷","ALLEY":" ","HOUSE_NO":"１０號","E_COORD97":165644.32000000001,"N_COORD97":2562930.4900000002,"ADDRESS":"林園街１７４巷１０號","OBJECTID":358500},"geometry":{"x":165644.3200000003,"y":2562930.4900000021}},{"attributes":{"ID":358511,"DIS_CODE":0,"TOWNNAME":"佳里區","LI":"六安里","LIN":"25鄰","STREET":"林園街","SECT":" ","MAREA":" ","LANE":"１７４巷","ALLEY":" ","HOUSE_NO":"１４號","E_COORD97":165644.39999999999,"N_COORD97":2562938.8300000001,"ADDRESS":"林園街１７４巷１４號","OBJECTID":358501},"geometry":{"x":165644.40000000224,"y":2562938.8300000001}},{"attributes":{"ID":358512,"DIS_CODE":0,"TOWNNAME":"佳里區","LI":"六安里","LIN":"25鄰","STREET":"林園街","SECT":" ","MAREA":" ","LANE":"１７４巷","ALLEY":" ","HOUSE_NO":"６號","E_COORD97":165643.82000000001,"N_COORD97":2562915.8799999999,"ADDRESS":"林園街１７４巷６號","OBJECTID":358502},"geometry":{"x":165643.82000000123,"y":2562915.8800000008}},{"attributes":{"ID":358513,"DIS_CODE":0,"TOWNNAME":"佳里區","LI":"六安里","LIN":"25鄰","STREET":"林園街","SECT":" ","MAREA":" ","LANE":"１７４巷","ALLEY":" ","HOUSE_NO":"７號","E_COORD97":165622.91,"N_COORD97":2562924.7400000002,"ADDRESS":"林園街１７４巷７號","OBJECTID":358503},"geometry":{"x":165622.91000000108,"y":2562924.7400000021}},{"attributes":{"ID":358514,"DIS_CODE":0,"TOWNNAME":"佳里區","LI":"六安里","LIN":"25鄰","STREET":"林園街","SECT":" ","MAREA":" ","LANE":"１７４巷","ALLEY":" ","HOUSE_NO":"８號","E_COORD97":165643.78,"N_COORD97":2562922.8900000001,"ADDRESS":"林園街１７４巷８號","OBJECTID":358504},"geometry":{"x":165643.78000000119,"y":2562922.8900000006}},{"attributes":{"ID":358515,"DIS_CODE":0,"TOWNNAME":"安南區","LI":"安慶里","LIN":"25鄰","STREET":"安中路","SECT":"一段","MAREA":" ","LANE":"２０３巷","ALLEY":" ","HOUSE_NO":"２０號","E_COORD97":168719.62,"N_COORD97":2548425.2400000002,"ADDRESS":"安中路一段２０３巷２０號","OBJECTID":358505},"geometry":{"x":168719.62000000104,"y":2548425.2400000021}},{"attributes":{"ID":358516,"DIS_CODE":0,"TOWNNAME":"安南區","LI":"安慶里","LIN":"25鄰","STREET":"安中路","SECT":"一段","MAREA":" ","LANE":"２０３巷","ALLEY":" ","HOUSE_NO":"２１號","E_COORD97":168739.59,"N_COORD97":2548412.8799999999,"ADDRESS":"安中路一段２０３巷２１號","OBJECTID":358506},"geometry":{"x":168739.58999999985,"y":2548412.879999999}},{"attributes":{"ID":358517,"DIS_CODE":0,"TOWNNAME":"安南區","LI":"安慶里","LIN":"25鄰","STREET":"安中路","SECT":"一段","MAREA":" ","LANE":"２０３巷","ALLEY":" ","HOUSE_NO":"２２號","E_COORD97":168718.73999999999,"N_COORD97":2548419.1200000001,"ADDRESS":"安中路一段２０３巷２２號","OBJECTID":358507},"geometry":{"x":168718.74000000209,"y":2548419.1200000029}},{"attributes":{"ID":358518,"DIS_CODE":0,"TOWNNAME":"安南區","LI":"安慶里","LIN":"25鄰","STREET":"安中路","SECT":"一段","MAREA":" ","LANE":"２０３巷","ALLEY":" ","HOUSE_NO":"２３號","E_COORD97":168739.88,"N_COORD97":2548406.4700000002,"ADDRESS":"安中路一段２０３巷２３號","OBJECTID":358508},"geometry":{"x":168739.88000000082,"y":2548406.4700000025}},{"attributes":{"ID":358519,"DIS_CODE":0,"TOWNNAME":"安南區","LI":"安慶里","LIN":"25鄰","STREET":"安中路","SECT":"一段","MAREA":" ","LANE":"２０３巷","ALLEY":" ","HOUSE_NO":"２４號","E_COORD97":168718.45000000001,"N_COORD97":2548413.4500000002,"ADDRESS":"安中路一段２０３巷２４號","OBJECTID":358509},"geometry":{"x":168718.45000000019,"y":2548413.4499999993}},{"attributes":{"ID":358520,"DIS_CODE":0,"TOWNNAME":"安南區","LI":"安慶里","LIN":"25鄰","STREET":"安中路","SECT":"一段","MAREA":" ","LANE":"２０３巷","ALLEY":" ","HOUSE_NO":"２５號","E_COORD97":168738.13,"N_COORD97":2548401.23,"ADDRESS":"安中路一段２０３巷２５號","OBJECTID":358510},"geometry":{"x":168738.13000000082,"y":2548401.2300000023}},{"attributes":{"ID":358521,"DIS_CODE":0,"TOWNNAME":"安南區","LI":"安慶里","LIN":"25鄰","STREET":"安中路","SECT":"一段","MAREA":" ","LANE":"２０３巷","ALLEY":" ","HOUSE_NO":"２７號","E_COORD97":168737.84,"N_COORD97":2548395.1099999999,"ADDRESS":"安中路一段２０３巷２７號","OBJECTID":358511},"geometry":{"x":168737.83999999985,"y":2548395.1099999994}},{"attributes":{"ID":358522,"DIS_CODE":0,"TOWNNAME":"安南區","LI":"安慶里","LIN":"25鄰","STREET":"安中路","SECT":"一段","MAREA":" ","LANE":"２０３巷","ALLEY":" ","HOUSE_NO":"２８號","E_COORD97":168717.29000000001,"N_COORD97":2548401.0699999998,"ADDRESS":"安中路一段２０３巷２８號","OBJECTID":358512},"geometry":{"x":168717.29000000097,"y":2548401.070000004}},{"attributes":{"ID":358523,"DIS_CODE":0,"TOWNNAME":"安南區","LI":"安慶里","LIN":"25鄰","STREET":"安中路","SECT":"一段","MAREA":" ","LANE":"２０３巷","ALLEY":" ","HOUSE_NO":"２９號","E_COORD97":168737.54999999999,"N_COORD97":2548389.3700000001,"ADDRESS":"安中路一段２０３巷２９號","OBJECTID":358513},"geometry":{"x":168737.54999999981,"y":2548389.370000001}},{"attributes":{"ID":358524,"DIS_CODE":0,"TOWNNAME":"安南區","LI":"州北里","LIN":"30鄰","STREET":"安昌街","SECT":" ","MAREA":" ","LANE":"８５巷","ALLEY":" ","HOUSE_NO":"１３７號","E_COORD97":169912.44,"N_COORD97":2552513.9199999999,"ADDRESS":"安昌街８５巷１３７號","OBJECTID":358514},"geometry":{"x":169912.44000000041,"y":2552513.9199999999}},{"attributes":{"ID":358525,"DIS_CODE":0,"TOWNNAME":"中西區","LI":"三合里","LIN":"8鄰","STREET":"成功路","SECT":" ","MAREA":" ","LANE":" ","ALLEY":" ","HOUSE_NO":"４５７號十樓之７","E_COORD97":167602.39000000001,"N_COORD97":2544649.3900000001,"ADDRESS":"成功路４５７號十樓之７","OBJECTID":358515},"geometry":{"x":167602.3900000006,"y":2544649.3900000043}},{"attributes":{"ID":358526,"DIS_CODE":0,"TOWNNAME":"中西區","LI":"三合里","LIN":"8鄰","STREET":"成功路","SECT":" ","MAREA":" ","LANE":" ","ALLEY":" ","HOUSE_NO":"４５７號三樓","E_COORD97":167602.39000000001,"N_COORD97":2544649.3900000001,"ADDRESS":"成功路４５７號三樓","OBJECTID":358516},"geometry":{"x":167602.3900000006,"y":2544649.3900000043}},{"attributes":{"ID":358527,"DIS_CODE":0,"TOWNNAME":"中西區","LI":"三合里","LIN":"8鄰","STREET":"成功路","SECT":" ","MAREA":" ","LANE":" ","ALLEY":" ","HOUSE_NO":"４５７號五樓之１","E_COORD97":167602.39000000001,"N_COORD97":2544649.3900000001,"ADDRESS":"成功路４５７號五樓之１","OBJECTID":358517},"geometry":{"x":167602.3900000006,"y":2544649.3900000043}},{"attributes":{"ID":358528,"DIS_CODE":0,"TOWNNAME":"中西區","LI":"三合里","LIN":"8鄰","STREET":"成功路","SECT":" ","MAREA":" ","LANE":" ","ALLEY":" ","HOUSE_NO":"４５７號五樓之２","E_COORD97":167602.39000000001,"N_COORD97":2544649.3900000001,"ADDRESS":"成功路４５７號五樓之２","OBJECTID":358518},"geometry":{"x":167602.3900000006,"y":2544649.3900000043}},{"attributes":{"ID":358529,"DIS_CODE":0,"TOWNNAME":"中西區","LI":"三合里","LIN":"8鄰","STREET":"成功路","SECT":" ","MAREA":" ","LANE":" ","ALLEY":" ","HOUSE_NO":"４５７號五樓之３","E_COORD97":167602.39000000001,"N_COORD97":2544649.3900000001,"ADDRESS":"成功路４５７號五樓之３","OBJECTID":358519},"geometry":{"x":167602.3900000006,"y":2544649.3900000043}},{"attributes":{"ID":358530,"DIS_CODE":0,"TOWNNAME":"中西區","LI":"三合里","LIN":"8鄰","STREET":"成功路","SECT":" ","MAREA":" ","LANE":" ","ALLEY":" ","HOUSE_NO":"４５７號五樓之４","E_COORD97":167602.39000000001,"N_COORD97":2544649.3900000001,"ADDRESS":"成功路４５７號五樓之４","OBJECTID":358520},"geometry":{"x":167602.3900000006,"y":2544649.3900000043}},{"attributes":{"ID":358531,"DIS_CODE":0,"TOWNNAME":"中西區","LI":"三合里","LIN":"8鄰","STREET":"成功路","SECT":" ","MAREA":" ","LANE":" ","ALLEY":" ","HOUSE_NO":"４５７號五樓之５","E_COORD97":167602.39000000001,"N_COORD97":2544649.3900000001,"ADDRESS":"成功路４５７號五樓之５","OBJECTID":358521},"geometry":{"x":167602.3900000006,"y":2544649.3900000043}},{"attributes":{"ID":358532,"DIS_CODE":0,"TOWNNAME":"中西區","LI":"三合里","LIN":"8鄰","STREET":"成功路","SECT":" ","MAREA":" ","LANE":" ","ALLEY":" ","HOUSE_NO":"４５７號六樓","E_COORD97":167602.39000000001,"N_COORD97":2544649.3900000001,"ADDRESS":"成功路４５７號六樓","OBJECTID":358522},"geometry":{"x":167602.3900000006,"y":2544649.3900000043}},{"attributes":{"ID":358533,"DIS_CODE":0,"TOWNNAME":"中西區","LI":"三合里","LIN":"8鄰","STREET":"成功路","SECT":" ","MAREA":" ","LANE":" ","ALLEY":" ","HOUSE_NO":"４５７號四樓","E_COORD97":167602.39000000001,"N_COORD97":2544649.3900000001,"ADDRESS":"成功路４５７號四樓","OBJECTID":358523},"geometry":{"x":167602.3900000006,"y":2544649.3900000043}},{"attributes":{"ID":358534,"DIS_CODE":0,"TOWNNAME":"中西區","LI":"三合里","LIN":"8鄰","STREET":"成功路","SECT":" ","MAREA":" ","LANE":" ","ALLEY":" ","HOUSE_NO":"４５３號二樓之２","E_COORD97":167642.97,"N_COORD97":2544635.1600000001,"ADDRESS":"成功路４５３號二樓之２","OBJECTID":358524},"geometry":{"x":167642.96999999974,"y":2544635.160000002}},{"attributes":{"ID":358535,"DIS_CODE":0,"TOWNNAME":"中西區","LI":"三合里","LIN":"8鄰","STREET":"成功路","SECT":" ","MAREA":" ","LANE":" ","ALLEY":" ","HOUSE_NO":"４５３號二樓之３","E_COORD97":167642.97,"N_COORD97":2544635.1600000001,"ADDRESS":"成功路４５３號二樓之３","OBJECTID":358525},"geometry":{"x":167642.96999999974,"y":2544635.160000002}},{"attributes":{"ID":358536,"DIS_CODE":0,"TOWNNAME":"中西區","LI":"三合里","LIN":"8鄰","STREET":"成功路","SECT":" ","MAREA":" ","LANE":" ","ALLEY":" ","HOUSE_NO":"４５３號二樓之５","E_COORD97":167642.97,"N_COORD97":2544635.1600000001,"ADDRESS":"成功路４５３號二樓之５","OBJECTID":358526},"geometry":{"x":167642.96999999974,"y":2544635.160000002}},{"attributes":{"ID":358537,"DIS_CODE":0,"TOWNNAME":"中西區","LI":"三合里","LIN":"8鄰","STREET":"成功路","SECT":" ","MAREA":" ","LANE":" ","ALLEY":" ","HOUSE_NO":"４５３號二樓之６","E_COORD97":167642.97,"N_COORD97":2544635.1600000001,"ADDRESS":"成功路４５３號二樓之６","OBJECTID":358527},"geometry":{"x":167642.96999999974,"y":2544635.160000002}},{"attributes":{"ID":358538,"DIS_CODE":0,"TOWNNAME":"新市區","LI":"新和里","LIN":"8鄰","STREET":"仁愛街","SECT":" ","MAREA":" ","LANE":" ","ALLEY":" ","HOUSE_NO":"１１７號","E_COORD97":177548.75,"N_COORD97":2552571.0299999998,"ADDRESS":"仁愛街１１７號","OBJECTID":358528},"geometry":{"x":177548.75000000186,"y":2552571.0300000012}},{"attributes":{"ID":358539,"DIS_CODE":0,"TOWNNAME":"安南區","LI":"州北里","LIN":"30鄰","STREET":"安昌街","SECT":" ","MAREA":" ","LANE":"８５巷","ALLEY":" ","HOUSE_NO":"１３９號","E_COORD97":169912.48000000001,"N_COORD97":2552518.3399999999,"ADDRESS":"安昌街８５巷１３９號","OBJECTID":358529},"geometry":{"x":169912.48000000231,"y":2552518.3400000036}},{"attributes":{"ID":358540,"DIS_CODE":0,"TOWNNAME":"安南區","LI":"州北里","LIN":"30鄰","STREET":"安昌街","SECT":" ","MAREA":" ","LANE":"８５巷","ALLEY":" ","HOUSE_NO":"１４１號","E_COORD97":169912.51999999999,"N_COORD97":2552522.7599999998,"ADDRESS":"安昌街８５巷１４１號","OBJECTID":358530},"geometry":{"x":169912.51999999955,"y":2552522.7600000016}},{"attributes":{"ID":358541,"DIS_CODE":0,"TOWNNAME":"安南區","LI":"州北里","LIN":"30鄰","STREET":"安昌街","SECT":" ","MAREA":" ","LANE":"８５巷","ALLEY":" ","HOUSE_NO":"１４３號","E_COORD97":169912.57000000001,"N_COORD97":2552527.1800000002,"ADDRESS":"安昌街８５巷１４３號","OBJECTID":358531},"geometry":{"x":169912.57000000123,"y":2552527.1800000016}},{"attributes":{"ID":358542,"DIS_CODE":0,"TOWNNAME":"安南區","LI":"州北里","LIN":"30鄰","STREET":"安昌街","SECT":" ","MAREA":" ","LANE":"８５巷","ALLEY":" ","HOUSE_NO":"１４５號","E_COORD97":169912.60999999999,"N_COORD97":2552531.6000000001,"ADDRESS":"安昌街８５巷１４５號","OBJECTID":358532},"geometry":{"x":169912.61000000034,"y":2552531.5999999996}},{"attributes":{"ID":358543,"DIS_CODE":0,"TOWNNAME":"安南區","LI":"州北里","LIN":"30鄰","STREET":"安昌街","SECT":" ","MAREA":" ","LANE":"８５巷","ALLEY":" ","HOUSE_NO":"１４７號","E_COORD97":169912.64999999999,"N_COORD97":2552536.02,"ADDRESS":"安昌街８５巷１４７號","OBJECTID":358533},"geometry":{"x":169912.65000000037,"y":2552536.0199999996}},{"attributes":{"ID":358544,"DIS_CODE":0,"TOWNNAME":"安南區","LI":"州北里","LIN":"30鄰","STREET":"安昌街","SECT":" ","MAREA":" ","LANE":"８５巷","ALLEY":" ","HOUSE_NO":"１４９號","E_COORD97":169912.69,"N_COORD97":2552540.4399999999,"ADDRESS":"安昌街８５巷１４９號","OBJECTID":358534},"geometry":{"x":169912.69000000227,"y":2552540.4399999995}},{"attributes":{"ID":358545,"DIS_CODE":0,"TOWNNAME":"安南區","LI":"州北里","LIN":"30鄰","STREET":"安昌街","SECT":" ","MAREA":" ","LANE":"８５巷","ALLEY":" ","HOUSE_NO":"１４９之１號","E_COORD97":169912.73000000001,"N_COORD97":2552544.8599999999,"ADDRESS":"安昌街８５巷１４９之１號","OBJECTID":358535},"geometry":{"x":169912.73000000138,"y":2552544.8600000031}},{"attributes":{"ID":358546,"DIS_CODE":0,"TOWNNAME":"安南區","LI":"州北里","LIN":"30鄰","STREET":"安昌街","SECT":" ","MAREA":" ","LANE":"８５巷","ALLEY":" ","HOUSE_NO":"１４９之２號","E_COORD97":169912.76999999999,"N_COORD97":2552549.2799999998,"ADDRESS":"安昌街８５巷１４９之２號","OBJECTID":358536},"geometry":{"x":169912.76999999955,"y":2552549.2800000012}},{"attributes":{"ID":358547,"DIS_CODE":0,"TOWNNAME":"永康區","LI":"正強里","LIN":"30鄰","STREET":"正強街","SECT":" ","MAREA":" ","LANE":"２１５巷","ALLEY":" ","HOUSE_NO":"４５號","E_COORD97":173150.44,"N_COORD97":2547678,"ADDRESS":"正強街２１５巷４５號","OBJECTID":358537},"geometry":{"x":173150.43999999948,"y":2547678}},{"attributes":{"ID":358548,"DIS_CODE":0,"TOWNNAME":"永康區","LI":"\u25A0行里","LIN":"30鄰","STREET":"中正北路","SECT":" ","MAREA":" ","LANE":"３１８巷","ALLEY":" ","HOUSE_NO":"２９號","E_COORD97":173114.29999999999,"N_COORD97":2548816.5,"ADDRESS":"中正北路３１８巷２９號","OBJECTID":358538},"geometry":{"x":173114.30000000075,"y":2548816.5000000019}},{"attributes":{"ID":358549,"DIS_CODE":0,"TOWNNAME":"永康區","LI":"正強里","LIN":"30鄰","STREET":"正強街","SECT":" ","MAREA":" ","LANE":"２１５巷","ALLEY":" ","HOUSE_NO":"４１號","E_COORD97":173160,"N_COORD97":2547679.25,"ADDRESS":"正強街２１５巷４１號","OBJECTID":358539},"geometry":{"x":173160.00000000186,"y":2547679.25}},{"attributes":{"ID":358550,"DIS_CODE":0,"TOWNNAME":"永康區","LI":"正強里","LIN":"30鄰","STREET":"中正路","SECT":" ","MAREA":" ","LANE":"２０９巷","ALLEY":" ","HOUSE_NO":"８５號","E_COORD97":173147.12,"N_COORD97":2547656.25,"ADDRESS":"中正路２０９巷８５號","OBJECTID":358540},"geometry":{"x":173147.12000000011,"y":2547656.25}},{"attributes":{"ID":358551,"DIS_CODE":0,"TOWNNAME":"玉井區","LI":"豐里里","LIN":"1鄰","STREET":" ","SECT":" ","MAREA":"豐里","LANE":" ","ALLEY":" ","HOUSE_NO":"１號","E_COORD97":193296.01000000001,"N_COORD97":2557935.25,"ADDRESS":"豐里１號","OBJECTID":358541},"geometry":{"x":193296.00999999978,"y":2557935.25}},{"attributes":{"ID":358552,"DIS_CODE":0,"TOWNNAME":"永康區","LI":"正強里","LIN":"30鄰","STREET":"中正路","SECT":" ","MAREA":" ","LANE":"２０９巷","ALLEY":" ","HOUSE_NO":"８３號","E_COORD97":173146.29999999999,"N_COORD97":2547661,"ADDRESS":"中正路２０９巷８３號","OBJECTID":358542},"geometry":{"x":173146.30000000075,"y":2547661}},{"attributes":{"ID":358553,"DIS_CODE":0,"TOWNNAME":"永康區","LI":"正強里","LIN":"30鄰","STREET":"中正路","SECT":" ","MAREA":" ","LANE":"２０９巷","ALLEY":" ","HOUSE_NO":"１２８號","E_COORD97":173128.29000000001,"N_COORD97":2547660,"ADDRESS":"中正路２０９巷１２８號","OBJECTID":358543},"geometry":{"x":173128.29000000004,"y":2547660.0000000019}},{"attributes":{"ID":358554,"DIS_CODE":0,"TOWNNAME":"永康區","LI":"正強里","LIN":"30鄰","STREET":"中正路","SECT":" ","MAREA":" ","LANE":"２０９巷","ALLEY":" ","HOUSE_NO":"１２２號","E_COORD97":173129.47,"N_COORD97":2547669,"ADDRESS":"中正路２０９巷１２２號","OBJECTID":358544},"geometry":{"x":173129.47000000067,"y":2547669.0000000037}},{"attributes":{"ID":358555,"DIS_CODE":0,"TOWNNAME":"永康區","LI":"正強里","LIN":"30鄰","STREET":"中正路","SECT":" ","MAREA":" ","LANE":"２０９巷","ALLEY":" ","HOUSE_NO":"１３２號","E_COORD97":173129.59,"N_COORD97":2547652,"ADDRESS":"中正路２０９巷１３２號","OBJECTID":358545},"geometry":{"x":173129.58999999985,"y":2547652.0000000037}},{"attributes":{"ID":358556,"DIS_CODE":0,"TOWNNAME":"安南區","LI":"安富里","LIN":"30鄰","STREET":"府安路","SECT":"五段","MAREA":" ","LANE":"２１８巷","ALLEY":" ","HOUSE_NO":"４９號","E_COORD97":167507.67000000001,"N_COORD97":2547091.1000000001,"ADDRESS":"府安路五段２１８巷４９號","OBJECTID":358546},"geometry":{"x":167507.67000000086,"y":2547091.0999999996}},{"attributes":{"ID":358557,"DIS_CODE":0,"TOWNNAME":"安南區","LI":"安富里","LIN":"30鄰","STREET":"府安路","SECT":"五段","MAREA":" ","LANE":"２１８巷","ALLEY":" ","HOUSE_NO":"５７號","E_COORD97":167500.63,"N_COORD97":2547125.1400000001,"ADDRESS":"府安路五段２１８巷５７號","OBJECTID":358547},"geometry":{"x":167500.63000000082,"y":2547125.1400000006}},{"attributes":{"ID":358558,"DIS_CODE":0,"TOWNNAME":"安南區","LI":"安富里","LIN":"30鄰","STREET":"府安路","SECT":"五段","MAREA":" ","LANE":"２１８巷","ALLEY":" ","HOUSE_NO":"６９號","E_COORD97":167492,"N_COORD97":2547175.29,"ADDRESS":"府安路五段２１８巷６９號","OBJECTID":358548},"geometry":{"x":167492,"y":2547175.290000001}},{"attributes":{"ID":358559,"DIS_CODE":0,"TOWNNAME":"永康區","LI":"龍潭里","LIN":"30鄰","STREET":"龍昌街","SECT":" ","MAREA":" ","LANE":"８４巷","ALLEY":" ","HOUSE_NO":"２號","E_COORD97":175028.45999999999,"N_COORD97":2547948.0699999998,"ADDRESS":"龍昌街８４巷２號","OBJECTID":358549},"geometry":{"x":175028.46000000089,"y":2547948.0700000022}},{"attributes":{"ID":358560,"DIS_CODE":0,"TOWNNAME":"永康區","LI":"北灣里","LIN":"30鄰","STREET":"大灣六街","SECT":" ","MAREA":" ","LANE":"８０巷","ALLEY":" ","HOUSE_NO":"７９號","E_COORD97":175338.31,"N_COORD97":2545335.5299999998,"ADDRESS":"大灣六街８０巷７９號","OBJECTID":358550},"geometry":{"x":175338.30999999959,"y":2545335.5300000031}},{"attributes":{"ID":358561,"DIS_CODE":0,"TOWNNAME":"永康區","LI":"北灣里","LIN":"30鄰","STREET":"大同街","SECT":" ","MAREA":" ","LANE":"３３巷","ALLEY":" ","HOUSE_NO":"９號","E_COORD97":175262.73000000001,"N_COORD97":2545370.5,"ADDRESS":"大同街３３巷９號","OBJECTID":358551},"geometry":{"x":175262.73000000138,"y":2545370.5000000037}},{"attributes":{"ID":358562,"DIS_CODE":0,"TOWNNAME":"東區","LI":"富強里","LIN":"30鄰","STREET":"裕農路","SECT":" ","MAREA":" ","LANE":"２８８巷","ALLEY":" ","HOUSE_NO":"１１號","E_COORD97":170932.47,"N_COORD97":2542959.4100000001,"ADDRESS":"裕農路２８８巷１１號","OBJECTID":358552},"geometry":{"x":170932.47000000067,"y":2542959.4100000001}},{"attributes":{"ID":358563,"DIS_CODE":0,"TOWNNAME":"東區","LI":"富強里","LIN":"30鄰","STREET":"裕農路","SECT":" ","MAREA":" ","LANE":"２８８巷","ALLEY":" ","HOUSE_NO":"１３號","E_COORD97":170954.16,"N_COORD97":2542958.04,"ADDRESS":"裕農路２８８巷１３號","OBJECTID":358553},"geometry":{"x":170954.16000000108,"y":2542958.0399999991}},{"attributes":{"ID":358564,"DIS_CODE":0,"TOWNNAME":"東區","LI":"富強里","LIN":"30鄰","STREET":"裕農路","SECT":" ","MAREA":" ","LANE":"２８８巷","ALLEY":" ","HOUSE_NO":"１５號","E_COORD97":170966.29999999999,"N_COORD97":2542958.7999999998,"ADDRESS":"裕農路２８８巷１５號","OBJECTID":358554},"geometry":{"x":170966.30000000075,"y":2542958.8000000026}},{"attributes":{"ID":358565,"DIS_CODE":0,"TOWNNAME":"東區","LI":"富強里","LIN":"30鄰","STREET":"裕農路","SECT":" ","MAREA":" ","LANE":"２８８巷","ALLEY":" ","HOUSE_NO":"１７號","E_COORD97":170962.04999999999,"N_COORD97":2542975.3199999998,"ADDRESS":"裕農路２８８巷１７號","OBJECTID":358555},"geometry":{"x":170962.04999999981,"y":2542975.3200000022}},{"attributes":{"ID":358566,"DIS_CODE":0,"TOWNNAME":"東區","LI":"富強里","LIN":"30鄰","STREET":"裕農路","SECT":" ","MAREA":" ","LANE":"２８８巷","ALLEY":" ","HOUSE_NO":"１７號地下貳層","E_COORD97":170962.04999999999,"N_COORD97":2542975.3199999998,"ADDRESS":"裕農路２８８巷１７號地下貳層","OBJECTID":358556},"geometry":{"x":170962.04999999981,"y":2542975.3200000022}},{"attributes":{"ID":358567,"DIS_CODE":0,"TOWNNAME":"永康區","LI":"\u25A0行里","LIN":"30鄰","STREET":"中正北路","SECT":" ","MAREA":" ","LANE":"３１８巷","ALLEY":" ","HOUSE_NO":"６６號","E_COORD97":173105.82999999999,"N_COORD97":2548694,"ADDRESS":"中正北路３１８巷６６號","OBJECTID":358557},"geometry":{"x":173105.83000000101,"y":2548694.0000000019}},{"attributes":{"ID":358568,"DIS_CODE":0,"TOWNNAME":"永康區","LI":"\u25A0行里","LIN":"30鄰","STREET":"中正北路","SECT":" ","MAREA":" ","LANE":"３１８巷","ALLEY":" ","HOUSE_NO":"３號","E_COORD97":173111.67999999999,"N_COORD97":2549063.7400000002,"ADDRESS":"中正北路３１８巷３號","OBJECTID":358558},"geometry":{"x":173111.68000000063,"y":2549063.7400000002}},{"attributes":{"ID":358569,"DIS_CODE":0,"TOWNNAME":"永康區","LI":"\u25A0行里","LIN":"30鄰","STREET":"新行街","SECT":" ","MAREA":" ","LANE":"１２２巷","ALLEY":" ","HOUSE_NO":"１９號","E_COORD97":172418.79000000001,"N_COORD97":2549048.2400000002,"ADDRESS":"新行街１２２巷１９號","OBJECTID":358559},"geometry":{"x":172418.7900000019,"y":2549048.2400000021}},{"attributes":{"ID":358570,"DIS_CODE":0,"TOWNNAME":"永康區","LI":"永康里","LIN":"30鄰","STREET":"永華路","SECT":" ","MAREA":" ","LANE":"７０２巷","ALLEY":" ","HOUSE_NO":"４９號","E_COORD97":174176.39999999999,"N_COORD97":2547051.1099999999,"ADDRESS":"永華路７０２巷４９號","OBJECTID":358560},"geometry":{"x":174176.40000000224,"y":2547051.1100000013}},{"attributes":{"ID":358571,"DIS_CODE":0,"TOWNNAME":"南區","LI":"開南里","LIN":"30鄰","STREET":"新建路","SECT":" ","MAREA":" ","LANE":"５７巷","ALLEY":" ","HOUSE_NO":"７號","E_COORD97":166512.10999999999,"N_COORD97":2540669.6200000001,"ADDRESS":"新建路５７巷７號","OBJECTID":358561},"geometry":{"x":166512.11000000034,"y":2540669.6200000029}},{"attributes":{"ID":358572,"DIS_CODE":0,"TOWNNAME":"南區","LI":"開南里","LIN":"30鄰","STREET":"新建路","SECT":" ","MAREA":" ","LANE":"５７巷","ALLEY":" ","HOUSE_NO":"８號","E_COORD97":166508.34,"N_COORD97":2540643.4399999999,"ADDRESS":"新建路５７巷８號","OBJECTID":358562},"geometry":{"x":166508.33999999985,"y":2540643.4399999995}},{"attributes":{"ID":358573,"DIS_CODE":0,"TOWNNAME":"南區","LI":"開南里","LIN":"30鄰","STREET":"新建路","SECT":" ","MAREA":" ","LANE":"５７巷","ALLEY":" ","HOUSE_NO":"９號","E_COORD97":166547.10999999999,"N_COORD97":2540669.7599999998,"ADDRESS":"新建路５７巷９號","OBJECTID":358563},"geometry":{"x":166547.11000000127,"y":2540669.7600000016}},{"attributes":{"ID":358574,"DIS_CODE":0,"TOWNNAME":"歸仁區","LI":"六甲里","LIN":"25鄰","STREET":"中正南路","SECT":"一段","MAREA":" ","LANE":"９３０巷","ALLEY":" ","HOUSE_NO":"１０號","E_COORD97":176205.85999999999,"N_COORD97":2539430.48,"ADDRESS":"中正南路一段９３０巷１０號","OBJECTID":358564},"geometry":{"x":176205.8600000022,"y":2539430.4800000004}},{"attributes":{"ID":358575,"DIS_CODE":0,"TOWNNAME":"歸仁區","LI":"六甲里","LIN":"25鄰","STREET":"中正南路","SECT":"一段","MAREA":" ","LANE":"９３０巷","ALLEY":" ","HOUSE_NO":"１２號","E_COORD97":176201.76000000001,"N_COORD97":2539431.48,"ADDRESS":"中正南路一段９３０巷１２號","OBJECTID":358565},"geometry":{"x":176201.75999999978,"y":2539431.4800000023}},{"attributes":{"ID":358576,"DIS_CODE":0,"TOWNNAME":"南區","LI":"田寮里","LIN":"25鄰","STREET":"大成路","SECT":"二段","MAREA":" ","LANE":"５６巷","ALLEY":" ","HOUSE_NO":"１３號","E_COORD97":167553.67000000001,"N_COORD97":2541796.04,"ADDRESS":"大成路二段５６巷１３號","OBJECTID":358566},"geometry":{"x":167553.66999999993,"y":2541796.040000001}},{"attributes":{"ID":358577,"DIS_CODE":0,"TOWNNAME":"六甲區","LI":"六甲里","LIN":"25鄰","STREET":"信義街","SECT":" ","MAREA":" ","LANE":"２３８巷","ALLEY":" ","HOUSE_NO":"３號","E_COORD97":183375.82999999999,"N_COORD97":2569799.7200000002,"ADDRESS":"信義街２３８巷３號","OBJECTID":358567},"geometry":{"x":183375.83000000007,"y":2569799.7200000007}},{"attributes":{"ID":358578,"DIS_CODE":0,"TOWNNAME":"南區","LI":"田寮里","LIN":"25鄰","STREET":"大成路","SECT":"二段","MAREA":" ","LANE":"５６巷","ALLEY":" ","HOUSE_NO":"１５號","E_COORD97":167553.85000000001,"N_COORD97":2541799.4300000002,"ADDRESS":"大成路二段５６巷１５號","OBJECTID":358568},"geometry":{"x":167553.84999999963,"y":2541799.4299999997}},{"attributes":{"ID":358579,"DIS_CODE":0,"TOWNNAME":"南區","LI":"田寮里","LIN":"25鄰","STREET":"大成路","SECT":"二段","MAREA":" ","LANE":"５６巷","ALLEY":" ","HOUSE_NO":"１７號","E_COORD97":167553.31,"N_COORD97":2541803.5499999998,"ADDRESS":"大成路二段５６巷１７號","OBJECTID":358569},"geometry":{"x":167553.31000000052,"y":2541803.5500000007}},{"attributes":{"ID":358580,"DIS_CODE":0,"TOWNNAME":"南區","LI":"田寮里","LIN":"25鄰","STREET":"大成路","SECT":"二段","MAREA":" ","LANE":"５６巷","ALLEY":" ","HOUSE_NO":"１９號","E_COORD97":167553.14000000001,"N_COORD97":2541807.2999999998,"ADDRESS":"大成路二段５６巷１９號","OBJECTID":358570},"geometry":{"x":167553.1400000006,"y":2541807.3000000026}},{"attributes":{"ID":358581,"DIS_CODE":0,"TOWNNAME":"南區","LI":"田寮里","LIN":"25鄰","STREET":"大成路","SECT":"二段","MAREA":" ","LANE":"５６巷","ALLEY":" ","HOUSE_NO":"５號","E_COORD97":167554.47,"N_COORD97":2541776.3199999998,"ADDRESS":"大成路二段５６巷５號","OBJECTID":358571},"geometry":{"x":167554.47000000067,"y":2541776.3200000003}},{"attributes":{"ID":358582,"DIS_CODE":0,"TOWNNAME":"南區","LI":"田寮里","LIN":"25鄰","STREET":"大成路","SECT":"二段","MAREA":" ","LANE":"５６巷","ALLEY":" ","HOUSE_NO":"７號","E_COORD97":167553.39000000001,"N_COORD97":2541780.4300000002,"ADDRESS":"大成路二段５６巷７號","OBJECTID":358572},"geometry":{"x":167553.3900000006,"y":2541780.4300000016}},{"attributes":{"ID":358583,"DIS_CODE":0,"TOWNNAME":"南區","LI":"田寮里","LIN":"25鄰","STREET":"大成路","SECT":"二段","MAREA":" ","LANE":"５６巷","ALLEY":" ","HOUSE_NO":"９號","E_COORD97":167554.10999999999,"N_COORD97":2541785.0800000001,"ADDRESS":"大成路二段５６巷９號","OBJECTID":358573},"geometry":{"x":167554.11000000127,"y":2541785.0800000001}},{"attributes":{"ID":358584,"DIS_CODE":0,"TOWNNAME":"玉井區","LI":"玉田里","LIN":"30鄰","STREET":"仁愛街","SECT":" ","MAREA":" ","LANE":"３５巷","ALLEY":" ","HOUSE_NO":"５號","E_COORD97":195443.14000000001,"N_COORD97":2557655.27,"ADDRESS":"仁愛街３５巷５號","OBJECTID":358574},"geometry":{"x":195443.13999999966,"y":2557655.2700000014}},{"attributes":{"ID":358585,"DIS_CODE":0,"TOWNNAME":"玉井區","LI":"玉田里","LIN":"30鄰","STREET":"中華路","SECT":" ","MAREA":" ","LANE":"３８１巷","ALLEY":" ","HOUSE_NO":"３號","E_COORD97":195485.95999999999,"N_COORD97":2557602.25,"ADDRESS":"中華路３８１巷３號","OBJECTID":358575},"geometry":{"x":195485.96000000089,"y":2557602.2500000019}},{"attributes":{"ID":358586,"DIS_CODE":0,"TOWNNAME":"中西區","LI":"三合里","LIN":"8鄰","STREET":"成功路","SECT":" ","MAREA":" ","LANE":" ","ALLEY":" ","HOUSE_NO":"４５３號二樓之７","E_COORD97":167642.97,"N_COORD97":2544635.1600000001,"ADDRESS":"成功路４５３號二樓之７","OBJECTID":358576},"geometry":{"x":167642.96999999974,"y":2544635.160000002}},{"attributes":{"ID":358587,"DIS_CODE":0,"TOWNNAME":"中西區","LI":"三合里","LIN":"8鄰","STREET":"成功路","SECT":" ","MAREA":" ","LANE":" ","ALLEY":" ","HOUSE_NO":"４５３號二樓之８","E_COORD97":167642.97,"N_COORD97":2544635.1600000001,"ADDRESS":"成功路４５３號二樓之８","OBJECTID":358577},"geometry":{"x":167642.96999999974,"y":2544635.160000002}},{"attributes":{"ID":358588,"DIS_CODE":0,"TOWNNAME":"中西區","LI":"三合里","LIN":"8鄰","STREET":"成功路","SECT":" ","MAREA":" ","LANE":" ","ALLEY":" ","HOUSE_NO":"４５３號二樓之９","E_COORD97":167642.97,"N_COORD97":2544635.1600000001,"ADDRESS":"成功路４５３號二樓之９","OBJECTID":358578},"geometry":{"x":167642.96999999974,"y":2544635.160000002}},{"attributes":{"ID":358589,"DIS_CODE":0,"TOWNNAME":"中西區","LI":"三合里","LIN":"8鄰","STREET":"成功路","SECT":" ","MAREA":" ","LANE":" ","ALLEY":" ","HOUSE_NO":"４５３號三樓之１","E_COORD97":167642.97,"N_COORD97":2544635.1600000001,"ADDRESS":"成功路４５３號三樓之１","OBJECTID":358579},"geometry":{"x":167642.96999999974,"y":2544635.160000002}},{"attributes":{"ID":358590,"DIS_CODE":0,"TOWNNAME":"中西區","LI":"三合里","LIN":"8鄰","STREET":"成功路","SECT":" ","MAREA":" ","LANE":" ","ALLEY":" ","HOUSE_NO":"４５３號三樓之２","E_COORD97":167642.97,"N_COORD97":2544635.1600000001,"ADDRESS":"成功路４５３號三樓之２","OBJECTID":358580},"geometry":{"x":167642.96999999974,"y":2544635.160000002}},{"attributes":{"ID":358591,"DIS_CODE":0,"TOWNNAME":"中西區","LI":"三合里","LIN":"8鄰","STREET":"成功路","SECT":" ","MAREA":" ","LANE":" ","ALLEY":" ","HOUSE_NO":"４５３號三樓之３","E_COORD97":167642.97,"N_COORD97":2544635.1600000001,"ADDRESS":"成功路４５３號三樓之３","OBJECTID":358581},"geometry":{"x":167642.96999999974,"y":2544635.160000002}},{"attributes":{"ID":358592,"DIS_CODE":0,"TOWNNAME":"中西區","LI":"三合里","LIN":"8鄰","STREET":"成功路","SECT":" ","MAREA":" ","LANE":" ","ALLEY":" ","HOUSE_NO":"４５３號三樓之５","E_COORD97":167642.97,"N_COORD97":2544635.1600000001,"ADDRESS":"成功路４５３號三樓之５","OBJECTID":358582},"geometry":{"x":167642.96999999974,"y":2544635.160000002}},{"attributes":{"ID":358593,"DIS_CODE":0,"TOWNNAME":"中西區","LI":"三合里","LIN":"8鄰","STREET":"成功路","SECT":" ","MAREA":" ","LANE":" ","ALLEY":" ","HOUSE_NO":"４５３號三樓之６","E_COORD97":167642.97,"N_COORD97":2544635.1600000001,"ADDRESS":"成功路４５３號三樓之６","OBJECTID":358583},"geometry":{"x":167642.96999999974,"y":2544635.160000002}},{"attributes":{"ID":358594,"DIS_CODE":0,"TOWNNAME":"玉井區","LI":"玉田里","LIN":"25鄰","STREET":"信義街","SECT":" ","MAREA":" ","LANE":"２２巷","ALLEY":" ","HOUSE_NO":"１９號","E_COORD97":195184.87,"N_COORD97":2557598.27,"ADDRESS":"信義街２２巷１９號","OBJECTID":358584},"geometry":{"x":195184.87000000197,"y":2557598.2700000014}},{"attributes":{"ID":358595,"DIS_CODE":0,"TOWNNAME":"北區","LI":"和順里","LIN":"30鄰","STREET":"臨安路","SECT":"二段","MAREA":" ","LANE":"１９５巷","ALLEY":" ","HOUSE_NO":"１０號","E_COORD97":167919.23999999999,"N_COORD97":2544965.2799999998,"ADDRESS":"臨安路二段１９５巷１０號","OBJECTID":358585},"geometry":{"x":167919.24000000115,"y":2544965.2800000012}},{"attributes":{"ID":358596,"DIS_CODE":0,"TOWNNAME":"北區","LI":"和順里","LIN":"30鄰","STREET":"臨安路","SECT":"二段","MAREA":" ","LANE":"１９５巷","ALLEY":" ","HOUSE_NO":"１１號","E_COORD97":167892.16,"N_COORD97":2544969.4100000001,"ADDRESS":"臨安路二段１９５巷１１號","OBJECTID":358586},"geometry":{"x":167892.16000000108,"y":2544969.4100000001}},{"attributes":{"ID":358597,"DIS_CODE":0,"TOWNNAME":"北區","LI":"和順里","LIN":"30鄰","STREET":"臨安路","SECT":"二段","MAREA":" ","LANE":"１９５巷","ALLEY":" ","HOUSE_NO":"１３號","E_COORD97":167892.32999999999,"N_COORD97":2544973.8700000001,"ADDRESS":"臨安路二段１９５巷１３號","OBJECTID":358587},"geometry":{"x":167892.32999999914,"y":2544973.870000001}},{"attributes":{"ID":358598,"DIS_CODE":0,"TOWNNAME":"北區","LI":"和順里","LIN":"30鄰","STREET":"臨安路","SECT":"二段","MAREA":" ","LANE":"１９５巷","ALLEY":" ","HOUSE_NO":"１４號","E_COORD97":167919.06,"N_COORD97":2544973.5600000001,"ADDRESS":"臨安路二段１９５巷１４號","OBJECTID":358588},"geometry":{"x":167919.05999999866,"y":2544973.5599999987}},{"attributes":{"ID":358599,"DIS_CODE":0,"TOWNNAME":"北區","LI":"和順里","LIN":"30鄰","STREET":"臨安路","SECT":"二段","MAREA":" ","LANE":"１９５巷","ALLEY":" ","HOUSE_NO":"１５號","E_COORD97":167892.32999999999,"N_COORD97":2544978.6800000002,"ADDRESS":"臨安路二段１９５巷１５號","OBJECTID":358589},"geometry":{"x":167892.32999999914,"y":2544978.6800000034}},{"attributes":{"ID":358600,"DIS_CODE":0,"TOWNNAME":"北區","LI":"和順里","LIN":"30鄰","STREET":"臨安路","SECT":"二段","MAREA":" ","LANE":"１９５巷","ALLEY":" ","HOUSE_NO":"１６號","E_COORD97":167919.41,"N_COORD97":2544977.8700000001,"ADDRESS":"臨安路二段１９５巷１６號","OBJECTID":358590},"geometry":{"x":167919.41000000108,"y":2544977.870000001}},{"attributes":{"ID":358601,"DIS_CODE":0,"TOWNNAME":"北區","LI":"和順里","LIN":"30鄰","STREET":"臨安路","SECT":"二段","MAREA":" ","LANE":"１９５巷","ALLEY":" ","HOUSE_NO":"１７號","E_COORD97":167892.5,"N_COORD97":2544982.7999999998,"ADDRESS":"臨安路二段１９５巷１７號","OBJECTID":358591},"geometry":{"x":167892.5,"y":2544982.8000000026}},{"attributes":{"ID":358602,"DIS_CODE":0,"TOWNNAME":"北區","LI":"和順里","LIN":"30鄰","STREET":"臨安路","SECT":"二段","MAREA":" ","LANE":"１９５巷","ALLEY":" ","HOUSE_NO":"１８號","E_COORD97":167918.89000000001,"N_COORD97":2544982.7000000002,"ADDRESS":"臨安路二段１９５巷１８號","OBJECTID":358592},"geometry":{"x":167918.8900000006,"y":2544982.7000000011}},{"attributes":{"ID":358603,"DIS_CODE":0,"TOWNNAME":"北區","LI":"和順里","LIN":"30鄰","STREET":"臨安路","SECT":"二段","MAREA":" ","LANE":"１９５巷","ALLEY":" ","HOUSE_NO":"１９號","E_COORD97":167892.5,"N_COORD97":2544987.0899999999,"ADDRESS":"臨安路二段１９５巷１９號","OBJECTID":358593},"geometry":{"x":167892.5,"y":2544987.0900000017}},{"attributes":{"ID":358604,"DIS_CODE":0,"TOWNNAME":"北區","LI":"和順里","LIN":"30鄰","STREET":"臨安路","SECT":"二段","MAREA":" ","LANE":"１９５巷","ALLEY":" ","HOUSE_NO":"１號","E_COORD97":167896.45000000001,"N_COORD97":2544930.1400000001,"ADDRESS":"臨安路二段１９５巷１號","OBJECTID":358594},"geometry":{"x":167896.45000000019,"y":2544930.1400000025}},{"attributes":{"ID":358605,"DIS_CODE":0,"TOWNNAME":"北區","LI":"和順里","LIN":"30鄰","STREET":"臨安路","SECT":"二段","MAREA":" ","LANE":"１９５巷","ALLEY":" ","HOUSE_NO":"２０號","E_COORD97":167918.72,"N_COORD97":2544986.4900000002,"ADDRESS":"臨安路二段１９５巷２０號","OBJECTID":358595},"geometry":{"x":167918.72000000067,"y":2544986.4900000002}},{"attributes":{"ID":358606,"DIS_CODE":0,"TOWNNAME":"北區","LI":"和順里","LIN":"30鄰","STREET":"臨安路","SECT":"二段","MAREA":" ","LANE":"１９５巷","ALLEY":" ","HOUSE_NO":"２號","E_COORD97":167918.89000000001,"N_COORD97":2544948.2000000002,"ADDRESS":"臨安路二段１９５巷２號","OBJECTID":358596},"geometry":{"x":167918.8900000006,"y":2544948.2000000011}},{"attributes":{"ID":358607,"DIS_CODE":0,"TOWNNAME":"北區","LI":"和順里","LIN":"30鄰","STREET":"海安路","SECT":"三段","MAREA":" ","LANE":"１３５巷","ALLEY":" ","HOUSE_NO":"３５號","E_COORD97":167870.42999999999,"N_COORD97":2545000.29,"ADDRESS":"海安路三段１３５巷３５號","OBJECTID":358597},"geometry":{"x":167870.4299999997,"y":2545000.2899999991}},{"attributes":{"ID":358608,"DIS_CODE":0,"TOWNNAME":"北區","LI":"和順里","LIN":"30鄰","STREET":"海安路","SECT":"三段","MAREA":" ","LANE":"１３５巷","ALLEY":" ","HOUSE_NO":"３７號","E_COORD97":167865.64999999999,"N_COORD97":2545000.1299999999,"ADDRESS":"海安路三段１３５巷３７號","OBJECTID":358598},"geometry":{"x":167865.6500000013,"y":2545000.1300000008}},{"attributes":{"ID":358609,"DIS_CODE":0,"TOWNNAME":"六甲區","LI":"六甲里","LIN":"25鄰","STREET":"信義街","SECT":" ","MAREA":" ","LANE":"２３８巷","ALLEY":" ","HOUSE_NO":"４號","E_COORD97":183369.20999999999,"N_COORD97":2569783.75,"ADDRESS":"信義街２３８巷４號","OBJECTID":358599},"geometry":{"x":183369.21000000089,"y":2569783.7500000019}},{"attributes":{"ID":358610,"DIS_CODE":0,"TOWNNAME":"北區","LI":"和順里","LIN":"30鄰","STREET":"海安路","SECT":"三段","MAREA":" ","LANE":"１３５巷","ALLEY":" ","HOUSE_NO":"３９號","E_COORD97":167860.88,"N_COORD97":2544999.9700000002,"ADDRESS":"海安路三段１３５巷３９號","OBJECTID":358600},"geometry":{"x":167860.87999999989,"y":2544999.9700000007}}]}