{"displayFieldName":"TOWNNAME","fieldAliases":{"ID":"ID","DIS_CODE":"DIS_CODE","TOWNNAME":"TOWNNAME","LI":"LI","LIN":"LIN","STREET":"STREET","SECT":"SECT","MAREA":"MAREA","LANE":"LANE","ALLEY":"ALLEY","HOUSE_NO":"HOUSE_NO","E_COORD97":"E_COORD97","N_COORD97":"N_COORD97","ADDRESS":"ADDRESS","OBJECTID":"OBJECTID"},"geometryType":"esriGeometryPoint","spatialReference":{"wkid":102443,"latestWkid":3826},"fields":[{"name":"ID","type":"esriFieldTypeDouble","alias":"ID"},{"name":"DIS_CODE","type":"esriFieldTypeInteger","alias":"DIS_CODE"},{"name":"TOWNNAME","type":"esriFieldTypeString","alias":"TOWNNAME","length":8},{"name":"LI","type":"esriFieldTypeString","alias":"LI","length":8},{"name":"LIN","type":"esriFieldTypeString","alias":"LIN","length":12},{"name":"STREET","type":"esriFieldTypeString","alias":"STREET","length":20},{"name":"SECT","type":"esriFieldTypeString","alias":"SECT","length":8},{"name":"MAREA","type":"esriFieldTypeString","alias":"MAREA","length":12},{"name":"LANE","type":"esriFieldTypeString","alias":"LANE","length":10},{"name":"ALLEY","type":"esriFieldTypeString","alias":"ALLEY","length":10},{"name":"HOUSE_NO","type":"esriFieldTypeString","alias":"HOUSE_NO","length":20},{"name":"E_COORD97","type":"esriFieldTypeDouble","alias":"E_COORD97"},{"name":"N_COORD97","type":"esriFieldTypeDouble","alias":"N_COORD97"},{"name":"ADDRESS","type":"esriFieldTypeString","alias":"ADDRESS","length":50},{"name":"OBJECTID","type":"esriFieldTypeOID","alias":"OBJECTID"}],"features":[{"attributes":{"ID":367411,"DIS_CODE":0,"TOWNNAME":"安南區","LI":"城東里","LIN":"12鄰","STREET":"城北路","SECT":" ","MAREA":" ","LANE":"１３８巷","ALLEY":" ","HOUSE_NO":"４９號","E_COORD97":161118.78,"N_COORD97":2551712.5899999999,"ADDRESS":"城北路１３８巷４９號","OBJECTID":367401},"geometry":{"x":161118.78000000026,"y":2551712.589999998}},{"attributes":{"ID":367412,"DIS_CODE":0,"TOWNNAME":"安南區","LI":"城東里","LIN":"12鄰","STREET":"城北路","SECT":" ","MAREA":" ","LANE":"１３８巷","ALLEY":" ","HOUSE_NO":"５０號","E_COORD97":161135.35999999999,"N_COORD97":2551691.8399999999,"ADDRESS":"城北路１３８巷５０號","OBJECTID":367402},"geometry":{"x":161135.3599999994,"y":2551691.8400000017}},{"attributes":{"ID":367413,"DIS_CODE":0,"TOWNNAME":"將軍區","LI":"長榮里","LIN":"13鄰","STREET":" ","SECT":" ","MAREA":"長榮","LANE":" ","ALLEY":" ","HOUSE_NO":"２１５之５號","E_COORD97":163775.04000000001,"N_COORD97":2566091.98,"ADDRESS":"長榮２１５之５號","OBJECTID":367403},"geometry":{"x":163775.0400000019,"y":2566091.9800000004}},{"attributes":{"ID":367414,"DIS_CODE":0,"TOWNNAME":"將軍區","LI":"長榮里","LIN":"13鄰","STREET":" ","SECT":" ","MAREA":"長榮","LANE":" ","ALLEY":" ","HOUSE_NO":"２１５之６號","E_COORD97":163770.12,"N_COORD97":2566091.8199999998,"ADDRESS":"長榮２１５之６號","OBJECTID":367404},"geometry":{"x":163770.12000000104,"y":2566091.8200000022}},{"attributes":{"ID":367415,"DIS_CODE":0,"TOWNNAME":"安南區","LI":"城東里","LIN":"12鄰","STREET":"城北路","SECT":" ","MAREA":" ","LANE":"１３８巷","ALLEY":" ","HOUSE_NO":"５１號","E_COORD97":161122.32000000001,"N_COORD97":2551714.0699999998,"ADDRESS":"城北路１３８巷５１號","OBJECTID":367405},"geometry":{"x":161122.32000000123,"y":2551714.0700000022}},{"attributes":{"ID":367416,"DIS_CODE":0,"TOWNNAME":"安南區","LI":"城東里","LIN":"12鄰","STREET":"城北路","SECT":" ","MAREA":" ","LANE":"１３８巷","ALLEY":" ","HOUSE_NO":"５２號","E_COORD97":161139.10000000001,"N_COORD97":2551694.2999999998,"ADDRESS":"城北路１３８巷５２號","OBJECTID":367406},"geometry":{"x":161139.09999999963,"y":2551694.3000000007}},{"attributes":{"ID":367417,"DIS_CODE":0,"TOWNNAME":"安南區","LI":"城東里","LIN":"12鄰","STREET":"城北路","SECT":" ","MAREA":" ","LANE":"１３８巷","ALLEY":" ","HOUSE_NO":"５３號","E_COORD97":161125.97,"N_COORD97":2551714.3700000001,"ADDRESS":"城北路１３８巷５３號","OBJECTID":367407},"geometry":{"x":161125.97000000067,"y":2551714.370000001}},{"attributes":{"ID":367418,"DIS_CODE":0,"TOWNNAME":"安南區","LI":"城東里","LIN":"12鄰","STREET":"城北路","SECT":" ","MAREA":" ","LANE":"１３８巷","ALLEY":" ","HOUSE_NO":"７１號","E_COORD97":161157.14000000001,"N_COORD97":2551723.7000000002,"ADDRESS":"城北路１３８巷７１號","OBJECTID":367408},"geometry":{"x":161157.1400000006,"y":2551723.6999999993}},{"attributes":{"ID":367419,"DIS_CODE":0,"TOWNNAME":"安南區","LI":"城東里","LIN":"12鄰","STREET":"城北路","SECT":" ","MAREA":" ","LANE":"１３８巷","ALLEY":" ","HOUSE_NO":"７３號","E_COORD97":161160.95000000001,"N_COORD97":2551724.79,"ADDRESS":"城北路１３８巷７３號","OBJECTID":367409},"geometry":{"x":161160.95000000112,"y":2551724.790000001}},{"attributes":{"ID":367420,"DIS_CODE":0,"TOWNNAME":"安南區","LI":"城東里","LIN":"12鄰","STREET":"城北路","SECT":" ","MAREA":" ","LANE":"１３８巷","ALLEY":" ","HOUSE_NO":"７５號","E_COORD97":161166.92999999999,"N_COORD97":2551726.96,"ADDRESS":"城北路１３８巷７５號","OBJECTID":367410},"geometry":{"x":161166.93000000063,"y":2551726.9600000009}},{"attributes":{"ID":367421,"DIS_CODE":0,"TOWNNAME":"安南區","LI":"城東里","LIN":"12鄰","STREET":"城北路","SECT":" ","MAREA":" ","LANE":"１３８巷","ALLEY":" ","HOUSE_NO":"８４號","E_COORD97":161200.63,"N_COORD97":2551723.25,"ADDRESS":"城北路１３８巷８４號","OBJECTID":367411},"geometry":{"x":161200.62999999989,"y":2551723.2500000019}},{"attributes":{"ID":367422,"DIS_CODE":0,"TOWNNAME":"安南區","LI":"城東里","LIN":"12鄰","STREET":"城北路","SECT":" ","MAREA":" ","LANE":"１３８巷","ALLEY":" ","HOUSE_NO":"８６號","E_COORD97":161206.35000000001,"N_COORD97":2551725.2799999998,"ADDRESS":"城北路１３８巷８６號","OBJECTID":367412},"geometry":{"x":161206.35000000056,"y":2551725.2800000012}},{"attributes":{"ID":367423,"DIS_CODE":0,"TOWNNAME":"安南區","LI":"城東里","LIN":"12鄰","STREET":"城北路","SECT":" ","MAREA":" ","LANE":"１３８巷","ALLEY":" ","HOUSE_NO":"９０號","E_COORD97":161215.20999999999,"N_COORD97":2551727.5,"ADDRESS":"城北路１３８巷９０號","OBJECTID":367413},"geometry":{"x":161215.20999999996,"y":2551727.5000000019}},{"attributes":{"ID":367424,"DIS_CODE":0,"TOWNNAME":"安南區","LI":"鳳凰里","LIN":"12鄰","STREET":"安中路","SECT":"一段","MAREA":" ","LANE":"７００巷","ALLEY":" ","HOUSE_NO":"１０１號","E_COORD97":167962.85000000001,"N_COORD97":2549271.8199999998,"ADDRESS":"安中路一段７００巷１０１號","OBJECTID":367414},"geometry":{"x":167962.84999999963,"y":2549271.8200000022}},{"attributes":{"ID":367425,"DIS_CODE":0,"TOWNNAME":"安南區","LI":"鳳凰里","LIN":"12鄰","STREET":"安中路","SECT":"一段","MAREA":" ","LANE":"７００巷","ALLEY":" ","HOUSE_NO":"１０３號","E_COORD97":167970.37,"N_COORD97":2549270.9500000002,"ADDRESS":"安中路一段７００巷１０３號","OBJECTID":367415},"geometry":{"x":167970.37000000104,"y":2549270.9499999993}},{"attributes":{"ID":367426,"DIS_CODE":0,"TOWNNAME":"安南區","LI":"鳳凰里","LIN":"12鄰","STREET":"安中路","SECT":"一段","MAREA":" ","LANE":"７００巷","ALLEY":" ","HOUSE_NO":"１０５號","E_COORD97":167978.57000000001,"N_COORD97":2549270.3700000001,"ADDRESS":"安中路一段７００巷１０５號","OBJECTID":367416},"geometry":{"x":167978.5700000003,"y":2549270.370000001}},{"attributes":{"ID":367427,"DIS_CODE":0,"TOWNNAME":"安南區","LI":"鳳凰里","LIN":"12鄰","STREET":"安中路","SECT":"一段","MAREA":" ","LANE":"７００巷","ALLEY":" ","HOUSE_NO":"１０７號","E_COORD97":167992.45999999999,"N_COORD97":2549269.3100000001,"ADDRESS":"安中路一段７００巷１０７號","OBJECTID":367417},"geometry":{"x":167992.45999999996,"y":2549269.3100000005}},{"attributes":{"ID":367428,"DIS_CODE":0,"TOWNNAME":"中西區","LI":"三民里","LIN":"13鄰","STREET":"民族路","SECT":"二段","MAREA":" ","LANE":" ","ALLEY":" ","HOUSE_NO":"１４９號","E_COORD97":168724.48999999999,"N_COORD97":2543955.6200000001,"ADDRESS":"民族路二段１４９號","OBJECTID":367418},"geometry":{"x":168724.49000000115,"y":2543955.620000001}},{"attributes":{"ID":367429,"DIS_CODE":0,"TOWNNAME":"將軍區","LI":"長榮里","LIN":"13鄰","STREET":" ","SECT":" ","MAREA":"長榮","LANE":" ","ALLEY":" ","HOUSE_NO":"２２７之４號","E_COORD97":163709.69,"N_COORD97":2566093.8999999999,"ADDRESS":"長榮２２７之４號","OBJECTID":367419},"geometry":{"x":163709.69000000041,"y":2566093.9000000022}},{"attributes":{"ID":367430,"DIS_CODE":0,"TOWNNAME":"安南區","LI":"鳳凰里","LIN":"12鄰","STREET":"安中路","SECT":"一段","MAREA":" ","LANE":"７００巷","ALLEY":" ","HOUSE_NO":"１０９號","E_COORD97":167999.72,"N_COORD97":2549268.9199999999,"ADDRESS":"安中路一段７００巷１０９號","OBJECTID":367420},"geometry":{"x":167999.7200000016,"y":2549268.9199999999}},{"attributes":{"ID":367431,"DIS_CODE":0,"TOWNNAME":"將軍區","LI":"將貴里","LIN":"13鄰","STREET":" ","SECT":" ","MAREA":"將榮","LANE":" ","ALLEY":" ","HOUSE_NO":"２０之１號","E_COORD97":161878.23000000001,"N_COORD97":2568462.8700000001,"ADDRESS":"將榮２０之１號","OBJECTID":367421},"geometry":{"x":161878.23000000045,"y":2568462.870000001}},{"attributes":{"ID":367432,"DIS_CODE":0,"TOWNNAME":"將軍區","LI":"將貴里","LIN":"13鄰","STREET":" ","SECT":" ","MAREA":"將榮","LANE":" ","ALLEY":" ","HOUSE_NO":"２１號","E_COORD97":161895.35999999999,"N_COORD97":2568472.8399999999,"ADDRESS":"將榮２１號","OBJECTID":367422},"geometry":{"x":161895.36000000127,"y":2568472.8399999999}},{"attributes":{"ID":367433,"DIS_CODE":0,"TOWNNAME":"將軍區","LI":"將貴里","LIN":"13鄰","STREET":" ","SECT":" ","MAREA":"將榮","LANE":" ","ALLEY":" ","HOUSE_NO":"２２號","E_COORD97":161913.92999999999,"N_COORD97":2568471.3599999999,"ADDRESS":"將榮２２號","OBJECTID":367423},"geometry":{"x":161913.9299999997,"y":2568471.3599999994}},{"attributes":{"ID":367434,"DIS_CODE":0,"TOWNNAME":"將軍區","LI":"將貴里","LIN":"13鄰","STREET":" ","SECT":" ","MAREA":"將榮","LANE":" ","ALLEY":" ","HOUSE_NO":"２３號","E_COORD97":161916.91,"N_COORD97":2568484.3799999999,"ADDRESS":"將榮２３號","OBJECTID":367424},"geometry":{"x":161916.91000000108,"y":2568484.379999999}},{"attributes":{"ID":367435,"DIS_CODE":0,"TOWNNAME":"將軍區","LI":"將貴里","LIN":"13鄰","STREET":" ","SECT":" ","MAREA":"將榮","LANE":" ","ALLEY":" ","HOUSE_NO":"２４號","E_COORD97":161919.17000000001,"N_COORD97":2568507.6200000001,"ADDRESS":"將榮２４號","OBJECTID":367425},"geometry":{"x":161919.16999999993,"y":2568507.6200000029}},{"attributes":{"ID":367436,"DIS_CODE":0,"TOWNNAME":"將軍區","LI":"將貴里","LIN":"13鄰","STREET":" ","SECT":" ","MAREA":"將榮","LANE":" ","ALLEY":" ","HOUSE_NO":"２５號","E_COORD97":161923.20999999999,"N_COORD97":2568519.0699999998,"ADDRESS":"將榮２５號","OBJECTID":367426},"geometry":{"x":161923.21000000089,"y":2568519.0700000003}},{"attributes":{"ID":367437,"DIS_CODE":0,"TOWNNAME":"將軍區","LI":"將富里","LIN":"13鄰","STREET":" ","SECT":" ","MAREA":"將榮","LANE":" ","ALLEY":" ","HOUSE_NO":"８３之１號","E_COORD97":161987.44,"N_COORD97":2568743.1099999999,"ADDRESS":"將榮８３之１號","OBJECTID":367427},"geometry":{"x":161987.44000000041,"y":2568743.1100000013}},{"attributes":{"ID":367438,"DIS_CODE":0,"TOWNNAME":"將軍區","LI":"將富里","LIN":"13鄰","STREET":" ","SECT":" ","MAREA":"將榮","LANE":" ","ALLEY":" ","HOUSE_NO":"８３號","E_COORD97":161995.16,"N_COORD97":2568734.77,"ADDRESS":"將榮８３號","OBJECTID":367428},"geometry":{"x":161995.16000000108,"y":2568734.7700000014}},{"attributes":{"ID":367439,"DIS_CODE":0,"TOWNNAME":"將軍區","LI":"將富里","LIN":"13鄰","STREET":" ","SECT":" ","MAREA":"將榮","LANE":" ","ALLEY":" ","HOUSE_NO":"８４之１號","E_COORD97":161963.84,"N_COORD97":2568750.6200000001,"ADDRESS":"將榮８４之１號","OBJECTID":367429},"geometry":{"x":161963.83999999985,"y":2568750.6200000048}},{"attributes":{"ID":367440,"DIS_CODE":0,"TOWNNAME":"將軍區","LI":"將富里","LIN":"13鄰","STREET":" ","SECT":" ","MAREA":"將榮","LANE":" ","ALLEY":" ","HOUSE_NO":"８４號","E_COORD97":161967.78,"N_COORD97":2568733.48,"ADDRESS":"將榮８４號","OBJECTID":367430},"geometry":{"x":161967.78000000026,"y":2568733.4800000004}},{"attributes":{"ID":367441,"DIS_CODE":0,"TOWNNAME":"將軍區","LI":"廣山里","LIN":"13鄰","STREET":" ","SECT":" ","MAREA":"廣山","LANE":" ","ALLEY":" ","HOUSE_NO":"１２５號","E_COORD97":159569.82999999999,"N_COORD97":2569176.2999999998,"ADDRESS":"廣山１２５號","OBJECTID":367431},"geometry":{"x":159569.83000000101,"y":2569176.3000000045}},{"attributes":{"ID":367442,"DIS_CODE":0,"TOWNNAME":"將軍區","LI":"廣山里","LIN":"13鄰","STREET":" ","SECT":" ","MAREA":"廣山","LANE":" ","ALLEY":" ","HOUSE_NO":"１２６號","E_COORD97":159563.48000000001,"N_COORD97":2569159.8300000001,"ADDRESS":"廣山１２６號","OBJECTID":367432},"geometry":{"x":159563.48000000231,"y":2569159.8300000019}},{"attributes":{"ID":367443,"DIS_CODE":0,"TOWNNAME":"將軍區","LI":"廣山里","LIN":"13鄰","STREET":" ","SECT":" ","MAREA":"廣山","LANE":" ","ALLEY":" ","HOUSE_NO":"１２９號","E_COORD97":159537.87,"N_COORD97":2569150.8100000001,"ADDRESS":"廣山１２９號","OBJECTID":367433},"geometry":{"x":159537.87000000011,"y":2569150.8100000005}},{"attributes":{"ID":367444,"DIS_CODE":0,"TOWNNAME":"將軍區","LI":"廣山里","LIN":"13鄰","STREET":" ","SECT":" ","MAREA":"廣山","LANE":" ","ALLEY":" ","HOUSE_NO":"１３０號","E_COORD97":159523.85000000001,"N_COORD97":2569123.4199999999,"ADDRESS":"廣山１３０號","OBJECTID":367434},"geometry":{"x":159523.84999999963,"y":2569123.4199999981}},{"attributes":{"ID":367445,"DIS_CODE":0,"TOWNNAME":"將軍區","LI":"廣山里","LIN":"13鄰","STREET":" ","SECT":" ","MAREA":"廣山","LANE":" ","ALLEY":" ","HOUSE_NO":"１３３之１號","E_COORD97":159488.06,"N_COORD97":2569167.6000000001,"ADDRESS":"廣山１３３之１號","OBJECTID":367435},"geometry":{"x":159488.06000000052,"y":2569167.6000000015}},{"attributes":{"ID":367446,"DIS_CODE":0,"TOWNNAME":"將軍區","LI":"廣山里","LIN":"13鄰","STREET":" ","SECT":" ","MAREA":"廣山","LANE":" ","ALLEY":" ","HOUSE_NO":"１３３之２號","E_COORD97":159462.25,"N_COORD97":2569111.5499999998,"ADDRESS":"廣山１３３之２號","OBJECTID":367436},"geometry":{"x":159462.25,"y":2569111.5500000026}},{"attributes":{"ID":367447,"DIS_CODE":0,"TOWNNAME":"將軍區","LI":"鯤溟里","LIN":"13鄰","STREET":" ","SECT":" ","MAREA":"鯤溟","LANE":" ","ALLEY":" ","HOUSE_NO":"９３號","E_COORD97":156529.89000000001,"N_COORD97":2565441.3500000001,"ADDRESS":"鯤溟９３號","OBJECTID":367437},"geometry":{"x":156529.88999999966,"y":2565441.3499999996}},{"attributes":{"ID":367448,"DIS_CODE":0,"TOWNNAME":"將軍區","LI":"鯤溟里","LIN":"13鄰","STREET":" ","SECT":" ","MAREA":"鯤溟","LANE":" ","ALLEY":" ","HOUSE_NO":"９７號","E_COORD97":156503.10999999999,"N_COORD97":2565493.3799999999,"ADDRESS":"鯤溟９７號","OBJECTID":367438},"geometry":{"x":156503.11000000127,"y":2565493.3800000008}},{"attributes":{"ID":367449,"DIS_CODE":0,"TOWNNAME":"安平區","LI":"華平里","LIN":"7鄰","STREET":"育平九街","SECT":" ","MAREA":" ","LANE":"２２巷","ALLEY":" ","HOUSE_NO":"１８號地下層","E_COORD97":165432.22,"N_COORD97":2543995.1400000001,"ADDRESS":"育平九街２２巷１８號地下層","OBJECTID":367439},"geometry":{"x":165432.22000000067,"y":2543995.1400000006}},{"attributes":{"ID":367450,"DIS_CODE":0,"TOWNNAME":"中西區","LI":"三民里","LIN":"13鄰","STREET":"民族路","SECT":"二段","MAREA":" ","LANE":" ","ALLEY":" ","HOUSE_NO":"１５１號","E_COORD97":168717.76000000001,"N_COORD97":2543960.1000000001,"ADDRESS":"民族路二段１５１號","OBJECTID":367440},"geometry":{"x":168717.75999999978,"y":2543960.1000000015}},{"attributes":{"ID":367451,"DIS_CODE":0,"TOWNNAME":"中西區","LI":"三民里","LIN":"13鄰","STREET":"民族路","SECT":"二段","MAREA":" ","LANE":" ","ALLEY":" ","HOUSE_NO":"１５３號","E_COORD97":168706.34,"N_COORD97":2543958.4700000002,"ADDRESS":"民族路二段１５３號","OBJECTID":367441},"geometry":{"x":168706.34000000078,"y":2543958.4700000025}},{"attributes":{"ID":367452,"DIS_CODE":0,"TOWNNAME":"安南區","LI":"鳳凰里","LIN":"12鄰","STREET":"安中路","SECT":"一段","MAREA":" ","LANE":"７００巷","ALLEY":" ","HOUSE_NO":"７７號之１","E_COORD97":167870.60000000001,"N_COORD97":2549276.46,"ADDRESS":"安中路一段７００巷７７號之１","OBJECTID":367442},"geometry":{"x":167870.60000000056,"y":2549276.4600000009}},{"attributes":{"ID":367453,"DIS_CODE":0,"TOWNNAME":"西港區","LI":"港東里","LIN":"13鄰","STREET":" ","SECT":" ","MAREA":"八份","LANE":" ","ALLEY":" ","HOUSE_NO":"１３號","E_COORD97":170092.95000000001,"N_COORD97":2558731.2599999998,"ADDRESS":"八份１３號","OBJECTID":367443},"geometry":{"x":170092.95000000112,"y":2558731.2600000016}},{"attributes":{"ID":367454,"DIS_CODE":0,"TOWNNAME":"西港區","LI":"港東里","LIN":"13鄰","STREET":" ","SECT":" ","MAREA":"八份","LANE":" ","ALLEY":" ","HOUSE_NO":"１４號","E_COORD97":170084.39000000001,"N_COORD97":2558767.0699999998,"ADDRESS":"八份１４號","OBJECTID":367444},"geometry":{"x":170084.38999999966,"y":2558767.0700000022}},{"attributes":{"ID":367455,"DIS_CODE":0,"TOWNNAME":"佳里區","LI":"三協里","LIN":"13鄰","STREET":" ","SECT":" ","MAREA":"後庄","LANE":" ","ALLEY":" ","HOUSE_NO":"５６號之２","E_COORD97":168574.60000000001,"N_COORD97":2564897.7000000002,"ADDRESS":"後庄５６號之２","OBJECTID":367445},"geometry":{"x":168574.59999999963,"y":2564897.7000000011}},{"attributes":{"ID":367456,"DIS_CODE":0,"TOWNNAME":"學甲區","LI":"光華里","LIN":"13鄰","STREET":" ","SECT":" ","MAREA":"中洲","LANE":" ","ALLEY":" ","HOUSE_NO":"５９６號","E_COORD97":164134.59,"N_COORD97":2571532.0600000001,"ADDRESS":"中洲５９６號","OBJECTID":367446},"geometry":{"x":164134.59000000078,"y":2571532.0600000024}},{"attributes":{"ID":367457,"DIS_CODE":0,"TOWNNAME":"安南區","LI":"鳳凰里","LIN":"12鄰","STREET":"安中路","SECT":"一段","MAREA":" ","LANE":"７００巷","ALLEY":" ","HOUSE_NO":"７９號之１","E_COORD97":167877.72,"N_COORD97":2549276.25,"ADDRESS":"安中路一段７００巷７９號之１","OBJECTID":367447},"geometry":{"x":167877.72000000067,"y":2549276.25}},{"attributes":{"ID":367458,"DIS_CODE":0,"TOWNNAME":"佳里區","LI":"三協里","LIN":"13鄰","STREET":" ","SECT":" ","MAREA":"後庄","LANE":" ","ALLEY":" ","HOUSE_NO":"５６號","E_COORD97":168557.82000000001,"N_COORD97":2564887.5099999998,"ADDRESS":"後庄５６號","OBJECTID":367448},"geometry":{"x":168557.82000000123,"y":2564887.5099999998}},{"attributes":{"ID":367459,"DIS_CODE":0,"TOWNNAME":"佳里區","LI":"三協里","LIN":"13鄰","STREET":" ","SECT":" ","MAREA":"後庄","LANE":" ","ALLEY":" ","HOUSE_NO":"５７號","E_COORD97":168541.72,"N_COORD97":2564912.7999999998,"ADDRESS":"後庄５７號","OBJECTID":367449},"geometry":{"x":168541.71999999974,"y":2564912.8000000026}},{"attributes":{"ID":367460,"DIS_CODE":0,"TOWNNAME":"佳里區","LI":"三協里","LIN":"13鄰","STREET":" ","SECT":" ","MAREA":"後庄","LANE":" ","ALLEY":" ","HOUSE_NO":"５８號","E_COORD97":168560.35999999999,"N_COORD97":2564933.3399999999,"ADDRESS":"後庄５８號","OBJECTID":367450},"geometry":{"x":168560.3600000022,"y":2564933.3399999999}},{"attributes":{"ID":367461,"DIS_CODE":0,"TOWNNAME":"佳里區","LI":"三協里","LIN":"13鄰","STREET":" ","SECT":" ","MAREA":"後庄","LANE":" ","ALLEY":" ","HOUSE_NO":"５９號","E_COORD97":168537.87,"N_COORD97":2564934.1200000001,"ADDRESS":"後庄５９號","OBJECTID":367451},"geometry":{"x":168537.87000000011,"y":2564934.1200000029}},{"attributes":{"ID":367462,"DIS_CODE":0,"TOWNNAME":"佳里區","LI":"三協里","LIN":"13鄰","STREET":" ","SECT":" ","MAREA":"後庄","LANE":" ","ALLEY":" ","HOUSE_NO":"６０號","E_COORD97":168606.82000000001,"N_COORD97":2564997.6499999999,"ADDRESS":"後庄６０號","OBJECTID":367452},"geometry":{"x":168606.82000000123,"y":2564997.6500000022}},{"attributes":{"ID":367463,"DIS_CODE":0,"TOWNNAME":"佳里區","LI":"三協里","LIN":"13鄰","STREET":" ","SECT":" ","MAREA":"後庄","LANE":" ","ALLEY":" ","HOUSE_NO":"６１號之１","E_COORD97":168602.10999999999,"N_COORD97":2564834.9199999999,"ADDRESS":"後庄６１號之１","OBJECTID":367453},"geometry":{"x":168602.11000000034,"y":2564834.9200000037}},{"attributes":{"ID":367464,"DIS_CODE":0,"TOWNNAME":"佳里區","LI":"三協里","LIN":"13鄰","STREET":" ","SECT":" ","MAREA":"後庄","LANE":" ","ALLEY":" ","HOUSE_NO":"６１號之３","E_COORD97":168596.39000000001,"N_COORD97":2564779.6299999999,"ADDRESS":"後庄６１號之３","OBJECTID":367454},"geometry":{"x":168596.38999999966,"y":2564779.6300000008}},{"attributes":{"ID":367465,"DIS_CODE":0,"TOWNNAME":"佳里區","LI":"三協里","LIN":"13鄰","STREET":" ","SECT":" ","MAREA":"後庄","LANE":" ","ALLEY":" ","HOUSE_NO":"６２號","E_COORD97":168607.57999999999,"N_COORD97":2564876.4900000002,"ADDRESS":"後庄６２號","OBJECTID":367455},"geometry":{"x":168607.58000000007,"y":2564876.4900000021}},{"attributes":{"ID":367466,"DIS_CODE":0,"TOWNNAME":"佳里區","LI":"三協里","LIN":"13鄰","STREET":" ","SECT":" ","MAREA":"後庄","LANE":" ","ALLEY":" ","HOUSE_NO":"６９號","E_COORD97":168613.04999999999,"N_COORD97":2565167.3199999998,"ADDRESS":"後庄６９號","OBJECTID":367456},"geometry":{"x":168613.05000000075,"y":2565167.3200000003}},{"attributes":{"ID":367467,"DIS_CODE":0,"TOWNNAME":"佳里區","LI":"通興里","LIN":"13鄰","STREET":" ","SECT":" ","MAREA":"埔頂","LANE":" ","ALLEY":" ","HOUSE_NO":"６２號之１","E_COORD97":163473.13,"N_COORD97":2560797.0299999998,"ADDRESS":"埔頂６２號之１","OBJECTID":367457},"geometry":{"x":163473.13000000082,"y":2560797.0300000012}},{"attributes":{"ID":367468,"DIS_CODE":0,"TOWNNAME":"佳里區","LI":"通興里","LIN":"13鄰","STREET":" ","SECT":" ","MAREA":"埔頂","LANE":" ","ALLEY":" ","HOUSE_NO":"６３號","E_COORD97":163499.16,"N_COORD97":2560792.6800000002,"ADDRESS":"埔頂６３號","OBJECTID":367458},"geometry":{"x":163499.16000000015,"y":2560792.6800000016}},{"attributes":{"ID":367469,"DIS_CODE":0,"TOWNNAME":"佳里區","LI":"通興里","LIN":"13鄰","STREET":" ","SECT":" ","MAREA":"埔頂","LANE":" ","ALLEY":" ","HOUSE_NO":"６５號之１","E_COORD97":163508.01000000001,"N_COORD97":2560778.73,"ADDRESS":"埔頂６５號之１","OBJECTID":367459},"geometry":{"x":163508.00999999978,"y":2560778.7300000023}},{"attributes":{"ID":367470,"DIS_CODE":0,"TOWNNAME":"佳里區","LI":"通興里","LIN":"13鄰","STREET":" ","SECT":" ","MAREA":"埔頂","LANE":" ","ALLEY":" ","HOUSE_NO":"６５號","E_COORD97":163515.07999999999,"N_COORD97":2560774.9300000002,"ADDRESS":"埔頂６５號","OBJECTID":367460},"geometry":{"x":163515.08000000007,"y":2560774.9299999997}},{"attributes":{"ID":367471,"DIS_CODE":0,"TOWNNAME":"佳里區","LI":"通興里","LIN":"13鄰","STREET":" ","SECT":" ","MAREA":"埔頂","LANE":" ","ALLEY":" ","HOUSE_NO":"６６號之１","E_COORD97":163550.76999999999,"N_COORD97":2560786.0899999999,"ADDRESS":"埔頂６６號之１","OBJECTID":367461},"geometry":{"x":163550.76999999955,"y":2560786.0900000017}},{"attributes":{"ID":367472,"DIS_CODE":0,"TOWNNAME":"東區","LI":"南聖里","LIN":"13鄰","STREET":"裕和路","SECT":" ","MAREA":" ","LANE":" ","ALLEY":" ","HOUSE_NO":"２７５號","E_COORD97":172500.17999999999,"N_COORD97":2543151.7200000002,"ADDRESS":"裕和路２７５號","OBJECTID":367462},"geometry":{"x":172500.1799999997,"y":2543151.7200000007}},{"attributes":{"ID":367473,"DIS_CODE":0,"TOWNNAME":"佳里區","LI":"通興里","LIN":"13鄰","STREET":" ","SECT":" ","MAREA":"埔頂","LANE":" ","ALLEY":" ","HOUSE_NO":"６６號","E_COORD97":163527.14999999999,"N_COORD97":2560806.3100000001,"ADDRESS":"埔頂６６號","OBJECTID":367463},"geometry":{"x":163527.15000000224,"y":2560806.3100000024}},{"attributes":{"ID":367474,"DIS_CODE":0,"TOWNNAME":"佳里區","LI":"海澄里","LIN":"13鄰","STREET":" ","SECT":" ","MAREA":"番子寮","LANE":" ","ALLEY":" ","HOUSE_NO":"１００號","E_COORD97":164006.47,"N_COORD97":2564628.71,"ADDRESS":"番子寮１００號","OBJECTID":367464},"geometry":{"x":164006.47000000067,"y":2564628.7100000028}},{"attributes":{"ID":367475,"DIS_CODE":0,"TOWNNAME":"學甲區","LI":"大灣里","LIN":"13鄰","STREET":" ","SECT":" ","MAREA":"大灣","LANE":" ","ALLEY":" ","HOUSE_NO":"１３５號之１","E_COORD97":166787.41,"N_COORD97":2567568.7999999998,"ADDRESS":"大灣１３５號之１","OBJECTID":367465},"geometry":{"x":166787.41000000108,"y":2567568.8000000007}},{"attributes":{"ID":367476,"DIS_CODE":0,"TOWNNAME":"學甲區","LI":"大灣里","LIN":"13鄰","STREET":" ","SECT":" ","MAREA":"大灣","LANE":" ","ALLEY":" ","HOUSE_NO":"１３５號","E_COORD97":166798.94,"N_COORD97":2567520.4199999999,"ADDRESS":"大灣１３５號","OBJECTID":367466},"geometry":{"x":166798.94000000134,"y":2567520.4200000018}},{"attributes":{"ID":367477,"DIS_CODE":0,"TOWNNAME":"學甲區","LI":"大灣里","LIN":"13鄰","STREET":" ","SECT":" ","MAREA":"大灣","LANE":" ","ALLEY":" ","HOUSE_NO":"１３６號","E_COORD97":166710.72,"N_COORD97":2567663.8999999999,"ADDRESS":"大灣１３６號","OBJECTID":367467},"geometry":{"x":166710.71999999974,"y":2567663.9000000022}},{"attributes":{"ID":367478,"DIS_CODE":0,"TOWNNAME":"學甲區","LI":"大灣里","LIN":"13鄰","STREET":" ","SECT":" ","MAREA":"大灣","LANE":" ","ALLEY":" ","HOUSE_NO":"１３７號之１","E_COORD97":166731.26999999999,"N_COORD97":2567454.3199999998,"ADDRESS":"大灣１３７號之１","OBJECTID":367468},"geometry":{"x":166731.27000000048,"y":2567454.3200000022}},{"attributes":{"ID":367479,"DIS_CODE":0,"TOWNNAME":"學甲區","LI":"大灣里","LIN":"13鄰","STREET":" ","SECT":" ","MAREA":"大灣","LANE":" ","ALLEY":" ","HOUSE_NO":"１３７號之２","E_COORD97":166730.17999999999,"N_COORD97":2567459.02,"ADDRESS":"大灣１３７號之２","OBJECTID":367469},"geometry":{"x":166730.18000000156,"y":2567459.0200000014}},{"attributes":{"ID":367480,"DIS_CODE":0,"TOWNNAME":"學甲區","LI":"大灣里","LIN":"13鄰","STREET":" ","SECT":" ","MAREA":"大灣","LANE":" ","ALLEY":" ","HOUSE_NO":"１３７號之３","E_COORD97":166729.95000000001,"N_COORD97":2567463.6800000002,"ADDRESS":"大灣１３７號之３","OBJECTID":367470},"geometry":{"x":166729.95000000019,"y":2567463.6800000034}},{"attributes":{"ID":367481,"DIS_CODE":0,"TOWNNAME":"學甲區","LI":"大灣里","LIN":"13鄰","STREET":" ","SECT":" ","MAREA":"大灣","LANE":" ","ALLEY":" ","HOUSE_NO":"１３７號之４","E_COORD97":166727.48999999999,"N_COORD97":2567471.5299999998,"ADDRESS":"大灣１３７號之４","OBJECTID":367471},"geometry":{"x":166727.49000000115,"y":2567471.5300000012}},{"attributes":{"ID":367482,"DIS_CODE":0,"TOWNNAME":"學甲區","LI":"大灣里","LIN":"13鄰","STREET":" ","SECT":" ","MAREA":"大灣","LANE":" ","ALLEY":" ","HOUSE_NO":"１３７號之５","E_COORD97":166726.29000000001,"N_COORD97":2567476.0699999998,"ADDRESS":"大灣１３７號之５","OBJECTID":367472},"geometry":{"x":166726.28999999911,"y":2567476.0700000022}},{"attributes":{"ID":367483,"DIS_CODE":0,"TOWNNAME":"學甲區","LI":"大灣里","LIN":"13鄰","STREET":" ","SECT":" ","MAREA":"大灣","LANE":" ","ALLEY":" ","HOUSE_NO":"１３７號之６","E_COORD97":166726,"N_COORD97":2567480.2000000002,"ADDRESS":"大灣１３７號之６","OBJECTID":367473},"geometry":{"x":166726,"y":2567480.200000003}},{"attributes":{"ID":367484,"DIS_CODE":0,"TOWNNAME":"學甲區","LI":"大灣里","LIN":"13鄰","STREET":" ","SECT":" ","MAREA":"大灣","LANE":" ","ALLEY":" ","HOUSE_NO":"１３７號之７","E_COORD97":166725.78,"N_COORD97":2567484.6600000001,"ADDRESS":"大灣１３７號之７","OBJECTID":367474},"geometry":{"x":166725.78000000119,"y":2567484.6600000039}},{"attributes":{"ID":367485,"DIS_CODE":0,"TOWNNAME":"學甲區","LI":"大灣里","LIN":"13鄰","STREET":" ","SECT":" ","MAREA":"大灣","LANE":" ","ALLEY":" ","HOUSE_NO":"１３７號","E_COORD97":166731.63,"N_COORD97":2567450.0699999998,"ADDRESS":"大灣１３７號","OBJECTID":367475},"geometry":{"x":166731.62999999989,"y":2567450.0700000003}},{"attributes":{"ID":367486,"DIS_CODE":0,"TOWNNAME":"學甲區","LI":"大灣里","LIN":"13鄰","STREET":" ","SECT":" ","MAREA":"大灣","LANE":" ","ALLEY":" ","HOUSE_NO":"１３８號之３","E_COORD97":166755.29000000001,"N_COORD97":2567521.1200000001,"ADDRESS":"大灣１３８號之３","OBJECTID":367476},"geometry":{"x":166755.2900000019,"y":2567521.1200000029}},{"attributes":{"ID":367487,"DIS_CODE":0,"TOWNNAME":"學甲區","LI":"大灣里","LIN":"13鄰","STREET":" ","SECT":" ","MAREA":"大灣","LANE":" ","ALLEY":" ","HOUSE_NO":"１３８號之７","E_COORD97":166711.69,"N_COORD97":2567548.0600000001,"ADDRESS":"大灣１３８號之７","OBJECTID":367477},"geometry":{"x":166711.69000000041,"y":2567548.0600000024}},{"attributes":{"ID":367488,"DIS_CODE":0,"TOWNNAME":"學甲區","LI":"大灣里","LIN":"13鄰","STREET":" ","SECT":" ","MAREA":"大灣","LANE":" ","ALLEY":" ","HOUSE_NO":"１３８號之９","E_COORD97":166710.53,"N_COORD97":2567558.73,"ADDRESS":"大灣１３８號之９","OBJECTID":367478},"geometry":{"x":166710.53000000119,"y":2567558.7300000004}},{"attributes":{"ID":367489,"DIS_CODE":0,"TOWNNAME":"學甲區","LI":"大灣里","LIN":"13鄰","STREET":" ","SECT":" ","MAREA":"大灣","LANE":" ","ALLEY":" ","HOUSE_NO":"１３８號","E_COORD97":166721.45999999999,"N_COORD97":2567513.0099999998,"ADDRESS":"大灣１３８號","OBJECTID":367479},"geometry":{"x":166721.45999999996,"y":2567513.0100000016}},{"attributes":{"ID":367490,"DIS_CODE":0,"TOWNNAME":"學甲區","LI":"大灣里","LIN":"13鄰","STREET":" ","SECT":" ","MAREA":"大灣","LANE":" ","ALLEY":" ","HOUSE_NO":"１４０號之１","E_COORD97":166707.53,"N_COORD97":2567581.9700000002,"ADDRESS":"大灣１４０號之１","OBJECTID":367480},"geometry":{"x":166707.53000000026,"y":2567581.9700000025}},{"attributes":{"ID":367491,"DIS_CODE":0,"TOWNNAME":"安南區","LI":"鳳凰里","LIN":"12鄰","STREET":"安中路","SECT":"一段","MAREA":" ","LANE":"７００巷","ALLEY":" ","HOUSE_NO":"８１號","E_COORD97":167884.84,"N_COORD97":2549275.71,"ADDRESS":"安中路一段７００巷８１號","OBJECTID":367481},"geometry":{"x":167884.83999999985,"y":2549275.7100000046}},{"attributes":{"ID":367492,"DIS_CODE":0,"TOWNNAME":"學甲區","LI":"中洲里","LIN":"13鄰","STREET":" ","SECT":" ","MAREA":"中洲","LANE":" ","ALLEY":" ","HOUSE_NO":"１４０號","E_COORD97":163720.97,"N_COORD97":2571458.3900000001,"ADDRESS":"中洲１４０號","OBJECTID":367482},"geometry":{"x":163720.9700000016,"y":2571458.3900000025}},{"attributes":{"ID":367493,"DIS_CODE":0,"TOWNNAME":"學甲區","LI":"光華里","LIN":"13鄰","STREET":" ","SECT":" ","MAREA":"中洲","LANE":" ","ALLEY":" ","HOUSE_NO":"５９７號","E_COORD97":164139.04999999999,"N_COORD97":2571546.0800000001,"ADDRESS":"中洲５９７號","OBJECTID":367483},"geometry":{"x":164139.04999999981,"y":2571546.0800000001}},{"attributes":{"ID":367494,"DIS_CODE":0,"TOWNNAME":"學甲區","LI":"光華里","LIN":"13鄰","STREET":" ","SECT":" ","MAREA":"中洲","LANE":" ","ALLEY":" ","HOUSE_NO":"５９８號","E_COORD97":164139.72,"N_COORD97":2571610.2400000002,"ADDRESS":"中洲５９８號","OBJECTID":367484},"geometry":{"x":164139.7200000016,"y":2571610.2400000039}},{"attributes":{"ID":367495,"DIS_CODE":0,"TOWNNAME":"學甲區","LI":"光華里","LIN":"13鄰","STREET":" ","SECT":" ","MAREA":"中洲","LANE":" ","ALLEY":" ","HOUSE_NO":"５９９號","E_COORD97":164148.48000000001,"N_COORD97":2571641.4500000002,"ADDRESS":"中洲５９９號","OBJECTID":367485},"geometry":{"x":164148.48000000045,"y":2571641.4499999993}},{"attributes":{"ID":367496,"DIS_CODE":0,"TOWNNAME":"安南區","LI":"鳳凰里","LIN":"12鄰","STREET":"安中路","SECT":"一段","MAREA":" ","LANE":"７００巷","ALLEY":" ","HOUSE_NO":"８３號","E_COORD97":167893.37,"N_COORD97":2549275.2799999998,"ADDRESS":"安中路一段７００巷８３號","OBJECTID":367486},"geometry":{"x":167893.37000000011,"y":2549275.2799999993}},{"attributes":{"ID":367497,"DIS_CODE":0,"TOWNNAME":"安南區","LI":"鳳凰里","LIN":"12鄰","STREET":"安中路","SECT":"一段","MAREA":" ","LANE":"７００巷","ALLEY":" ","HOUSE_NO":"９１號之１","E_COORD97":167924.04999999999,"N_COORD97":2549273.3399999999,"ADDRESS":"安中路一段７００巷９１號之１","OBJECTID":367487},"geometry":{"x":167924.04999999981,"y":2549273.339999998}},{"attributes":{"ID":367498,"DIS_CODE":0,"TOWNNAME":"歸仁區","LI":"看西里","LIN":"13鄰","STREET":"成功六街","SECT":" ","MAREA":" ","LANE":"１３巷","ALLEY":" ","HOUSE_NO":"１２號","E_COORD97":178377.76000000001,"N_COORD97":2540138.1099999999,"ADDRESS":"成功六街１３巷１２號","OBJECTID":367488},"geometry":{"x":178377.76000000071,"y":2540138.1100000013}},{"attributes":{"ID":367499,"DIS_CODE":0,"TOWNNAME":"歸仁區","LI":"媽廟里","LIN":"13鄰","STREET":"媽廟二街","SECT":" ","MAREA":" ","LANE":"１０巷","ALLEY":" ","HOUSE_NO":"２號","E_COORD97":177606.03,"N_COORD97":2543715.7200000002,"ADDRESS":"媽廟二街１０巷２號","OBJECTID":367489},"geometry":{"x":177606.03000000026,"y":2543715.7200000025}},{"attributes":{"ID":367500,"DIS_CODE":0,"TOWNNAME":"北區","LI":"賢北里","LIN":"13鄰","STREET":"賢北街","SECT":" ","MAREA":" ","LANE":"５７巷","ALLEY":" ","HOUSE_NO":"１１號","E_COORD97":166212.01000000001,"N_COORD97":2545444.2599999998,"ADDRESS":"賢北街５７巷１１號","OBJECTID":367490},"geometry":{"x":166212.00999999978,"y":2545444.2600000016}},{"attributes":{"ID":367501,"DIS_CODE":0,"TOWNNAME":"北區","LI":"賢北里","LIN":"13鄰","STREET":"賢北街","SECT":" ","MAREA":" ","LANE":"５７巷","ALLEY":" ","HOUSE_NO":"１５號","E_COORD97":166202.82999999999,"N_COORD97":2545440.3300000001,"ADDRESS":"賢北街５７巷１５號","OBJECTID":367491},"geometry":{"x":166202.83000000101,"y":2545440.3300000019}},{"attributes":{"ID":367502,"DIS_CODE":0,"TOWNNAME":"北區","LI":"賢北里","LIN":"13鄰","STREET":"賢北街","SECT":" ","MAREA":" ","LANE":"５７巷","ALLEY":" ","HOUSE_NO":"１７號","E_COORD97":166198.67999999999,"N_COORD97":2545437.9300000002,"ADDRESS":"賢北街５７巷１７號","OBJECTID":367492},"geometry":{"x":166198.68000000063,"y":2545437.9299999978}},{"attributes":{"ID":367503,"DIS_CODE":0,"TOWNNAME":"安南區","LI":"鳳凰里","LIN":"12鄰","STREET":"安中路","SECT":"一段","MAREA":" ","LANE":"７００巷","ALLEY":" ","HOUSE_NO":"９７號","E_COORD97":167946.94,"N_COORD97":2549272.5899999999,"ADDRESS":"安中路一段７００巷９７號","OBJECTID":367493},"geometry":{"x":167946.94000000134,"y":2549272.5900000017}},{"attributes":{"ID":367504,"DIS_CODE":0,"TOWNNAME":"安南區","LI":"鳳凰里","LIN":"12鄰","STREET":"安中路","SECT":"一段","MAREA":" ","LANE":"７００巷","ALLEY":" ","HOUSE_NO":"９９號","E_COORD97":167954.45999999999,"N_COORD97":2549272.1099999999,"ADDRESS":"安中路一段７００巷９９號","OBJECTID":367494},"geometry":{"x":167954.46000000089,"y":2549272.1100000013}},{"attributes":{"ID":367505,"DIS_CODE":0,"TOWNNAME":"仁德區","LI":"田厝里","LIN":"12鄰","STREET":"田厝二街","SECT":" ","MAREA":" ","LANE":"９０巷","ALLEY":" ","HOUSE_NO":"１９號","E_COORD97":172358.57999999999,"N_COORD97":2537803.7400000002,"ADDRESS":"田厝二街９０巷１９號","OBJECTID":367495},"geometry":{"x":172358.58000000007,"y":2537803.7400000002}},{"attributes":{"ID":367506,"DIS_CODE":0,"TOWNNAME":"仁德區","LI":"田厝里","LIN":"12鄰","STREET":"田厝一街","SECT":" ","MAREA":" ","LANE":"２０２巷","ALLEY":" ","HOUSE_NO":"２３號","E_COORD97":172324.95999999999,"N_COORD97":2537868.2400000002,"ADDRESS":"田厝一街２０２巷２３號","OBJECTID":367496},"geometry":{"x":172324.96000000089,"y":2537868.2400000002}},{"attributes":{"ID":367507,"DIS_CODE":0,"TOWNNAME":"仁德區","LI":"成功里","LIN":"12鄰","STREET":"成功二街","SECT":" ","MAREA":" ","LANE":"３２巷","ALLEY":" ","HOUSE_NO":"１號","E_COORD97":170889.48999999999,"N_COORD97":2539909.27,"ADDRESS":"成功二街３２巷１號","OBJECTID":367497},"geometry":{"x":170889.49000000022,"y":2539909.2699999977}},{"attributes":{"ID":367508,"DIS_CODE":0,"TOWNNAME":"仁德區","LI":"太子里","LIN":"12鄰","STREET":"長興二街","SECT":" ","MAREA":" ","LANE":"７０巷","ALLEY":" ","HOUSE_NO":"５號","E_COORD97":174266.09,"N_COORD97":2543723.0099999998,"ADDRESS":"長興二街７０巷５號","OBJECTID":367498},"geometry":{"x":174266.09000000171,"y":2543723.0100000016}},{"attributes":{"ID":367509,"DIS_CODE":0,"TOWNNAME":"仁德區","LI":"田厝里","LIN":"12鄰","STREET":"田厝二街","SECT":" ","MAREA":" ","LANE":"９６巷","ALLEY":" ","HOUSE_NO":"１１號","E_COORD97":172334.39999999999,"N_COORD97":2537755.4900000002,"ADDRESS":"田厝二街９６巷１１號","OBJECTID":367499},"geometry":{"x":172334.4000000013,"y":2537755.4899999984}},{"attributes":{"ID":367510,"DIS_CODE":0,"TOWNNAME":"東區","LI":"南聖里","LIN":"13鄰","STREET":"裕和路","SECT":" ","MAREA":" ","LANE":" ","ALLEY":" ","HOUSE_NO":"２７７號","E_COORD97":172510.64999999999,"N_COORD97":2543151.7200000002,"ADDRESS":"裕和路２７７號","OBJECTID":367500},"geometry":{"x":172510.6500000013,"y":2543151.7200000007}},{"attributes":{"ID":367511,"DIS_CODE":0,"TOWNNAME":"東區","LI":"小東里","LIN":"13鄰","STREET":"光明街","SECT":" ","MAREA":" ","LANE":" ","ALLEY":" ","HOUSE_NO":"３８號之２","E_COORD97":170855.14999999999,"N_COORD97":2544355.25,"ADDRESS":"光明街３８號之２","OBJECTID":367501},"geometry":{"x":170855.15000000037,"y":2544355.2500000019}},{"attributes":{"ID":367512,"DIS_CODE":0,"TOWNNAME":"東區","LI":"小東里","LIN":"13鄰","STREET":"光明街","SECT":" ","MAREA":" ","LANE":" ","ALLEY":" ","HOUSE_NO":"３８號之３","E_COORD97":170860.66,"N_COORD97":2544355.9199999999,"ADDRESS":"光明街３８號之３","OBJECTID":367502},"geometry":{"x":170860.66000000108,"y":2544355.9199999999}},{"attributes":{"ID":367513,"DIS_CODE":0,"TOWNNAME":"東區","LI":"小東里","LIN":"13鄰","STREET":"光明街","SECT":" ","MAREA":" ","LANE":" ","ALLEY":" ","HOUSE_NO":"３８號之４","E_COORD97":170865,"N_COORD97":2544356.5899999999,"ADDRESS":"光明街３８號之４","OBJECTID":367503},"geometry":{"x":170865.00000000093,"y":2544356.5900000017}},{"attributes":{"ID":367514,"DIS_CODE":0,"TOWNNAME":"東區","LI":"小東里","LIN":"13鄰","STREET":"光明街","SECT":" ","MAREA":" ","LANE":" ","ALLEY":" ","HOUSE_NO":"６２號之５","E_COORD97":170892.17000000001,"N_COORD97":2544233.77,"ADDRESS":"光明街６２號之５","OBJECTID":367504},"geometry":{"x":170892.17000000179,"y":2544233.7700000014}},{"attributes":{"ID":367515,"DIS_CODE":0,"TOWNNAME":"官田區","LI":"隆本里","LIN":"13鄰","STREET":"忠孝街","SECT":" ","MAREA":" ","LANE":" ","ALLEY":" ","HOUSE_NO":"１４３號","E_COORD97":179975.70000000001,"N_COORD97":2566427.8100000001,"ADDRESS":"忠孝街１４３號","OBJECTID":367505},"geometry":{"x":179975.70000000112,"y":2566427.8100000024}},{"attributes":{"ID":367516,"DIS_CODE":0,"TOWNNAME":"北區","LI":"賢北里","LIN":"13鄰","STREET":"賢北街","SECT":" ","MAREA":" ","LANE":"５７巷","ALLEY":" ","HOUSE_NO":"１９號","E_COORD97":166194.97,"N_COORD97":2545435.96,"ADDRESS":"賢北街５７巷１９號","OBJECTID":367506},"geometry":{"x":166194.97000000067,"y":2545435.9600000046}},{"attributes":{"ID":367517,"DIS_CODE":0,"TOWNNAME":"北區","LI":"賢北里","LIN":"13鄰","STREET":"賢北街","SECT":" ","MAREA":" ","LANE":"５７巷","ALLEY":" ","HOUSE_NO":"１號","E_COORD97":166230.37,"N_COORD97":2545451.2400000002,"ADDRESS":"賢北街５７巷１號","OBJECTID":367507},"geometry":{"x":166230.37000000011,"y":2545451.2400000021}},{"attributes":{"ID":367518,"DIS_CODE":0,"TOWNNAME":"北區","LI":"賢北里","LIN":"13鄰","STREET":"賢北街","SECT":" ","MAREA":" ","LANE":"５７巷","ALLEY":" ","HOUSE_NO":"２１號","E_COORD97":166191.91,"N_COORD97":2545434.8700000001,"ADDRESS":"賢北街５７巷２１號","OBJECTID":367508},"geometry":{"x":166191.91000000108,"y":2545434.8700000029}},{"attributes":{"ID":367519,"DIS_CODE":0,"TOWNNAME":"北區","LI":"賢北里","LIN":"13鄰","STREET":"賢北街","SECT":" ","MAREA":" ","LANE":"５７巷","ALLEY":" ","HOUSE_NO":"２３號","E_COORD97":166186.88,"N_COORD97":2545433.1299999999,"ADDRESS":"賢北街５７巷２３號","OBJECTID":367509},"geometry":{"x":166186.88000000082,"y":2545433.1300000008}},{"attributes":{"ID":367520,"DIS_CODE":0,"TOWNNAME":"北區","LI":"賢北里","LIN":"13鄰","STREET":"賢北街","SECT":" ","MAREA":" ","LANE":"５７巷","ALLEY":" ","HOUSE_NO":"２５號","E_COORD97":166183.17000000001,"N_COORD97":2545433.1299999999,"ADDRESS":"賢北街５７巷２５號","OBJECTID":367510},"geometry":{"x":166183.17000000086,"y":2545433.1300000008}},{"attributes":{"ID":367521,"DIS_CODE":0,"TOWNNAME":"仁德區","LI":"田厝里","LIN":"12鄰","STREET":"田厝二街","SECT":" ","MAREA":" ","LANE":"９０巷","ALLEY":" ","HOUSE_NO":"１１號","E_COORD97":172345.51000000001,"N_COORD97":2537761.7400000002,"ADDRESS":"田厝二街９０巷１１號","OBJECTID":367511},"geometry":{"x":172345.50999999978,"y":2537761.7400000021}},{"attributes":{"ID":367522,"DIS_CODE":0,"TOWNNAME":"仁德區","LI":"田厝里","LIN":"12鄰","STREET":"田厝二街","SECT":" ","MAREA":" ","LANE":"９６巷","ALLEY":" ","HOUSE_NO":"１３號","E_COORD97":172337.48999999999,"N_COORD97":2537764.7400000002,"ADDRESS":"田厝二街９６巷１３號","OBJECTID":367512},"geometry":{"x":172337.49000000022,"y":2537764.7400000021}},{"attributes":{"ID":367523,"DIS_CODE":0,"TOWNNAME":"仁德區","LI":"仁義里","LIN":"12鄰","STREET":"中山路","SECT":" ","MAREA":" ","LANE":"１０巷","ALLEY":" ","HOUSE_NO":"５１號","E_COORD97":175144.73999999999,"N_COORD97":2541207.9900000002,"ADDRESS":"中山路１０巷５１號","OBJECTID":367513},"geometry":{"x":175144.74000000022,"y":2541207.9900000021}},{"attributes":{"ID":367524,"DIS_CODE":0,"TOWNNAME":"仁德區","LI":"仁德里","LIN":"12鄰","STREET":"四維街","SECT":" ","MAREA":" ","LANE":"３１巷","ALLEY":" ","HOUSE_NO":"７號","E_COORD97":173237.29000000001,"N_COORD97":2541491.4900000002,"ADDRESS":"四維街３１巷７號","OBJECTID":367514},"geometry":{"x":173237.29000000004,"y":2541491.4900000002}},{"attributes":{"ID":367525,"DIS_CODE":0,"TOWNNAME":"仁德區","LI":"後壁里","LIN":"12鄰","STREET":"德善路","SECT":" ","MAREA":" ","LANE":"２４０巷","ALLEY":" ","HOUSE_NO":"２７號","E_COORD97":173842.57999999999,"N_COORD97":2538605.2599999998,"ADDRESS":"德善路２４０巷２７號","OBJECTID":367515},"geometry":{"x":173842.58000000194,"y":2538605.2600000016}},{"attributes":{"ID":367526,"DIS_CODE":0,"TOWNNAME":"仁德區","LI":"後壁里","LIN":"12鄰","STREET":"德南路","SECT":" ","MAREA":" ","LANE":"１９４巷","ALLEY":" ","HOUSE_NO":"１５號","E_COORD97":173697.92999999999,"N_COORD97":2538461.02,"ADDRESS":"德南路１９４巷１５號","OBJECTID":367516},"geometry":{"x":173697.93000000063,"y":2538461.0200000014}},{"attributes":{"ID":367527,"DIS_CODE":0,"TOWNNAME":"安南區","LI":"梅花里","LIN":"12鄰","STREET":"安中路","SECT":"一段","MAREA":" ","LANE":"７０１巷","ALLEY":" ","HOUSE_NO":"５６號之１","E_COORD97":167434.54000000001,"N_COORD97":2549088.23,"ADDRESS":"安中路一段７０１巷５６號之１","OBJECTID":367517},"geometry":{"x":167434.54000000004,"y":2549088.2299999986}},{"attributes":{"ID":367528,"DIS_CODE":0,"TOWNNAME":"安南區","LI":"梅花里","LIN":"12鄰","STREET":"安中路","SECT":"一段","MAREA":" ","LANE":"７０１巷","ALLEY":" ","HOUSE_NO":"５８號之１","E_COORD97":167428.37,"N_COORD97":2549081.8500000001,"ADDRESS":"安中路一段７０１巷５８號之１","OBJECTID":367518},"geometry":{"x":167428.37000000104,"y":2549081.8499999996}},{"attributes":{"ID":367529,"DIS_CODE":0,"TOWNNAME":"官田區","LI":"隆本里","LIN":"13鄰","STREET":"忠孝街","SECT":" ","MAREA":" ","LANE":" ","ALLEY":" ","HOUSE_NO":"１４５號","E_COORD97":179974.20000000001,"N_COORD97":2566431.5,"ADDRESS":"忠孝街１４５號","OBJECTID":367519},"geometry":{"x":179974.20000000112,"y":2566431.5000000037}},{"attributes":{"ID":367530,"DIS_CODE":0,"TOWNNAME":"官田區","LI":"隆本里","LIN":"13鄰","STREET":"忠孝街","SECT":" ","MAREA":" ","LANE":" ","ALLEY":" ","HOUSE_NO":"１４７號","E_COORD97":179973.42999999999,"N_COORD97":2566435.77,"ADDRESS":"忠孝街１４７號","OBJECTID":367520},"geometry":{"x":179973.43000000063,"y":2566435.7700000033}},{"attributes":{"ID":367531,"DIS_CODE":0,"TOWNNAME":"官田區","LI":"隆本里","LIN":"13鄰","STREET":"忠孝街","SECT":" ","MAREA":" ","LANE":" ","ALLEY":" ","HOUSE_NO":"１４９號","E_COORD97":179972.85999999999,"N_COORD97":2566439.6600000001,"ADDRESS":"忠孝街１４９號","OBJECTID":367521},"geometry":{"x":179972.86000000127,"y":2566439.6600000001}},{"attributes":{"ID":367532,"DIS_CODE":0,"TOWNNAME":"官田區","LI":"隆本里","LIN":"13鄰","STREET":"忠孝街","SECT":" ","MAREA":" ","LANE":" ","ALLEY":" ","HOUSE_NO":"１５１號","E_COORD97":179972.10999999999,"N_COORD97":2566444.4399999999,"ADDRESS":"忠孝街１５１號","OBJECTID":367522},"geometry":{"x":179972.11000000034,"y":2566444.4399999976}},{"attributes":{"ID":367533,"DIS_CODE":0,"TOWNNAME":"官田區","LI":"隆本里","LIN":"13鄰","STREET":"忠孝街","SECT":" ","MAREA":" ","LANE":" ","ALLEY":" ","HOUSE_NO":"１５３號","E_COORD97":179970.44,"N_COORD97":2566449.9500000002,"ADDRESS":"忠孝街１５３號","OBJECTID":367523},"geometry":{"x":179970.44000000134,"y":2566449.9499999993}},{"attributes":{"ID":367534,"DIS_CODE":0,"TOWNNAME":"北區","LI":"小康里","LIN":"13鄰","STREET":"公園路","SECT":" ","MAREA":" ","LANE":"９９４巷","ALLEY":" ","HOUSE_NO":"５６號之１","E_COORD97":169795.88,"N_COORD97":2546279.4100000001,"ADDRESS":"公園路９９４巷５６號之１","OBJECTID":367524},"geometry":{"x":169795.88000000082,"y":2546279.4099999983}},{"attributes":{"ID":367535,"DIS_CODE":0,"TOWNNAME":"北區","LI":"小康里","LIN":"13鄰","STREET":"公園路","SECT":" ","MAREA":" ","LANE":"９９４巷","ALLEY":" ","HOUSE_NO":"５６號之２","E_COORD97":169805.85999999999,"N_COORD97":2546283.71,"ADDRESS":"公園路９９４巷５６號之２","OBJECTID":367525},"geometry":{"x":169805.86000000034,"y":2546283.7100000009}},{"attributes":{"ID":367536,"DIS_CODE":0,"TOWNNAME":"北區","LI":"小康里","LIN":"13鄰","STREET":"公園路","SECT":" ","MAREA":" ","LANE":"９９４巷","ALLEY":" ","HOUSE_NO":"５６號之３","E_COORD97":169804.35000000001,"N_COORD97":2546303.7799999998,"ADDRESS":"公園路９９４巷５６號之３","OBJECTID":367526},"geometry":{"x":169804.35000000056,"y":2546303.7800000012}},{"attributes":{"ID":367537,"DIS_CODE":0,"TOWNNAME":"北區","LI":"小康里","LIN":"13鄰","STREET":"公園路","SECT":" ","MAREA":" ","LANE":"９９４巷","ALLEY":" ","HOUSE_NO":"５６號之４","E_COORD97":169804.23000000001,"N_COORD97":2546314.0299999998,"ADDRESS":"公園路９９４巷５６號之４","OBJECTID":367527},"geometry":{"x":169804.23000000138,"y":2546314.0299999993}},{"attributes":{"ID":367538,"DIS_CODE":0,"TOWNNAME":"北區","LI":"小康里","LIN":"13鄰","STREET":"公園路","SECT":" ","MAREA":" ","LANE":"９９４巷","ALLEY":" ","HOUSE_NO":"５６號之６","E_COORD97":169804.23000000001,"N_COORD97":2546322.7799999998,"ADDRESS":"公園路９９４巷５６號之６","OBJECTID":367528},"geometry":{"x":169804.23000000138,"y":2546322.7799999993}},{"attributes":{"ID":367539,"DIS_CODE":0,"TOWNNAME":"北區","LI":"小康里","LIN":"13鄰","STREET":"公園路","SECT":" ","MAREA":" ","LANE":"９９４巷","ALLEY":" ","HOUSE_NO":"５６號之７","E_COORD97":169786.73999999999,"N_COORD97":2546330.6000000001,"ADDRESS":"公園路９９４巷５６號之７","OBJECTID":367529},"geometry":{"x":169786.74000000209,"y":2546330.5999999996}},{"attributes":{"ID":367540,"DIS_CODE":0,"TOWNNAME":"北區","LI":"小康里","LIN":"13鄰","STREET":"公園路","SECT":" ","MAREA":" ","LANE":"９９４巷","ALLEY":" ","HOUSE_NO":"５６號之８","E_COORD97":169790.23999999999,"N_COORD97":2546348.4300000002,"ADDRESS":"公園路９９４巷５６號之８","OBJECTID":367530},"geometry":{"x":169790.24000000209,"y":2546348.4300000016}},{"attributes":{"ID":367541,"DIS_CODE":0,"TOWNNAME":"北區","LI":"小康里","LIN":"13鄰","STREET":"公園路","SECT":" ","MAREA":" ","LANE":"９９４巷","ALLEY":" ","HOUSE_NO":"５６號之９","E_COORD97":169783.35999999999,"N_COORD97":2546310.79,"ADDRESS":"公園路９９４巷５６號之９","OBJECTID":367531},"geometry":{"x":169783.36000000127,"y":2546310.790000001}},{"attributes":{"ID":367542,"DIS_CODE":0,"TOWNNAME":"安南區","LI":"梅花里","LIN":"12鄰","STREET":"安中路","SECT":"一段","MAREA":" ","LANE":"７０１巷","ALLEY":" ","HOUSE_NO":"６０號","E_COORD97":167421.35000000001,"N_COORD97":2549076.3199999998,"ADDRESS":"安中路一段７０１巷６０號","OBJECTID":367532},"geometry":{"x":167421.35000000056,"y":2549076.3200000003}},{"attributes":{"ID":367543,"DIS_CODE":0,"TOWNNAME":"安南區","LI":"梅花里","LIN":"12鄰","STREET":"安中路","SECT":"一段","MAREA":" ","LANE":"７０１巷","ALLEY":" ","HOUSE_NO":"６４號","E_COORD97":167410.92999999999,"N_COORD97":2549066.3300000001,"ADDRESS":"安中路一段７０１巷６４號","OBJECTID":367533},"geometry":{"x":167410.9299999997,"y":2549066.3300000001}},{"attributes":{"ID":367544,"DIS_CODE":0,"TOWNNAME":"安南區","LI":"梅花里","LIN":"12鄰","STREET":"安中路","SECT":"一段","MAREA":" ","LANE":"７０１巷","ALLEY":" ","HOUSE_NO":"６８號之１","E_COORD97":167399.23000000001,"N_COORD97":2549056.1200000001,"ADDRESS":"安中路一段７０１巷６８號之１","OBJECTID":367534},"geometry":{"x":167399.23000000138,"y":2549056.1200000048}},{"attributes":{"ID":367545,"DIS_CODE":0,"TOWNNAME":"安南區","LI":"梅花里","LIN":"12鄰","STREET":"安中路","SECT":"一段","MAREA":" ","LANE":"７０１巷","ALLEY":" ","HOUSE_NO":"７４號","E_COORD97":167379.64999999999,"N_COORD97":2549048.1299999999,"ADDRESS":"安中路一段７０１巷７４號","OBJECTID":367535},"geometry":{"x":167379.65000000037,"y":2549048.1300000008}},{"attributes":{"ID":367546,"DIS_CODE":0,"TOWNNAME":"安南區","LI":"梅花里","LIN":"12鄰","STREET":"安中路","SECT":"一段","MAREA":" ","LANE":"７０１巷","ALLEY":" ","HOUSE_NO":"７６號","E_COORD97":167374.97,"N_COORD97":2549042.6000000001,"ADDRESS":"安中路一段７０１巷７６號","OBJECTID":367536},"geometry":{"x":167374.96999999974,"y":2549042.6000000015}},{"attributes":{"ID":367547,"DIS_CODE":0,"TOWNNAME":"安南區","LI":"梅花里","LIN":"12鄰","STREET":"安中路","SECT":"一段","MAREA":" ","LANE":"７０１巷","ALLEY":" ","HOUSE_NO":"７８號","E_COORD97":167367.95000000001,"N_COORD97":2549037.5,"ADDRESS":"安中路一段７０１巷７８號","OBJECTID":367537},"geometry":{"x":167367.95000000205,"y":2549037.5}},{"attributes":{"ID":367548,"DIS_CODE":0,"TOWNNAME":"安南區","LI":"梅花里","LIN":"12鄰","STREET":"安中路","SECT":"一段","MAREA":" ","LANE":"７０１巷","ALLEY":" ","HOUSE_NO":"８０號之１","E_COORD97":167362,"N_COORD97":2549032.8199999998,"ADDRESS":"安中路一段７０１巷８０號之１","OBJECTID":367538},"geometry":{"x":167362,"y":2549032.8200000003}},{"attributes":{"ID":367549,"DIS_CODE":0,"TOWNNAME":"安南區","LI":"梅花里","LIN":"12鄰","STREET":"安中路","SECT":"一段","MAREA":" ","LANE":"７０１巷","ALLEY":" ","HOUSE_NO":"８２號之１","E_COORD97":167357.31,"N_COORD97":2549028.3599999999,"ADDRESS":"安中路一段７０１巷８２號之１","OBJECTID":367539},"geometry":{"x":167357.30999999959,"y":2549028.3599999994}},{"attributes":{"ID":367550,"DIS_CODE":0,"TOWNNAME":"新化區","LI":"武安里","LIN":"13鄰","STREET":"健康路","SECT":" ","MAREA":" ","LANE":" ","ALLEY":" ","HOUSE_NO":"２０號","E_COORD97":178926.78,"N_COORD97":2548024.2599999998,"ADDRESS":"健康路２０號","OBJECTID":367540},"geometry":{"x":178926.78000000026,"y":2548024.2600000016}},{"attributes":{"ID":367551,"DIS_CODE":0,"TOWNNAME":"新化區","LI":"武安里","LIN":"13鄰","STREET":"健康路","SECT":" ","MAREA":" ","LANE":" ","ALLEY":" ","HOUSE_NO":"７號","E_COORD97":178917.03,"N_COORD97":2548015.2599999998,"ADDRESS":"健康路７號","OBJECTID":367541},"geometry":{"x":178917.03000000119,"y":2548015.2599999998}},{"attributes":{"ID":367552,"DIS_CODE":0,"TOWNNAME":"善化區","LI":"坐駕里","LIN":"13鄰","STREET":"自強路","SECT":" ","MAREA":" ","LANE":" ","ALLEY":" ","HOUSE_NO":"４６號","E_COORD97":178178.23999999999,"N_COORD97":2558748.25,"ADDRESS":"自強路４６號","OBJECTID":367542},"geometry":{"x":178178.24000000115,"y":2558748.2500000019}},{"attributes":{"ID":367553,"DIS_CODE":0,"TOWNNAME":"安南區","LI":"城南里","LIN":"13鄰","STREET":"城西街","SECT":"二段","MAREA":" ","LANE":" ","ALLEY":" ","HOUSE_NO":"２３７號","E_COORD97":159761.79999999999,"N_COORD97":2550981.2999999998,"ADDRESS":"城西街二段２３７號","OBJECTID":367543},"geometry":{"x":159761.79999999981,"y":2550981.3000000026}},{"attributes":{"ID":367554,"DIS_CODE":0,"TOWNNAME":"安南區","LI":"城南里","LIN":"13鄰","STREET":"城西街","SECT":"二段","MAREA":" ","LANE":" ","ALLEY":" ","HOUSE_NO":"２３９號","E_COORD97":159752.04000000001,"N_COORD97":2550977.9300000002,"ADDRESS":"城西街二段２３９號","OBJECTID":367544},"geometry":{"x":159752.04000000004,"y":2550977.9299999978}},{"attributes":{"ID":367555,"DIS_CODE":0,"TOWNNAME":"安南區","LI":"城南里","LIN":"13鄰","STREET":"城西街","SECT":"二段","MAREA":" ","LANE":" ","ALLEY":" ","HOUSE_NO":"２４１號","E_COORD97":159747.16,"N_COORD97":2550980.3599999999,"ADDRESS":"城西街二段２４１號","OBJECTID":367545},"geometry":{"x":159747.16000000108,"y":2550980.3599999994}},{"attributes":{"ID":367556,"DIS_CODE":0,"TOWNNAME":"安南區","LI":"城南里","LIN":"13鄰","STREET":"城西街","SECT":"二段","MAREA":" ","LANE":" ","ALLEY":" ","HOUSE_NO":"２４３號","E_COORD97":159743.5,"N_COORD97":2550976.71,"ADDRESS":"城西街二段２４３號","OBJECTID":367546},"geometry":{"x":159743.5,"y":2550976.7100000009}},{"attributes":{"ID":367557,"DIS_CODE":0,"TOWNNAME":"安南區","LI":"城南里","LIN":"13鄰","STREET":"城西街","SECT":"二段","MAREA":" ","LANE":" ","ALLEY":" ","HOUSE_NO":"２５１號","E_COORD97":159727.34,"N_COORD97":2550973.3599999999,"ADDRESS":"城西街二段２５１號","OBJECTID":367547},"geometry":{"x":159727.33999999985,"y":2550973.3599999994}},{"attributes":{"ID":367558,"DIS_CODE":0,"TOWNNAME":"安南區","LI":"城南里","LIN":"13鄰","STREET":"城西街","SECT":"二段","MAREA":" ","LANE":" ","ALLEY":" ","HOUSE_NO":"２５７號","E_COORD97":159708.13,"N_COORD97":2550969.1000000001,"ADDRESS":"城西街二段２５７號","OBJECTID":367548},"geometry":{"x":159708.13000000082,"y":2550969.0999999996}},{"attributes":{"ID":367559,"DIS_CODE":0,"TOWNNAME":"安平區","LI":"億載里","LIN":"13鄰","STREET":"健康四街","SECT":" ","MAREA":" ","LANE":"９５巷","ALLEY":" ","HOUSE_NO":"６０號","E_COORD97":164022.35000000001,"N_COORD97":2543256.2200000002,"ADDRESS":"健康四街９５巷６０號","OBJECTID":367549},"geometry":{"x":164022.35000000056,"y":2543256.2200000007}},{"attributes":{"ID":367560,"DIS_CODE":0,"TOWNNAME":"安平區","LI":"億載里","LIN":"13鄰","STREET":"健康四街","SECT":" ","MAREA":" ","LANE":"９５巷","ALLEY":" ","HOUSE_NO":"６２號","E_COORD97":164016,"N_COORD97":2543256.2200000002,"ADDRESS":"健康四街９５巷６２號","OBJECTID":367550},"geometry":{"x":164016.00000000186,"y":2543256.2200000007}},{"attributes":{"ID":367561,"DIS_CODE":0,"TOWNNAME":"安平區","LI":"億載里","LIN":"13鄰","STREET":"健康四街","SECT":" ","MAREA":" ","LANE":"９５巷","ALLEY":" ","HOUSE_NO":"２６號","E_COORD97":164125.69,"N_COORD97":2543262.1400000001,"ADDRESS":"健康四街９５巷２６號","OBJECTID":367551},"geometry":{"x":164125.69000000134,"y":2543262.1400000025}},{"attributes":{"ID":367562,"DIS_CODE":0,"TOWNNAME":"安平區","LI":"金城里","LIN":"13鄰","STREET":"世平一街","SECT":" ","MAREA":" ","LANE":"７２巷","ALLEY":" ","HOUSE_NO":"１６號","E_COORD97":162806.95000000001,"N_COORD97":2543976.3399999999,"ADDRESS":"世平一街７２巷１６號","OBJECTID":367552},"geometry":{"x":162806.95000000112,"y":2543976.3399999999}},{"attributes":{"ID":367563,"DIS_CODE":0,"TOWNNAME":"安南區","LI":"梅花里","LIN":"12鄰","STREET":"安中路","SECT":"一段","MAREA":" ","LANE":"７０１巷","ALLEY":" ","HOUSE_NO":"８４號","E_COORD97":167351.57000000001,"N_COORD97":2549021.98,"ADDRESS":"安中路一段７０１巷８４號","OBJECTID":367553},"geometry":{"x":167351.5700000003,"y":2549021.9800000004}},{"attributes":{"ID":367564,"DIS_CODE":0,"TOWNNAME":"安南區","LI":"梅花里","LIN":"12鄰","STREET":"安中路","SECT":"一段","MAREA":" ","LANE":"７０１巷","ALLEY":" ","HOUSE_NO":"８６號之１","E_COORD97":167344.12,"N_COORD97":2549017.0899999999,"ADDRESS":"安中路一段７０１巷８６號之１","OBJECTID":367554},"geometry":{"x":167344.12000000011,"y":2549017.0899999999}},{"attributes":{"ID":367565,"DIS_CODE":0,"TOWNNAME":"安南區","LI":"梅花里","LIN":"12鄰","STREET":"安中路","SECT":"一段","MAREA":" ","LANE":"７０１巷","ALLEY":" ","HOUSE_NO":"８８號","E_COORD97":167336.67999999999,"N_COORD97":2549011.5600000001,"ADDRESS":"安中路一段７０１巷８８號","OBJECTID":367555},"geometry":{"x":167336.6799999997,"y":2549011.5600000042}},{"attributes":{"ID":367566,"DIS_CODE":0,"TOWNNAME":"安南區","LI":"梅花里","LIN":"12鄰","STREET":"安中路","SECT":"一段","MAREA":" ","LANE":"７０１巷","ALLEY":" ","HOUSE_NO":"９０號之２","E_COORD97":167331.14999999999,"N_COORD97":2549005.3999999999,"ADDRESS":"安中路一段７０１巷９０號之２","OBJECTID":367556},"geometry":{"x":167331.15000000224,"y":2549005.4000000004}},{"attributes":{"ID":367567,"DIS_CODE":0,"TOWNNAME":"安南區","LI":"城南里","LIN":"13鄰","STREET":"城西街","SECT":"二段","MAREA":" ","LANE":" ","ALLEY":" ","HOUSE_NO":"２５９號","E_COORD97":159702.94,"N_COORD97":2550969.71,"ADDRESS":"城西街二段２５９號","OBJECTID":367557},"geometry":{"x":159702.94000000134,"y":2550969.7100000009}},{"attributes":{"ID":367568,"DIS_CODE":0,"TOWNNAME":"善化區","LI":"坐駕里","LIN":"13鄰","STREET":"自立路","SECT":" ","MAREA":" ","LANE":" ","ALLEY":" ","HOUSE_NO":"１２號","E_COORD97":178258.01999999999,"N_COORD97":2558678.5,"ADDRESS":"自立路１２號","OBJECTID":367558},"geometry":{"x":178258.01999999955,"y":2558678.5000000019}},{"attributes":{"ID":367569,"DIS_CODE":0,"TOWNNAME":"東區","LI":"東光里","LIN":"13鄰","STREET":"東平路","SECT":" ","MAREA":" ","LANE":" ","ALLEY":" ","HOUSE_NO":"５３號","E_COORD97":171292.04999999999,"N_COORD97":2543919.4199999999,"ADDRESS":"東平路５３號","OBJECTID":367559},"geometry":{"x":171292.05000000075,"y":2543919.4199999981}},{"attributes":{"ID":367570,"DIS_CODE":0,"TOWNNAME":"東區","LI":"東光里","LIN":"13鄰","STREET":"東平路","SECT":" ","MAREA":" ","LANE":" ","ALLEY":" ","HOUSE_NO":"５７號","E_COORD97":171283.04999999999,"N_COORD97":2543921.02,"ADDRESS":"東平路５７號","OBJECTID":367560},"geometry":{"x":171283.05000000075,"y":2543921.0199999996}},{"attributes":{"ID":367571,"DIS_CODE":0,"TOWNNAME":"安南區","LI":"海南里","LIN":"13鄰","STREET":"府安路","SECT":"七段","MAREA":" ","LANE":" ","ALLEY":" ","HOUSE_NO":"４０號","E_COORD97":166015.51999999999,"N_COORD97":2545955.6200000001,"ADDRESS":"府安路七段４０號","OBJECTID":367561},"geometry":{"x":166015.51999999955,"y":2545955.620000001}},{"attributes":{"ID":367572,"DIS_CODE":0,"TOWNNAME":"南區","LI":"新興里","LIN":"13鄰","STREET":"夏林路","SECT":" ","MAREA":" ","LANE":"２２２巷","ALLEY":" ","HOUSE_NO":"１１號","E_COORD97":167415.17000000001,"N_COORD97":2542220.2200000002,"ADDRESS":"夏林路２２２巷１１號","OBJECTID":367562},"geometry":{"x":167415.16999999993,"y":2542220.2200000025}},{"attributes":{"ID":367573,"DIS_CODE":0,"TOWNNAME":"安南區","LI":"梅花里","LIN":"12鄰","STREET":"安中路","SECT":"一段","MAREA":" ","LANE":"７０１巷","ALLEY":" ","HOUSE_NO":"９２號之１","E_COORD97":167324.54999999999,"N_COORD97":2549000.9300000002,"ADDRESS":"安中路一段７０１巷９２號之１","OBJECTID":367563},"geometry":{"x":167324.55000000168,"y":2549000.9299999997}},{"attributes":{"ID":367574,"DIS_CODE":0,"TOWNNAME":"永康區","LI":"中興里","LIN":"12鄰","STREET":"中興街","SECT":" ","MAREA":" ","LANE":"３５巷","ALLEY":" ","HOUSE_NO":"２０號","E_COORD97":172006.64000000001,"N_COORD97":2545187.5,"ADDRESS":"中興街３５巷２０號","OBJECTID":367564},"geometry":{"x":172006.6400000006,"y":2545187.5000000019}},{"attributes":{"ID":367575,"DIS_CODE":0,"TOWNNAME":"永康區","LI":"中興里","LIN":"12鄰","STREET":"中興街","SECT":" ","MAREA":" ","LANE":"４５巷","ALLEY":" ","HOUSE_NO":"６號","E_COORD97":172056.38,"N_COORD97":2545221.6400000001,"ADDRESS":"中興街４５巷６號","OBJECTID":367565},"geometry":{"x":172056.37999999989,"y":2545221.6400000025}},{"attributes":{"ID":367576,"DIS_CODE":0,"TOWNNAME":"永康區","LI":"中興里","LIN":"12鄰","STREET":"中興街","SECT":" ","MAREA":" ","LANE":"４５巷","ALLEY":" ","HOUSE_NO":"１號","E_COORD97":172074.78,"N_COORD97":2545214.9700000002,"ADDRESS":"中興街４５巷１號","OBJECTID":367566},"geometry":{"x":172074.78000000026,"y":2545214.9699999988}},{"attributes":{"ID":367577,"DIS_CODE":0,"TOWNNAME":"永康區","LI":"中興里","LIN":"12鄰","STREET":"中興街","SECT":" ","MAREA":" ","LANE":"３５巷","ALLEY":" ","HOUSE_NO":"１２號","E_COORD97":172047.76999999999,"N_COORD97":2545194,"ADDRESS":"中興街３５巷１２號","OBJECTID":367567},"geometry":{"x":172047.77000000048,"y":2545194.0000000037}},{"attributes":{"ID":367578,"DIS_CODE":0,"TOWNNAME":"永康區","LI":"三民里","LIN":"12鄰","STREET":"和平路","SECT":" ","MAREA":" ","LANE":"２５１巷","ALLEY":" ","HOUSE_NO":"４號","E_COORD97":174717.25,"N_COORD97":2550791.25,"ADDRESS":"和平路２５１巷４號","OBJECTID":367568},"geometry":{"x":174717.25,"y":2550791.2500000019}},{"attributes":{"ID":367579,"DIS_CODE":0,"TOWNNAME":"永康區","LI":"二王里","LIN":"12鄰","STREET":"永二街","SECT":" ","MAREA":" ","LANE":"４４７巷","ALLEY":" ","HOUSE_NO":"５７號","E_COORD97":172817.12,"N_COORD97":2546556.73,"ADDRESS":"永二街４４７巷５７號","OBJECTID":367569},"geometry":{"x":172817.12000000104,"y":2546556.7300000023}},{"attributes":{"ID":367580,"DIS_CODE":0,"TOWNNAME":"安南區","LI":"溪東里","LIN":"12鄰","STREET":"北安路","SECT":"二段","MAREA":" ","LANE":"６３巷","ALLEY":" ","HOUSE_NO":"１３號","E_COORD97":168433.01000000001,"N_COORD97":2547360,"ADDRESS":"北安路二段６３巷１３號","OBJECTID":367570},"geometry":{"x":168433.00999999978,"y":2547360}},{"attributes":{"ID":367581,"DIS_CODE":0,"TOWNNAME":"安南區","LI":"溪東里","LIN":"12鄰","STREET":"北安路","SECT":"二段","MAREA":" ","LANE":"６３巷","ALLEY":" ","HOUSE_NO":"１４號","E_COORD97":168429.48000000001,"N_COORD97":2547390.21,"ADDRESS":"北安路二段６３巷１４號","OBJECTID":367571},"geometry":{"x":168429.48000000138,"y":2547390.209999999}},{"attributes":{"ID":367582,"DIS_CODE":0,"TOWNNAME":"安南區","LI":"溪東里","LIN":"12鄰","STREET":"北安路","SECT":"二段","MAREA":" ","LANE":"６３巷","ALLEY":" ","HOUSE_NO":"１５號","E_COORD97":168425.79999999999,"N_COORD97":2547365.73,"ADDRESS":"北安路二段６３巷１５號","OBJECTID":367572},"geometry":{"x":168425.79999999981,"y":2547365.7300000004}},{"attributes":{"ID":367583,"DIS_CODE":0,"TOWNNAME":"安南區","LI":"溪東里","LIN":"12鄰","STREET":"北安路","SECT":"二段","MAREA":" ","LANE":"６３巷","ALLEY":" ","HOUSE_NO":"１６號","E_COORD97":168423.26999999999,"N_COORD97":2547386.4500000002,"ADDRESS":"北安路二段６３巷１６號","OBJECTID":367573},"geometry":{"x":168423.27000000048,"y":2547386.4499999993}},{"attributes":{"ID":367584,"DIS_CODE":0,"TOWNNAME":"安南區","LI":"溪東里","LIN":"12鄰","STREET":"北安路","SECT":"二段","MAREA":" ","LANE":"６３巷","ALLEY":" ","HOUSE_NO":"２１號","E_COORD97":168407.23999999999,"N_COORD97":2547356.0499999998,"ADDRESS":"北安路二段６３巷２１號","OBJECTID":367574},"geometry":{"x":168407.24000000115,"y":2547356.0500000007}},{"attributes":{"ID":367585,"DIS_CODE":0,"TOWNNAME":"安南區","LI":"溪東里","LIN":"12鄰","STREET":"北安路","SECT":"二段","MAREA":" ","LANE":"６３巷","ALLEY":" ","HOUSE_NO":"２２號","E_COORD97":168404.10999999999,"N_COORD97":2547384.2000000002,"ADDRESS":"北安路二段６３巷２２號","OBJECTID":367575},"geometry":{"x":168404.11000000034,"y":2547384.1999999993}},{"attributes":{"ID":367586,"DIS_CODE":0,"TOWNNAME":"安南區","LI":"溪東里","LIN":"12鄰","STREET":"北安路","SECT":"二段","MAREA":" ","LANE":"６３巷","ALLEY":" ","HOUSE_NO":"２３號","E_COORD97":168400.19,"N_COORD97":2547359.8199999998,"ADDRESS":"北安路二段６３巷２３號","OBJECTID":367576},"geometry":{"x":168400.19000000041,"y":2547359.8200000022}},{"attributes":{"ID":367587,"DIS_CODE":0,"TOWNNAME":"安南區","LI":"溪東里","LIN":"12鄰","STREET":"北安路","SECT":"二段","MAREA":" ","LANE":"６３巷","ALLEY":" ","HOUSE_NO":"２４號","E_COORD97":168397.95000000001,"N_COORD97":2547380.25,"ADDRESS":"北安路二段６３巷２４號","OBJECTID":367577},"geometry":{"x":168397.95000000019,"y":2547380.2500000019}},{"attributes":{"ID":367588,"DIS_CODE":0,"TOWNNAME":"安南區","LI":"溪東里","LIN":"12鄰","STREET":"北安路","SECT":"二段","MAREA":" ","LANE":"６３巷","ALLEY":" ","HOUSE_NO":"２５號","E_COORD97":168394.78,"N_COORD97":2547354.25,"ADDRESS":"北安路二段６３巷２５號","OBJECTID":367578},"geometry":{"x":168394.78000000212,"y":2547354.25}},{"attributes":{"ID":367589,"DIS_CODE":0,"TOWNNAME":"安南區","LI":"溪東里","LIN":"12鄰","STREET":"北安路","SECT":"二段","MAREA":" ","LANE":"６３巷","ALLEY":" ","HOUSE_NO":"２７號","E_COORD97":168387.07000000001,"N_COORD97":2547358.8399999999,"ADDRESS":"北安路二段６３巷２７號","OBJECTID":367579},"geometry":{"x":168387.0700000003,"y":2547358.8400000017}},{"attributes":{"ID":367590,"DIS_CODE":0,"TOWNNAME":"安南區","LI":"溪東里","LIN":"12鄰","STREET":"北安路","SECT":"二段","MAREA":" ","LANE":"６３巷","ALLEY":" ","HOUSE_NO":"２８號","E_COORD97":168384.10999999999,"N_COORD97":2547382.6899999999,"ADDRESS":"北安路二段６３巷２８號","OBJECTID":367580},"geometry":{"x":168384.1100000022,"y":2547382.6900000013}},{"attributes":{"ID":367591,"DIS_CODE":0,"TOWNNAME":"安南區","LI":"溪東里","LIN":"12鄰","STREET":"北安路","SECT":"二段","MAREA":" ","LANE":"６３巷","ALLEY":" ","HOUSE_NO":"２９號","E_COORD97":168381.48999999999,"N_COORD97":2547353.1099999999,"ADDRESS":"北安路二段６３巷２９號","OBJECTID":367581},"geometry":{"x":168381.49000000209,"y":2547353.1100000013}},{"attributes":{"ID":367592,"DIS_CODE":0,"TOWNNAME":"安南區","LI":"溪東里","LIN":"12鄰","STREET":"北安路","SECT":"二段","MAREA":" ","LANE":"６３巷","ALLEY":" ","HOUSE_NO":"３０號","E_COORD97":168378.41,"N_COORD97":2547378.8599999999,"ADDRESS":"北安路二段６３巷３０號","OBJECTID":367582},"geometry":{"x":168378.40999999922,"y":2547378.8600000013}},{"attributes":{"ID":367593,"DIS_CODE":0,"TOWNNAME":"安南區","LI":"溪東里","LIN":"12鄰","STREET":"北安路","SECT":"二段","MAREA":" ","LANE":"６３巷","ALLEY":" ","HOUSE_NO":"３１號","E_COORD97":168374.76999999999,"N_COORD97":2547358.02,"ADDRESS":"北安路二段６３巷３１號","OBJECTID":367583},"geometry":{"x":168374.76999999955,"y":2547358.0200000014}},{"attributes":{"ID":367594,"DIS_CODE":0,"TOWNNAME":"安南區","LI":"溪東里","LIN":"12鄰","STREET":"北安路","SECT":"二段","MAREA":" ","LANE":"６３巷","ALLEY":" ","HOUSE_NO":"３２號","E_COORD97":168371.32000000001,"N_COORD97":2547381.8799999999,"ADDRESS":"北安路二段６３巷３２號","OBJECTID":367584},"geometry":{"x":168371.32000000123,"y":2547381.8800000008}},{"attributes":{"ID":367595,"DIS_CODE":0,"TOWNNAME":"安南區","LI":"溪東里","LIN":"12鄰","STREET":"北安路","SECT":"二段","MAREA":" ","LANE":"６３巷","ALLEY":" ","HOUSE_NO":"３３號","E_COORD97":168367.72,"N_COORD97":2547354.7400000002,"ADDRESS":"北安路二段６３巷３３號","OBJECTID":367585},"geometry":{"x":168367.72000000067,"y":2547354.7400000002}},{"attributes":{"ID":367596,"DIS_CODE":0,"TOWNNAME":"安南區","LI":"溪東里","LIN":"12鄰","STREET":"北安路","SECT":"二段","MAREA":" ","LANE":"６３巷","ALLEY":" ","HOUSE_NO":"３４號","E_COORD97":168365.39000000001,"N_COORD97":2547378.0499999998,"ADDRESS":"北安路二段６３巷３４號","OBJECTID":367586},"geometry":{"x":168365.3900000006,"y":2547378.0500000045}},{"attributes":{"ID":367597,"DIS_CODE":0,"TOWNNAME":"安南區","LI":"溪東里","LIN":"12鄰","STREET":"北安路","SECT":"二段","MAREA":" ","LANE":"６３巷","ALLEY":" ","HOUSE_NO":"３５號","E_COORD97":168361.07000000001,"N_COORD97":2547358.6800000002,"ADDRESS":"北安路二段６３巷３５號","OBJECTID":367587},"geometry":{"x":168361.07000000123,"y":2547358.6799999978}},{"attributes":{"ID":367598,"DIS_CODE":0,"TOWNNAME":"安南區","LI":"溪東里","LIN":"12鄰","STREET":"北安路","SECT":"二段","MAREA":" ","LANE":"６３巷","ALLEY":" ","HOUSE_NO":"３７號","E_COORD97":168354.67999999999,"N_COORD97":2547354.5899999999,"ADDRESS":"北安路二段６３巷３７號","OBJECTID":367588},"geometry":{"x":168354.68000000063,"y":2547354.5899999999}},{"attributes":{"ID":367599,"DIS_CODE":0,"TOWNNAME":"安南區","LI":"溪東里","LIN":"12鄰","STREET":"北安路","SECT":"二段","MAREA":" ","LANE":"６３巷","ALLEY":" ","HOUSE_NO":"３８號","E_COORD97":168352.03,"N_COORD97":2547380.1899999999,"ADDRESS":"北安路二段６３巷３８號","OBJECTID":367589},"geometry":{"x":168352.03000000026,"y":2547380.1900000013}},{"attributes":{"ID":367600,"DIS_CODE":0,"TOWNNAME":"安南區","LI":"溪東里","LIN":"12鄰","STREET":"北安路","SECT":"二段","MAREA":" ","LANE":"６３巷","ALLEY":" ","HOUSE_NO":"３號","E_COORD97":168471.64999999999,"N_COORD97":2547366.0899999999,"ADDRESS":"北安路二段６３巷３號","OBJECTID":367590},"geometry":{"x":168471.65000000037,"y":2547366.0899999999}},{"attributes":{"ID":367601,"DIS_CODE":0,"TOWNNAME":"安南區","LI":"溪東里","LIN":"12鄰","STREET":"北安路","SECT":"二段","MAREA":" ","LANE":"６３巷","ALLEY":" ","HOUSE_NO":"４０號","E_COORD97":168345.57000000001,"N_COORD97":2547379.3399999999,"ADDRESS":"北安路二段６３巷４０號","OBJECTID":367591},"geometry":{"x":168345.57000000123,"y":2547379.3400000017}},{"attributes":{"ID":367602,"DIS_CODE":0,"TOWNNAME":"安南區","LI":"溪東里","LIN":"12鄰","STREET":"北安路","SECT":"二段","MAREA":" ","LANE":"６３巷","ALLEY":" ","HOUSE_NO":"４２號","E_COORD97":168339.42000000001,"N_COORD97":2547376.9100000001,"ADDRESS":"北安路二段６３巷４２號","OBJECTID":367592},"geometry":{"x":168339.42000000086,"y":2547376.9100000001}},{"attributes":{"ID":367603,"DIS_CODE":0,"TOWNNAME":"安南區","LI":"海南里","LIN":"13鄰","STREET":"府安路","SECT":"七段","MAREA":" ","LANE":" ","ALLEY":" ","HOUSE_NO":"４１號","E_COORD97":166012.75,"N_COORD97":2545953.1800000002,"ADDRESS":"府安路七段４１號","OBJECTID":367593},"geometry":{"x":166012.75,"y":2545953.1800000016}},{"attributes":{"ID":367604,"DIS_CODE":0,"TOWNNAME":"安南區","LI":"海南里","LIN":"13鄰","STREET":"府安路","SECT":"七段","MAREA":" ","LANE":" ","ALLEY":" ","HOUSE_NO":"４２號","E_COORD97":166008.19,"N_COORD97":2545951.2400000002,"ADDRESS":"府安路七段４２號","OBJECTID":367594},"geometry":{"x":166008.19000000041,"y":2545951.2400000002}},{"attributes":{"ID":367605,"DIS_CODE":0,"TOWNNAME":"南區","LI":"新興里","LIN":"13鄰","STREET":"夏林路","SECT":" ","MAREA":" ","LANE":"２２２巷","ALLEY":" ","HOUSE_NO":"１２號","E_COORD97":167407.66,"N_COORD97":2542263.1800000002,"ADDRESS":"夏林路２２２巷１２號","OBJECTID":367595},"geometry":{"x":167407.66000000108,"y":2542263.1800000034}},{"attributes":{"ID":367606,"DIS_CODE":0,"TOWNNAME":"南區","LI":"新興里","LIN":"13鄰","STREET":"夏林路","SECT":" ","MAREA":" ","LANE":"２２２巷","ALLEY":" ","HOUSE_NO":"１３號","E_COORD97":167410.97,"N_COORD97":2542221.6200000001,"ADDRESS":"夏林路２２２巷１３號","OBJECTID":367596},"geometry":{"x":167410.96999999974,"y":2542221.6200000029}},{"attributes":{"ID":367607,"DIS_CODE":0,"TOWNNAME":"南區","LI":"新興里","LIN":"13鄰","STREET":"夏林路","SECT":" ","MAREA":" ","LANE":"２２２巷","ALLEY":" ","HOUSE_NO":"１４號","E_COORD97":167390.14999999999,"N_COORD97":2542255.8999999999,"ADDRESS":"夏林路２２２巷１４號","OBJECTID":367597},"geometry":{"x":167390.15000000037,"y":2542255.9000000022}},{"attributes":{"ID":367608,"DIS_CODE":0,"TOWNNAME":"南區","LI":"新興里","LIN":"13鄰","STREET":"夏林路","SECT":" ","MAREA":" ","LANE":"２２２巷","ALLEY":" ","HOUSE_NO":"１５號","E_COORD97":167407.76000000001,"N_COORD97":2542223.8199999998,"ADDRESS":"夏林路２２２巷１５號","OBJECTID":367598},"geometry":{"x":167407.76000000164,"y":2542223.8200000003}},{"attributes":{"ID":367609,"DIS_CODE":0,"TOWNNAME":"南區","LI":"新興里","LIN":"13鄰","STREET":"夏林路","SECT":" ","MAREA":" ","LANE":"２２２巷","ALLEY":" ","HOUSE_NO":"３１號","E_COORD97":167380.95000000001,"N_COORD97":2542230.2200000002,"ADDRESS":"夏林路２２２巷３１號","OBJECTID":367599},"geometry":{"x":167380.95000000019,"y":2542230.2200000044}},{"attributes":{"ID":367610,"DIS_CODE":0,"TOWNNAME":"南區","LI":"新興里","LIN":"13鄰","STREET":"夏林路","SECT":" ","MAREA":" ","LANE":"２２２巷","ALLEY":" ","HOUSE_NO":"４號","E_COORD97":167428.98000000001,"N_COORD97":2542241.1099999999,"ADDRESS":"夏林路２２２巷４號","OBJECTID":367600},"geometry":{"x":167428.98000000231,"y":2542241.1100000013}}]}