{"displayFieldName":"TOWNNAME","fieldAliases":{"ID":"ID","DIS_CODE":"DIS_CODE","TOWNNAME":"TOWNNAME","LI":"LI","LIN":"LIN","STREET":"STREET","SECT":"SECT","MAREA":"MAREA","LANE":"LANE","ALLEY":"ALLEY","HOUSE_NO":"HOUSE_NO","E_COORD97":"E_COORD97","N_COORD97":"N_COORD97","ADDRESS":"ADDRESS","OBJECTID":"OBJECTID"},"geometryType":"esriGeometryPoint","spatialReference":{"wkid":102443,"latestWkid":3826},"fields":[{"name":"ID","type":"esriFieldTypeDouble","alias":"ID"},{"name":"DIS_CODE","type":"esriFieldTypeInteger","alias":"DIS_CODE"},{"name":"TOWNNAME","type":"esriFieldTypeString","alias":"TOWNNAME","length":8},{"name":"LI","type":"esriFieldTypeString","alias":"LI","length":8},{"name":"LIN","type":"esriFieldTypeString","alias":"LIN","length":12},{"name":"STREET","type":"esriFieldTypeString","alias":"STREET","length":20},{"name":"SECT","type":"esriFieldTypeString","alias":"SECT","length":8},{"name":"MAREA","type":"esriFieldTypeString","alias":"MAREA","length":12},{"name":"LANE","type":"esriFieldTypeString","alias":"LANE","length":10},{"name":"ALLEY","type":"esriFieldTypeString","alias":"ALLEY","length":10},{"name":"HOUSE_NO","type":"esriFieldTypeString","alias":"HOUSE_NO","length":20},{"name":"E_COORD97","type":"esriFieldTypeDouble","alias":"E_COORD97"},{"name":"N_COORD97","type":"esriFieldTypeDouble","alias":"N_COORD97"},{"name":"ADDRESS","type":"esriFieldTypeString","alias":"ADDRESS","length":50},{"name":"OBJECTID","type":"esriFieldTypeOID","alias":"OBJECTID"}],"features":[{"attributes":{"ID":448226,"DIS_CODE":0,"TOWNNAME":"東區","LI":"成大里","LIN":"18鄰","STREET":"前鋒路","SECT":" ","MAREA":" ","LANE":"１５４巷","ALLEY":" ","HOUSE_NO":"１２號","E_COORD97":169377.54999999999,"N_COORD97":2543975.5299999998,"ADDRESS":"前鋒路１５４巷１２號","OBJECTID":448201},"geometry":{"x":169377.55000000075,"y":2543975.5299999993}},{"attributes":{"ID":448227,"DIS_CODE":0,"TOWNNAME":"東區","LI":"成大里","LIN":"18鄰","STREET":"前鋒路","SECT":" ","MAREA":" ","LANE":"１５４巷","ALLEY":" ","HOUSE_NO":"１３號","E_COORD97":169392.98000000001,"N_COORD97":2544025.6099999999,"ADDRESS":"前鋒路１５４巷１３號","OBJECTID":448202},"geometry":{"x":169392.98000000045,"y":2544025.6099999994}},{"attributes":{"ID":448228,"DIS_CODE":0,"TOWNNAME":"東區","LI":"成大里","LIN":"18鄰","STREET":"前鋒路","SECT":" ","MAREA":" ","LANE":"１５４巷","ALLEY":" ","HOUSE_NO":"１４號","E_COORD97":169378.01999999999,"N_COORD97":2543978.7999999998,"ADDRESS":"前鋒路１５４巷１４號","OBJECTID":448203},"geometry":{"x":169378.02000000048,"y":2543978.8000000045}},{"attributes":{"ID":448229,"DIS_CODE":0,"TOWNNAME":"東區","LI":"成大里","LIN":"18鄰","STREET":"前鋒路","SECT":" ","MAREA":" ","LANE":"１５４巷","ALLEY":" ","HOUSE_NO":"１５號","E_COORD97":169393.29000000001,"N_COORD97":2544032.7599999998,"ADDRESS":"前鋒路１５４巷１５號","OBJECTID":448204},"geometry":{"x":169393.29000000097,"y":2544032.7600000016}},{"attributes":{"ID":448230,"DIS_CODE":0,"TOWNNAME":"東區","LI":"成大里","LIN":"18鄰","STREET":"前鋒路","SECT":" ","MAREA":" ","LANE":"１５４巷","ALLEY":" ","HOUSE_NO":"１６號","E_COORD97":169378.79999999999,"N_COORD97":2543981.9100000001,"ADDRESS":"前鋒路１５４巷１６號","OBJECTID":448205},"geometry":{"x":169378.79999999981,"y":2543981.910000002}},{"attributes":{"ID":448231,"DIS_CODE":0,"TOWNNAME":"東區","LI":"成大里","LIN":"18鄰","STREET":"前鋒路","SECT":" ","MAREA":" ","LANE":"１５４巷","ALLEY":" ","HOUSE_NO":"１７號","E_COORD97":169393.13,"N_COORD97":2544040.0699999998,"ADDRESS":"前鋒路１５４巷１７號","OBJECTID":448206},"geometry":{"x":169393.12999999989,"y":2544040.0700000003}},{"attributes":{"ID":448232,"DIS_CODE":0,"TOWNNAME":"東區","LI":"成大里","LIN":"18鄰","STREET":"前鋒路","SECT":" ","MAREA":" ","LANE":"１５４巷","ALLEY":" ","HOUSE_NO":"１８號","E_COORD97":169379.42000000001,"N_COORD97":2543984.8599999999,"ADDRESS":"前鋒路１５４巷１８號","OBJECTID":448207},"geometry":{"x":169379.41999999993,"y":2543984.8600000013}},{"attributes":{"ID":448233,"DIS_CODE":0,"TOWNNAME":"東區","LI":"成大里","LIN":"18鄰","STREET":"前鋒路","SECT":" ","MAREA":" ","LANE":"１５４巷","ALLEY":" ","HOUSE_NO":"１９號","E_COORD97":169392.97,"N_COORD97":2544053.4100000001,"ADDRESS":"前鋒路１５４巷１９號","OBJECTID":448208},"geometry":{"x":169392.96999999881,"y":2544053.410000002}},{"attributes":{"ID":448234,"DIS_CODE":0,"TOWNNAME":"東區","LI":"成大里","LIN":"18鄰","STREET":"前鋒路","SECT":" ","MAREA":" ","LANE":"１５４巷","ALLEY":" ","HOUSE_NO":"４號","E_COORD97":169376,"N_COORD97":2543964.7999999998,"ADDRESS":"前鋒路１５４巷４號","OBJECTID":448209},"geometry":{"x":169376,"y":2543964.8000000007}},{"attributes":{"ID":448235,"DIS_CODE":0,"TOWNNAME":"東區","LI":"成大里","LIN":"18鄰","STREET":"前鋒路","SECT":" ","MAREA":" ","LANE":"１５４巷","ALLEY":" ","HOUSE_NO":"５號","E_COORD97":169376.38,"N_COORD97":2543986.25,"ADDRESS":"前鋒路１５４巷５號","OBJECTID":448210},"geometry":{"x":169376.37999999989,"y":2543986.2500000019}},{"attributes":{"ID":448236,"DIS_CODE":0,"TOWNNAME":"東區","LI":"成大里","LIN":"18鄰","STREET":"前鋒路","SECT":" ","MAREA":" ","LANE":"１５４巷","ALLEY":" ","HOUSE_NO":"６號","E_COORD97":169376,"N_COORD97":2543968.2200000002,"ADDRESS":"前鋒路１５４巷６號","OBJECTID":448211},"geometry":{"x":169376,"y":2543968.2200000007}},{"attributes":{"ID":448237,"DIS_CODE":0,"TOWNNAME":"東區","LI":"成大里","LIN":"18鄰","STREET":"前鋒路","SECT":" ","MAREA":" ","LANE":"１５４巷","ALLEY":" ","HOUSE_NO":"７號","E_COORD97":169390.54000000001,"N_COORD97":2544004.1200000001,"ADDRESS":"前鋒路１５４巷７號","OBJECTID":448212},"geometry":{"x":169390.54000000004,"y":2544004.1200000048}},{"attributes":{"ID":448238,"DIS_CODE":0,"TOWNNAME":"佳里區","LI":"建南里","LIN":"17鄰","STREET":"建南街","SECT":" ","MAREA":" ","LANE":"１０７巷","ALLEY":" ","HOUSE_NO":"４號","E_COORD97":165614.28,"N_COORD97":2562022.4500000002,"ADDRESS":"建南街１０７巷４號","OBJECTID":448213},"geometry":{"x":165614.28000000026,"y":2562022.4499999993}},{"attributes":{"ID":448239,"DIS_CODE":0,"TOWNNAME":"東區","LI":"成大里","LIN":"18鄰","STREET":"前鋒路","SECT":" ","MAREA":" ","LANE":"１５４巷","ALLEY":" ","HOUSE_NO":"８號","E_COORD97":169377.23999999999,"N_COORD97":2543970.5499999998,"ADDRESS":"前鋒路１５４巷８號","OBJECTID":448214},"geometry":{"x":169377.24000000115,"y":2543970.5500000045}},{"attributes":{"ID":448240,"DIS_CODE":0,"TOWNNAME":"東區","LI":"成大里","LIN":"18鄰","STREET":"前鋒路","SECT":" ","MAREA":" ","LANE":"１５４巷","ALLEY":" ","HOUSE_NO":"９號","E_COORD97":169390.67000000001,"N_COORD97":2544009.3700000001,"ADDRESS":"前鋒路１５４巷９號","OBJECTID":448215},"geometry":{"x":169390.67000000086,"y":2544009.3700000048}},{"attributes":{"ID":448241,"DIS_CODE":0,"TOWNNAME":"永康區","LI":"安康里","LIN":"18鄰","STREET":"中華路","SECT":" ","MAREA":" ","LANE":"６６１巷","ALLEY":" ","HOUSE_NO":"１０８號","E_COORD97":170796.51000000001,"N_COORD97":2546115.75,"ADDRESS":"中華路６６１巷１０８號","OBJECTID":448216},"geometry":{"x":170796.51000000164,"y":2546115.7500000019}},{"attributes":{"ID":448242,"DIS_CODE":0,"TOWNNAME":"南區","LI":"明興里","LIN":"18鄰","STREET":"德興路","SECT":" ","MAREA":" ","LANE":"１６４巷","ALLEY":" ","HOUSE_NO":"４０號一樓之１","E_COORD97":167076.60999999999,"N_COORD97":2540339.2400000002,"ADDRESS":"德興路１６４巷４０號一樓之１","OBJECTID":448217},"geometry":{"x":167076.61000000034,"y":2540339.2400000002}},{"attributes":{"ID":448243,"DIS_CODE":0,"TOWNNAME":"南區","LI":"明興里","LIN":"18鄰","STREET":"德興路","SECT":" ","MAREA":" ","LANE":"１６４巷","ALLEY":" ","HOUSE_NO":"４０號一樓之１０","E_COORD97":167076.60999999999,"N_COORD97":2540339.2400000002,"ADDRESS":"德興路１６４巷４０號一樓之１０","OBJECTID":448218},"geometry":{"x":167076.61000000034,"y":2540339.2400000002}},{"attributes":{"ID":448244,"DIS_CODE":0,"TOWNNAME":"南區","LI":"明興里","LIN":"18鄰","STREET":"德興路","SECT":" ","MAREA":" ","LANE":"１６４巷","ALLEY":" ","HOUSE_NO":"４０號三樓之４","E_COORD97":167076.60999999999,"N_COORD97":2540339.2400000002,"ADDRESS":"德興路１６４巷４０號三樓之４","OBJECTID":448219},"geometry":{"x":167076.61000000034,"y":2540339.2400000002}},{"attributes":{"ID":448245,"DIS_CODE":0,"TOWNNAME":"南區","LI":"明興里","LIN":"18鄰","STREET":"德興路","SECT":" ","MAREA":" ","LANE":"１６４巷","ALLEY":" ","HOUSE_NO":"４０號一樓之１１","E_COORD97":167076.60999999999,"N_COORD97":2540339.2400000002,"ADDRESS":"德興路１６４巷４０號一樓之１１","OBJECTID":448220},"geometry":{"x":167076.61000000034,"y":2540339.2400000002}},{"attributes":{"ID":448246,"DIS_CODE":0,"TOWNNAME":"南區","LI":"郡南里","LIN":"18鄰","STREET":"德興路","SECT":" ","MAREA":" ","LANE":"１３９巷","ALLEY":" ","HOUSE_NO":"３４號三樓","E_COORD97":167333.97,"N_COORD97":2540440.2799999998,"ADDRESS":"德興路１３９巷３４號三樓","OBJECTID":448221},"geometry":{"x":167333.97000000067,"y":2540440.2799999993}},{"attributes":{"ID":448247,"DIS_CODE":0,"TOWNNAME":"南區","LI":"明興里","LIN":"18鄰","STREET":"德興路","SECT":" ","MAREA":" ","LANE":"１６４巷","ALLEY":" ","HOUSE_NO":"４０號一樓之１２","E_COORD97":167076.60999999999,"N_COORD97":2540339.2400000002,"ADDRESS":"德興路１６４巷４０號一樓之１２","OBJECTID":448222},"geometry":{"x":167076.61000000034,"y":2540339.2400000002}},{"attributes":{"ID":448248,"DIS_CODE":0,"TOWNNAME":"南區","LI":"明興里","LIN":"18鄰","STREET":"德興路","SECT":" ","MAREA":" ","LANE":"１６４巷","ALLEY":" ","HOUSE_NO":"４０號一樓之１３","E_COORD97":167076.60999999999,"N_COORD97":2540339.2400000002,"ADDRESS":"德興路１６４巷４０號一樓之１３","OBJECTID":448223},"geometry":{"x":167076.61000000034,"y":2540339.2400000002}},{"attributes":{"ID":448249,"DIS_CODE":0,"TOWNNAME":"南區","LI":"明興里","LIN":"18鄰","STREET":"德興路","SECT":" ","MAREA":" ","LANE":"１６４巷","ALLEY":" ","HOUSE_NO":"４０號一樓之２","E_COORD97":167076.60999999999,"N_COORD97":2540339.2400000002,"ADDRESS":"德興路１６４巷４０號一樓之２","OBJECTID":448224},"geometry":{"x":167076.61000000034,"y":2540339.2400000002}},{"attributes":{"ID":448250,"DIS_CODE":0,"TOWNNAME":"南區","LI":"明興里","LIN":"18鄰","STREET":"德興路","SECT":" ","MAREA":" ","LANE":"１６４巷","ALLEY":" ","HOUSE_NO":"４０號一樓之３","E_COORD97":167076.60999999999,"N_COORD97":2540339.2400000002,"ADDRESS":"德興路１６４巷４０號一樓之３","OBJECTID":448225},"geometry":{"x":167076.61000000034,"y":2540339.2400000002}},{"attributes":{"ID":448251,"DIS_CODE":0,"TOWNNAME":"南區","LI":"明興里","LIN":"18鄰","STREET":"德興路","SECT":" ","MAREA":" ","LANE":"１６４巷","ALLEY":" ","HOUSE_NO":"４０號一樓之４","E_COORD97":167076.60999999999,"N_COORD97":2540339.2400000002,"ADDRESS":"德興路１６４巷４０號一樓之４","OBJECTID":448226},"geometry":{"x":167076.61000000034,"y":2540339.2400000002}},{"attributes":{"ID":448252,"DIS_CODE":0,"TOWNNAME":"南區","LI":"明興里","LIN":"18鄰","STREET":"德興路","SECT":" ","MAREA":" ","LANE":"１６４巷","ALLEY":" ","HOUSE_NO":"４０號一樓之５","E_COORD97":167076.60999999999,"N_COORD97":2540339.2400000002,"ADDRESS":"德興路１６４巷４０號一樓之５","OBJECTID":448227},"geometry":{"x":167076.61000000034,"y":2540339.2400000002}},{"attributes":{"ID":448253,"DIS_CODE":0,"TOWNNAME":"南區","LI":"明興里","LIN":"18鄰","STREET":"德興路","SECT":" ","MAREA":" ","LANE":"１６４巷","ALLEY":" ","HOUSE_NO":"４０號一樓之６","E_COORD97":167076.60999999999,"N_COORD97":2540339.2400000002,"ADDRESS":"德興路１６４巷４０號一樓之６","OBJECTID":448228},"geometry":{"x":167076.61000000034,"y":2540339.2400000002}},{"attributes":{"ID":448254,"DIS_CODE":0,"TOWNNAME":"新市區","LI":"大洲里","LIN":"7鄰","STREET":" ","SECT":" ","MAREA":"大洲","LANE":" ","ALLEY":" ","HOUSE_NO":"６２之１號","E_COORD97":173082.14732600001,"N_COORD97":2552458.7076099999,"ADDRESS":"大洲６２之１號","OBJECTID":448229},"geometry":{"x":173082.14732600097,"y":2552458.7076130025}},{"attributes":{"ID":448255,"DIS_CODE":0,"TOWNNAME":"南區","LI":"明興里","LIN":"18鄰","STREET":"德興路","SECT":" ","MAREA":" ","LANE":"１６４巷","ALLEY":" ","HOUSE_NO":"４０號一樓之７","E_COORD97":167076.60999999999,"N_COORD97":2540339.2400000002,"ADDRESS":"德興路１６４巷４０號一樓之７","OBJECTID":448230},"geometry":{"x":167076.61000000034,"y":2540339.2400000002}},{"attributes":{"ID":448256,"DIS_CODE":0,"TOWNNAME":"南區","LI":"明興里","LIN":"18鄰","STREET":"德興路","SECT":" ","MAREA":" ","LANE":"１６４巷","ALLEY":" ","HOUSE_NO":"４０號一樓之８","E_COORD97":167076.60999999999,"N_COORD97":2540339.2400000002,"ADDRESS":"德興路１６４巷４０號一樓之８","OBJECTID":448231},"geometry":{"x":167076.61000000034,"y":2540339.2400000002}},{"attributes":{"ID":448257,"DIS_CODE":0,"TOWNNAME":"南區","LI":"明興里","LIN":"18鄰","STREET":"德興路","SECT":" ","MAREA":" ","LANE":"１６４巷","ALLEY":" ","HOUSE_NO":"４０號三樓之９","E_COORD97":167076.60999999999,"N_COORD97":2540339.2400000002,"ADDRESS":"德興路１６４巷４０號三樓之９","OBJECTID":448232},"geometry":{"x":167076.61000000034,"y":2540339.2400000002}},{"attributes":{"ID":448258,"DIS_CODE":0,"TOWNNAME":"南區","LI":"明興里","LIN":"18鄰","STREET":"德興路","SECT":" ","MAREA":" ","LANE":"１６４巷","ALLEY":" ","HOUSE_NO":"４０號五樓之１","E_COORD97":167076.60999999999,"N_COORD97":2540339.2400000002,"ADDRESS":"德興路１６４巷４０號五樓之１","OBJECTID":448233},"geometry":{"x":167076.61000000034,"y":2540339.2400000002}},{"attributes":{"ID":448259,"DIS_CODE":0,"TOWNNAME":"南區","LI":"明興里","LIN":"18鄰","STREET":"德興路","SECT":" ","MAREA":" ","LANE":"１６４巷","ALLEY":" ","HOUSE_NO":"４０號五樓之１０","E_COORD97":167076.60999999999,"N_COORD97":2540339.2400000002,"ADDRESS":"德興路１６４巷４０號五樓之１０","OBJECTID":448234},"geometry":{"x":167076.61000000034,"y":2540339.2400000002}},{"attributes":{"ID":448260,"DIS_CODE":0,"TOWNNAME":"南區","LI":"明興里","LIN":"18鄰","STREET":"德興路","SECT":" ","MAREA":" ","LANE":"１６４巷","ALLEY":" ","HOUSE_NO":"４０號五樓之１１","E_COORD97":167076.60999999999,"N_COORD97":2540339.2400000002,"ADDRESS":"德興路１６４巷４０號五樓之１１","OBJECTID":448235},"geometry":{"x":167076.61000000034,"y":2540339.2400000002}},{"attributes":{"ID":448261,"DIS_CODE":0,"TOWNNAME":"南區","LI":"明興里","LIN":"18鄰","STREET":"德興路","SECT":" ","MAREA":" ","LANE":"１６４巷","ALLEY":" ","HOUSE_NO":"４０號五樓之１２","E_COORD97":167076.60999999999,"N_COORD97":2540339.2400000002,"ADDRESS":"德興路１６４巷４０號五樓之１２","OBJECTID":448236},"geometry":{"x":167076.61000000034,"y":2540339.2400000002}},{"attributes":{"ID":448262,"DIS_CODE":0,"TOWNNAME":"南區","LI":"明興里","LIN":"18鄰","STREET":"德興路","SECT":" ","MAREA":" ","LANE":"１６４巷","ALLEY":" ","HOUSE_NO":"４０號五樓之１３","E_COORD97":167076.60999999999,"N_COORD97":2540339.2400000002,"ADDRESS":"德興路１６４巷４０號五樓之１３","OBJECTID":448237},"geometry":{"x":167076.61000000034,"y":2540339.2400000002}},{"attributes":{"ID":448263,"DIS_CODE":0,"TOWNNAME":"南區","LI":"明興里","LIN":"18鄰","STREET":"德興路","SECT":" ","MAREA":" ","LANE":"１６４巷","ALLEY":" ","HOUSE_NO":"４０號五樓之１４","E_COORD97":167076.60999999999,"N_COORD97":2540339.2400000002,"ADDRESS":"德興路１６４巷４０號五樓之１４","OBJECTID":448238},"geometry":{"x":167076.61000000034,"y":2540339.2400000002}},{"attributes":{"ID":448264,"DIS_CODE":0,"TOWNNAME":"南區","LI":"明興里","LIN":"18鄰","STREET":"德興路","SECT":" ","MAREA":" ","LANE":"１６４巷","ALLEY":" ","HOUSE_NO":"４０號五樓之１５","E_COORD97":167076.60999999999,"N_COORD97":2540339.2400000002,"ADDRESS":"德興路１６４巷４０號五樓之１５","OBJECTID":448239},"geometry":{"x":167076.61000000034,"y":2540339.2400000002}},{"attributes":{"ID":448265,"DIS_CODE":0,"TOWNNAME":"南區","LI":"明興里","LIN":"18鄰","STREET":"德興路","SECT":" ","MAREA":" ","LANE":"１６４巷","ALLEY":" ","HOUSE_NO":"４０號五樓之１６","E_COORD97":167076.60999999999,"N_COORD97":2540339.2400000002,"ADDRESS":"德興路１６４巷４０號五樓之１６","OBJECTID":448240},"geometry":{"x":167076.61000000034,"y":2540339.2400000002}},{"attributes":{"ID":448266,"DIS_CODE":0,"TOWNNAME":"南區","LI":"明興里","LIN":"18鄰","STREET":"德興路","SECT":" ","MAREA":" ","LANE":"１６４巷","ALLEY":" ","HOUSE_NO":"４０號五樓之２","E_COORD97":167076.60999999999,"N_COORD97":2540339.2400000002,"ADDRESS":"德興路１６４巷４０號五樓之２","OBJECTID":448241},"geometry":{"x":167076.61000000034,"y":2540339.2400000002}},{"attributes":{"ID":448267,"DIS_CODE":0,"TOWNNAME":"南區","LI":"明興里","LIN":"18鄰","STREET":"德興路","SECT":" ","MAREA":" ","LANE":"１６４巷","ALLEY":" ","HOUSE_NO":"４０號五樓之３","E_COORD97":167076.60999999999,"N_COORD97":2540339.2400000002,"ADDRESS":"德興路１６４巷４０號五樓之３","OBJECTID":448242},"geometry":{"x":167076.61000000034,"y":2540339.2400000002}},{"attributes":{"ID":448268,"DIS_CODE":0,"TOWNNAME":"東區","LI":"崇文里","LIN":"40鄰","STREET":"生產路","SECT":" ","MAREA":" ","LANE":" ","ALLEY":" ","HOUSE_NO":"２７３號二樓","E_COORD97":170903.01999999999,"N_COORD97":2540618.1099999999,"ADDRESS":"生產路２７３號二樓","OBJECTID":448243},"geometry":{"x":170903.02000000142,"y":2540618.1099999994}},{"attributes":{"ID":448269,"DIS_CODE":0,"TOWNNAME":"南區","LI":"明興里","LIN":"18鄰","STREET":"德興路","SECT":" ","MAREA":" ","LANE":"１６４巷","ALLEY":" ","HOUSE_NO":"４０號五樓之４","E_COORD97":167076.60999999999,"N_COORD97":2540339.2400000002,"ADDRESS":"德興路１６４巷４０號五樓之４","OBJECTID":448244},"geometry":{"x":167076.61000000034,"y":2540339.2400000002}},{"attributes":{"ID":448270,"DIS_CODE":0,"TOWNNAME":"南區","LI":"明興里","LIN":"18鄰","STREET":"德興路","SECT":" ","MAREA":" ","LANE":"１６４巷","ALLEY":" ","HOUSE_NO":"４０號五樓之５","E_COORD97":167076.60999999999,"N_COORD97":2540339.2400000002,"ADDRESS":"德興路１６４巷４０號五樓之５","OBJECTID":448245},"geometry":{"x":167076.61000000034,"y":2540339.2400000002}},{"attributes":{"ID":448271,"DIS_CODE":0,"TOWNNAME":"南區","LI":"明興里","LIN":"18鄰","STREET":"德興路","SECT":" ","MAREA":" ","LANE":"１６４巷","ALLEY":" ","HOUSE_NO":"４０號五樓之６","E_COORD97":167076.60999999999,"N_COORD97":2540339.2400000002,"ADDRESS":"德興路１６４巷４０號五樓之６","OBJECTID":448246},"geometry":{"x":167076.61000000034,"y":2540339.2400000002}},{"attributes":{"ID":448272,"DIS_CODE":0,"TOWNNAME":"南區","LI":"明興里","LIN":"18鄰","STREET":"德興路","SECT":" ","MAREA":" ","LANE":"１６４巷","ALLEY":" ","HOUSE_NO":"４０號五樓之７","E_COORD97":167076.60999999999,"N_COORD97":2540339.2400000002,"ADDRESS":"德興路１６４巷４０號五樓之７","OBJECTID":448247},"geometry":{"x":167076.61000000034,"y":2540339.2400000002}},{"attributes":{"ID":448273,"DIS_CODE":0,"TOWNNAME":"南區","LI":"明興里","LIN":"18鄰","STREET":"德興路","SECT":" ","MAREA":" ","LANE":"１６４巷","ALLEY":" ","HOUSE_NO":"４０號五樓之８","E_COORD97":167076.60999999999,"N_COORD97":2540339.2400000002,"ADDRESS":"德興路１６４巷４０號五樓之８","OBJECTID":448248},"geometry":{"x":167076.61000000034,"y":2540339.2400000002}},{"attributes":{"ID":448274,"DIS_CODE":0,"TOWNNAME":"南區","LI":"明興里","LIN":"18鄰","STREET":"德興路","SECT":" ","MAREA":" ","LANE":"１６４巷","ALLEY":" ","HOUSE_NO":"４０號五樓之９","E_COORD97":167076.60999999999,"N_COORD97":2540339.2400000002,"ADDRESS":"德興路１６４巷４０號五樓之９","OBJECTID":448249},"geometry":{"x":167076.61000000034,"y":2540339.2400000002}},{"attributes":{"ID":448275,"DIS_CODE":0,"TOWNNAME":"南區","LI":"明興里","LIN":"18鄰","STREET":"德興路","SECT":" ","MAREA":" ","LANE":"１６４巷","ALLEY":" ","HOUSE_NO":"４０號四樓之１","E_COORD97":167076.60999999999,"N_COORD97":2540339.2400000002,"ADDRESS":"德興路１６４巷４０號四樓之１","OBJECTID":448250},"geometry":{"x":167076.61000000034,"y":2540339.2400000002}},{"attributes":{"ID":448276,"DIS_CODE":0,"TOWNNAME":"南區","LI":"明興里","LIN":"18鄰","STREET":"德興路","SECT":" ","MAREA":" ","LANE":"１６４巷","ALLEY":" ","HOUSE_NO":"４０號四樓之１０","E_COORD97":167076.60999999999,"N_COORD97":2540339.2400000002,"ADDRESS":"德興路１６４巷４０號四樓之１０","OBJECTID":448251},"geometry":{"x":167076.61000000034,"y":2540339.2400000002}},{"attributes":{"ID":448277,"DIS_CODE":0,"TOWNNAME":"南區","LI":"明興里","LIN":"18鄰","STREET":"德興路","SECT":" ","MAREA":" ","LANE":"１６４巷","ALLEY":" ","HOUSE_NO":"４０號四樓之１１","E_COORD97":167076.60999999999,"N_COORD97":2540339.2400000002,"ADDRESS":"德興路１６４巷４０號四樓之１１","OBJECTID":448252},"geometry":{"x":167076.61000000034,"y":2540339.2400000002}},{"attributes":{"ID":448278,"DIS_CODE":0,"TOWNNAME":"南區","LI":"明興里","LIN":"18鄰","STREET":"德興路","SECT":" ","MAREA":" ","LANE":"１６４巷","ALLEY":" ","HOUSE_NO":"４０號四樓之１２","E_COORD97":167076.60999999999,"N_COORD97":2540339.2400000002,"ADDRESS":"德興路１６４巷４０號四樓之１２","OBJECTID":448253},"geometry":{"x":167076.61000000034,"y":2540339.2400000002}},{"attributes":{"ID":448279,"DIS_CODE":0,"TOWNNAME":"南區","LI":"明興里","LIN":"18鄰","STREET":"德興路","SECT":" ","MAREA":" ","LANE":"１６４巷","ALLEY":" ","HOUSE_NO":"４０號四樓之１３","E_COORD97":167076.60999999999,"N_COORD97":2540339.2400000002,"ADDRESS":"德興路１６４巷４０號四樓之１３","OBJECTID":448254},"geometry":{"x":167076.61000000034,"y":2540339.2400000002}},{"attributes":{"ID":448280,"DIS_CODE":0,"TOWNNAME":"南區","LI":"明興里","LIN":"18鄰","STREET":"德興路","SECT":" ","MAREA":" ","LANE":"１６４巷","ALLEY":" ","HOUSE_NO":"４０號四樓之１７","E_COORD97":167076.60999999999,"N_COORD97":2540339.2400000002,"ADDRESS":"德興路１６４巷４０號四樓之１７","OBJECTID":448255},"geometry":{"x":167076.61000000034,"y":2540339.2400000002}},{"attributes":{"ID":448281,"DIS_CODE":0,"TOWNNAME":"南區","LI":"明興里","LIN":"18鄰","STREET":"德興路","SECT":" ","MAREA":" ","LANE":"１６４巷","ALLEY":" ","HOUSE_NO":"４０號四樓之１５","E_COORD97":167076.60999999999,"N_COORD97":2540339.2400000002,"ADDRESS":"德興路１６４巷４０號四樓之１５","OBJECTID":448256},"geometry":{"x":167076.61000000034,"y":2540339.2400000002}},{"attributes":{"ID":448282,"DIS_CODE":0,"TOWNNAME":"南區","LI":"明興里","LIN":"18鄰","STREET":"德興路","SECT":" ","MAREA":" ","LANE":"１６４巷","ALLEY":" ","HOUSE_NO":"４０號四樓之１６","E_COORD97":167076.60999999999,"N_COORD97":2540339.2400000002,"ADDRESS":"德興路１６４巷４０號四樓之１６","OBJECTID":448257},"geometry":{"x":167076.61000000034,"y":2540339.2400000002}},{"attributes":{"ID":448283,"DIS_CODE":0,"TOWNNAME":"南區","LI":"明興里","LIN":"18鄰","STREET":"德興路","SECT":" ","MAREA":" ","LANE":"１６４巷","ALLEY":" ","HOUSE_NO":"４０號四樓之２","E_COORD97":167076.60999999999,"N_COORD97":2540339.2400000002,"ADDRESS":"德興路１６４巷４０號四樓之２","OBJECTID":448258},"geometry":{"x":167076.61000000034,"y":2540339.2400000002}},{"attributes":{"ID":448284,"DIS_CODE":0,"TOWNNAME":"南區","LI":"明興里","LIN":"18鄰","STREET":"德興路","SECT":" ","MAREA":" ","LANE":"１６４巷","ALLEY":" ","HOUSE_NO":"４０號四樓之３","E_COORD97":167076.60999999999,"N_COORD97":2540339.2400000002,"ADDRESS":"德興路１６４巷４０號四樓之３","OBJECTID":448259},"geometry":{"x":167076.61000000034,"y":2540339.2400000002}},{"attributes":{"ID":448285,"DIS_CODE":0,"TOWNNAME":"南區","LI":"明興里","LIN":"18鄰","STREET":"德興路","SECT":" ","MAREA":" ","LANE":"１６４巷","ALLEY":" ","HOUSE_NO":"４０號四樓之３之１","E_COORD97":167076.60999999999,"N_COORD97":2540339.2400000002,"ADDRESS":"德興路１６４巷４０號四樓之３之１","OBJECTID":448260},"geometry":{"x":167076.61000000034,"y":2540339.2400000002}},{"attributes":{"ID":448286,"DIS_CODE":0,"TOWNNAME":"南區","LI":"明興里","LIN":"18鄰","STREET":"德興路","SECT":" ","MAREA":" ","LANE":"１６４巷","ALLEY":" ","HOUSE_NO":"４０號四樓之５","E_COORD97":167076.60999999999,"N_COORD97":2540339.2400000002,"ADDRESS":"德興路１６４巷４０號四樓之５","OBJECTID":448261},"geometry":{"x":167076.61000000034,"y":2540339.2400000002}},{"attributes":{"ID":448287,"DIS_CODE":0,"TOWNNAME":"南區","LI":"明興里","LIN":"18鄰","STREET":"德興路","SECT":" ","MAREA":" ","LANE":"１６４巷","ALLEY":" ","HOUSE_NO":"４０號四樓之６","E_COORD97":167076.60999999999,"N_COORD97":2540339.2400000002,"ADDRESS":"德興路１６４巷４０號四樓之６","OBJECTID":448262},"geometry":{"x":167076.61000000034,"y":2540339.2400000002}},{"attributes":{"ID":448288,"DIS_CODE":0,"TOWNNAME":"南區","LI":"明興里","LIN":"18鄰","STREET":"德興路","SECT":" ","MAREA":" ","LANE":"１６４巷","ALLEY":" ","HOUSE_NO":"４０號四樓之７","E_COORD97":167076.60999999999,"N_COORD97":2540339.2400000002,"ADDRESS":"德興路１６４巷４０號四樓之７","OBJECTID":448263},"geometry":{"x":167076.61000000034,"y":2540339.2400000002}},{"attributes":{"ID":448289,"DIS_CODE":0,"TOWNNAME":"南區","LI":"明興里","LIN":"18鄰","STREET":"德興路","SECT":" ","MAREA":" ","LANE":"１６４巷","ALLEY":" ","HOUSE_NO":"４０號四樓之８","E_COORD97":167076.60999999999,"N_COORD97":2540339.2400000002,"ADDRESS":"德興路１６４巷４０號四樓之８","OBJECTID":448264},"geometry":{"x":167076.61000000034,"y":2540339.2400000002}},{"attributes":{"ID":448290,"DIS_CODE":0,"TOWNNAME":"南區","LI":"明興里","LIN":"18鄰","STREET":"德興路","SECT":" ","MAREA":" ","LANE":"１６４巷","ALLEY":" ","HOUSE_NO":"４０號四樓之９","E_COORD97":167076.60999999999,"N_COORD97":2540339.2400000002,"ADDRESS":"德興路１６４巷４０號四樓之９","OBJECTID":448265},"geometry":{"x":167076.61000000034,"y":2540339.2400000002}},{"attributes":{"ID":448291,"DIS_CODE":0,"TOWNNAME":"南區","LI":"明興里","LIN":"18鄰","STREET":"德興路","SECT":" ","MAREA":" ","LANE":"１６４巷","ALLEY":" ","HOUSE_NO":"４０號三樓之７","E_COORD97":167076.60999999999,"N_COORD97":2540339.2400000002,"ADDRESS":"德興路１６４巷４０號三樓之７","OBJECTID":448266},"geometry":{"x":167076.61000000034,"y":2540339.2400000002}},{"attributes":{"ID":448292,"DIS_CODE":0,"TOWNNAME":"南區","LI":"明興里","LIN":"18鄰","STREET":"德興路","SECT":" ","MAREA":" ","LANE":"１６４巷","ALLEY":" ","HOUSE_NO":"４０號一樓之９","E_COORD97":167076.60999999999,"N_COORD97":2540339.2400000002,"ADDRESS":"德興路１６４巷４０號一樓之９","OBJECTID":448267},"geometry":{"x":167076.61000000034,"y":2540339.2400000002}},{"attributes":{"ID":448293,"DIS_CODE":0,"TOWNNAME":"南區","LI":"明興里","LIN":"18鄰","STREET":"德興路","SECT":" ","MAREA":" ","LANE":"１６４巷","ALLEY":" ","HOUSE_NO":"４０號二樓之１","E_COORD97":167076.60999999999,"N_COORD97":2540339.2400000002,"ADDRESS":"德興路１６４巷４０號二樓之１","OBJECTID":448268},"geometry":{"x":167076.61000000034,"y":2540339.2400000002}},{"attributes":{"ID":448294,"DIS_CODE":0,"TOWNNAME":"南區","LI":"明興里","LIN":"18鄰","STREET":"德興路","SECT":" ","MAREA":" ","LANE":"１６４巷","ALLEY":" ","HOUSE_NO":"４０號二樓之１０","E_COORD97":167076.60999999999,"N_COORD97":2540339.2400000002,"ADDRESS":"德興路１６４巷４０號二樓之１０","OBJECTID":448269},"geometry":{"x":167076.61000000034,"y":2540339.2400000002}},{"attributes":{"ID":448295,"DIS_CODE":0,"TOWNNAME":"南區","LI":"明興里","LIN":"18鄰","STREET":"德興路","SECT":" ","MAREA":" ","LANE":"１６４巷","ALLEY":" ","HOUSE_NO":"４０號二樓之１１","E_COORD97":167076.60999999999,"N_COORD97":2540339.2400000002,"ADDRESS":"德興路１６４巷４０號二樓之１１","OBJECTID":448270},"geometry":{"x":167076.61000000034,"y":2540339.2400000002}},{"attributes":{"ID":448296,"DIS_CODE":0,"TOWNNAME":"南區","LI":"明興里","LIN":"18鄰","STREET":"德興路","SECT":" ","MAREA":" ","LANE":"１６４巷","ALLEY":" ","HOUSE_NO":"４０號二樓之１２","E_COORD97":167076.60999999999,"N_COORD97":2540339.2400000002,"ADDRESS":"德興路１６４巷４０號二樓之１２","OBJECTID":448271},"geometry":{"x":167076.61000000034,"y":2540339.2400000002}},{"attributes":{"ID":448297,"DIS_CODE":0,"TOWNNAME":"南區","LI":"明興里","LIN":"18鄰","STREET":"德興路","SECT":" ","MAREA":" ","LANE":"１６４巷","ALLEY":" ","HOUSE_NO":"４０號二樓之１３","E_COORD97":167076.60999999999,"N_COORD97":2540339.2400000002,"ADDRESS":"德興路１６４巷４０號二樓之１３","OBJECTID":448272},"geometry":{"x":167076.61000000034,"y":2540339.2400000002}},{"attributes":{"ID":448298,"DIS_CODE":0,"TOWNNAME":"南區","LI":"明興里","LIN":"18鄰","STREET":"德興路","SECT":" ","MAREA":" ","LANE":"１６４巷","ALLEY":" ","HOUSE_NO":"４０號二樓之１４","E_COORD97":167076.60999999999,"N_COORD97":2540339.2400000002,"ADDRESS":"德興路１６４巷４０號二樓之１４","OBJECTID":448273},"geometry":{"x":167076.61000000034,"y":2540339.2400000002}},{"attributes":{"ID":448299,"DIS_CODE":0,"TOWNNAME":"南區","LI":"明興里","LIN":"18鄰","STREET":"德興路","SECT":" ","MAREA":" ","LANE":"１６４巷","ALLEY":" ","HOUSE_NO":"４０號二樓之１５","E_COORD97":167076.60999999999,"N_COORD97":2540339.2400000002,"ADDRESS":"德興路１６４巷４０號二樓之１５","OBJECTID":448274},"geometry":{"x":167076.61000000034,"y":2540339.2400000002}},{"attributes":{"ID":448300,"DIS_CODE":0,"TOWNNAME":"南區","LI":"明興里","LIN":"18鄰","STREET":"德興路","SECT":" ","MAREA":" ","LANE":"１６４巷","ALLEY":" ","HOUSE_NO":"４０號二樓之２","E_COORD97":167076.60999999999,"N_COORD97":2540339.2400000002,"ADDRESS":"德興路１６４巷４０號二樓之２","OBJECTID":448275},"geometry":{"x":167076.61000000034,"y":2540339.2400000002}},{"attributes":{"ID":448301,"DIS_CODE":0,"TOWNNAME":"南區","LI":"明興里","LIN":"18鄰","STREET":"德興路","SECT":" ","MAREA":" ","LANE":"１６４巷","ALLEY":" ","HOUSE_NO":"４０號二樓之３","E_COORD97":167076.60999999999,"N_COORD97":2540339.2400000002,"ADDRESS":"德興路１６４巷４０號二樓之３","OBJECTID":448276},"geometry":{"x":167076.61000000034,"y":2540339.2400000002}},{"attributes":{"ID":448302,"DIS_CODE":0,"TOWNNAME":"南區","LI":"明興里","LIN":"18鄰","STREET":"德興路","SECT":" ","MAREA":" ","LANE":"１６４巷","ALLEY":" ","HOUSE_NO":"４０號二樓之４","E_COORD97":167076.60999999999,"N_COORD97":2540339.2400000002,"ADDRESS":"德興路１６４巷４０號二樓之４","OBJECTID":448277},"geometry":{"x":167076.61000000034,"y":2540339.2400000002}},{"attributes":{"ID":448303,"DIS_CODE":0,"TOWNNAME":"南區","LI":"明興里","LIN":"18鄰","STREET":"德興路","SECT":" ","MAREA":" ","LANE":"１６４巷","ALLEY":" ","HOUSE_NO":"４０號二樓之５","E_COORD97":167076.60999999999,"N_COORD97":2540339.2400000002,"ADDRESS":"德興路１６４巷４０號二樓之５","OBJECTID":448278},"geometry":{"x":167076.61000000034,"y":2540339.2400000002}},{"attributes":{"ID":448304,"DIS_CODE":0,"TOWNNAME":"南區","LI":"明興里","LIN":"18鄰","STREET":"德興路","SECT":" ","MAREA":" ","LANE":"１６４巷","ALLEY":" ","HOUSE_NO":"４０號二樓之６","E_COORD97":167076.60999999999,"N_COORD97":2540339.2400000002,"ADDRESS":"德興路１６４巷４０號二樓之６","OBJECTID":448279},"geometry":{"x":167076.61000000034,"y":2540339.2400000002}},{"attributes":{"ID":448305,"DIS_CODE":0,"TOWNNAME":"南區","LI":"明興里","LIN":"18鄰","STREET":"德興路","SECT":" ","MAREA":" ","LANE":"１６４巷","ALLEY":" ","HOUSE_NO":"４０號二樓之７","E_COORD97":167076.60999999999,"N_COORD97":2540339.2400000002,"ADDRESS":"德興路１６４巷４０號二樓之７","OBJECTID":448280},"geometry":{"x":167076.61000000034,"y":2540339.2400000002}},{"attributes":{"ID":448306,"DIS_CODE":0,"TOWNNAME":"南區","LI":"明興里","LIN":"18鄰","STREET":"德興路","SECT":" ","MAREA":" ","LANE":"１６４巷","ALLEY":" ","HOUSE_NO":"４０號二樓之８","E_COORD97":167076.60999999999,"N_COORD97":2540339.2400000002,"ADDRESS":"德興路１６４巷４０號二樓之８","OBJECTID":448281},"geometry":{"x":167076.61000000034,"y":2540339.2400000002}},{"attributes":{"ID":448307,"DIS_CODE":0,"TOWNNAME":"南區","LI":"明興里","LIN":"18鄰","STREET":"德興路","SECT":" ","MAREA":" ","LANE":"１６４巷","ALLEY":" ","HOUSE_NO":"４０號二樓之９","E_COORD97":167076.60999999999,"N_COORD97":2540339.2400000002,"ADDRESS":"德興路１６４巷４０號二樓之９","OBJECTID":448282},"geometry":{"x":167076.61000000034,"y":2540339.2400000002}},{"attributes":{"ID":448308,"DIS_CODE":0,"TOWNNAME":"南區","LI":"明興里","LIN":"18鄰","STREET":"德興路","SECT":" ","MAREA":" ","LANE":"１６４巷","ALLEY":" ","HOUSE_NO":"４０號三樓之１０","E_COORD97":167076.60999999999,"N_COORD97":2540339.2400000002,"ADDRESS":"德興路１６４巷４０號三樓之１０","OBJECTID":448283},"geometry":{"x":167076.61000000034,"y":2540339.2400000002}},{"attributes":{"ID":448309,"DIS_CODE":0,"TOWNNAME":"南區","LI":"明興里","LIN":"18鄰","STREET":"德興路","SECT":" ","MAREA":" ","LANE":"１６４巷","ALLEY":" ","HOUSE_NO":"４０號三樓之１１","E_COORD97":167076.60999999999,"N_COORD97":2540339.2400000002,"ADDRESS":"德興路１６４巷４０號三樓之１１","OBJECTID":448284},"geometry":{"x":167076.61000000034,"y":2540339.2400000002}},{"attributes":{"ID":448310,"DIS_CODE":0,"TOWNNAME":"南區","LI":"明興里","LIN":"18鄰","STREET":"德興路","SECT":" ","MAREA":" ","LANE":"１６４巷","ALLEY":" ","HOUSE_NO":"４０號三樓之１２","E_COORD97":167076.60999999999,"N_COORD97":2540339.2400000002,"ADDRESS":"德興路１６４巷４０號三樓之１２","OBJECTID":448285},"geometry":{"x":167076.61000000034,"y":2540339.2400000002}},{"attributes":{"ID":448311,"DIS_CODE":0,"TOWNNAME":"南區","LI":"明興里","LIN":"18鄰","STREET":"德興路","SECT":" ","MAREA":" ","LANE":"１６４巷","ALLEY":" ","HOUSE_NO":"４０號三樓之１３","E_COORD97":167076.60999999999,"N_COORD97":2540339.2400000002,"ADDRESS":"德興路１６４巷４０號三樓之１３","OBJECTID":448286},"geometry":{"x":167076.61000000034,"y":2540339.2400000002}},{"attributes":{"ID":448312,"DIS_CODE":0,"TOWNNAME":"南區","LI":"明興里","LIN":"18鄰","STREET":"德興路","SECT":" ","MAREA":" ","LANE":"１６４巷","ALLEY":" ","HOUSE_NO":"４０號三樓之２","E_COORD97":167076.60999999999,"N_COORD97":2540339.2400000002,"ADDRESS":"德興路１６４巷４０號三樓之２","OBJECTID":448287},"geometry":{"x":167076.61000000034,"y":2540339.2400000002}},{"attributes":{"ID":448313,"DIS_CODE":0,"TOWNNAME":"南區","LI":"明興里","LIN":"18鄰","STREET":"德興路","SECT":" ","MAREA":" ","LANE":"１６４巷","ALLEY":" ","HOUSE_NO":"４０號三樓之３","E_COORD97":167076.60999999999,"N_COORD97":2540339.2400000002,"ADDRESS":"德興路１６４巷４０號三樓之３","OBJECTID":448288},"geometry":{"x":167076.61000000034,"y":2540339.2400000002}},{"attributes":{"ID":448314,"DIS_CODE":0,"TOWNNAME":"南區","LI":"明興里","LIN":"18鄰","STREET":"德興路","SECT":" ","MAREA":" ","LANE":"１６４巷","ALLEY":" ","HOUSE_NO":"４０號三樓之５","E_COORD97":167076.60999999999,"N_COORD97":2540339.2400000002,"ADDRESS":"德興路１６４巷４０號三樓之５","OBJECTID":448289},"geometry":{"x":167076.61000000034,"y":2540339.2400000002}},{"attributes":{"ID":448315,"DIS_CODE":0,"TOWNNAME":"南區","LI":"明興里","LIN":"18鄰","STREET":"德興路","SECT":" ","MAREA":" ","LANE":"１６４巷","ALLEY":" ","HOUSE_NO":"４０號三樓之６","E_COORD97":167076.60999999999,"N_COORD97":2540339.2400000002,"ADDRESS":"德興路１６４巷４０號三樓之６","OBJECTID":448290},"geometry":{"x":167076.61000000034,"y":2540339.2400000002}},{"attributes":{"ID":448316,"DIS_CODE":0,"TOWNNAME":"南區","LI":"明興里","LIN":"18鄰","STREET":"德興路","SECT":" ","MAREA":" ","LANE":"１６４巷","ALLEY":" ","HOUSE_NO":"４０號三樓之８","E_COORD97":167076.60999999999,"N_COORD97":2540339.2400000002,"ADDRESS":"德興路１６４巷４０號三樓之８","OBJECTID":448291},"geometry":{"x":167076.61000000034,"y":2540339.2400000002}},{"attributes":{"ID":448317,"DIS_CODE":0,"TOWNNAME":"南區","LI":"明興里","LIN":"18鄰","STREET":"德興路","SECT":" ","MAREA":" ","LANE":"１６４巷","ALLEY":" ","HOUSE_NO":"４０號三樓之１","E_COORD97":167076.60999999999,"N_COORD97":2540339.2400000002,"ADDRESS":"德興路１６４巷４０號三樓之１","OBJECTID":448292},"geometry":{"x":167076.61000000034,"y":2540339.2400000002}},{"attributes":{"ID":448318,"DIS_CODE":0,"TOWNNAME":"南區","LI":"郡南里","LIN":"18鄰","STREET":"德興路","SECT":" ","MAREA":" ","LANE":"１３９巷","ALLEY":" ","HOUSE_NO":"３０號二樓","E_COORD97":167327.84,"N_COORD97":2540447.3799999999,"ADDRESS":"德興路１３９巷３０號二樓","OBJECTID":448293},"geometry":{"x":167327.84000000078,"y":2540447.3800000027}},{"attributes":{"ID":448319,"DIS_CODE":0,"TOWNNAME":"南區","LI":"郡南里","LIN":"18鄰","STREET":"德興路","SECT":" ","MAREA":" ","LANE":"１３９巷","ALLEY":" ","HOUSE_NO":"３０號四樓","E_COORD97":167327.84,"N_COORD97":2540447.3799999999,"ADDRESS":"德興路１３９巷３０號四樓","OBJECTID":448294},"geometry":{"x":167327.84000000078,"y":2540447.3800000027}},{"attributes":{"ID":448320,"DIS_CODE":0,"TOWNNAME":"南區","LI":"郡南里","LIN":"18鄰","STREET":"德興路","SECT":" ","MAREA":" ","LANE":"１３９巷","ALLEY":" ","HOUSE_NO":"３０號五樓","E_COORD97":167327.84,"N_COORD97":2540447.3799999999,"ADDRESS":"德興路１３９巷３０號五樓","OBJECTID":448295},"geometry":{"x":167327.84000000078,"y":2540447.3800000027}},{"attributes":{"ID":448321,"DIS_CODE":0,"TOWNNAME":"南區","LI":"郡南里","LIN":"18鄰","STREET":"德興路","SECT":" ","MAREA":" ","LANE":"１３９巷","ALLEY":" ","HOUSE_NO":"３０號六樓","E_COORD97":167327.84,"N_COORD97":2540447.3799999999,"ADDRESS":"德興路１３９巷３０號六樓","OBJECTID":448296},"geometry":{"x":167327.84000000078,"y":2540447.3800000027}},{"attributes":{"ID":448322,"DIS_CODE":0,"TOWNNAME":"南區","LI":"郡南里","LIN":"18鄰","STREET":"德興路","SECT":" ","MAREA":" ","LANE":"１３９巷","ALLEY":" ","HOUSE_NO":"３０號三樓","E_COORD97":167327.84,"N_COORD97":2540447.3799999999,"ADDRESS":"德興路１３９巷３０號三樓","OBJECTID":448297},"geometry":{"x":167327.84000000078,"y":2540447.3800000027}},{"attributes":{"ID":448323,"DIS_CODE":0,"TOWNNAME":"南區","LI":"郡南里","LIN":"18鄰","STREET":"德興路","SECT":" ","MAREA":" ","LANE":"１３９巷","ALLEY":" ","HOUSE_NO":"２８號二樓","E_COORD97":167325.62,"N_COORD97":2540447.6299999999,"ADDRESS":"德興路１３９巷２８號二樓","OBJECTID":448298},"geometry":{"x":167325.62000000011,"y":2540447.629999999}},{"attributes":{"ID":448324,"DIS_CODE":0,"TOWNNAME":"南區","LI":"郡南里","LIN":"18鄰","STREET":"德興路","SECT":" ","MAREA":" ","LANE":"１３９巷","ALLEY":" ","HOUSE_NO":"２８號六樓","E_COORD97":167325.62,"N_COORD97":2540447.6299999999,"ADDRESS":"德興路１３９巷２８號六樓","OBJECTID":448299},"geometry":{"x":167325.62000000011,"y":2540447.629999999}},{"attributes":{"ID":448325,"DIS_CODE":0,"TOWNNAME":"南區","LI":"郡南里","LIN":"18鄰","STREET":"德興路","SECT":" ","MAREA":" ","LANE":"１３９巷","ALLEY":" ","HOUSE_NO":"２８號三樓","E_COORD97":167325.62,"N_COORD97":2540447.6299999999,"ADDRESS":"德興路１３９巷２８號三樓","OBJECTID":448300},"geometry":{"x":167325.62000000011,"y":2540447.629999999}},{"attributes":{"ID":448326,"DIS_CODE":0,"TOWNNAME":"南區","LI":"郡南里","LIN":"18鄰","STREET":"德興路","SECT":" ","MAREA":" ","LANE":"１３９巷","ALLEY":" ","HOUSE_NO":"２８號五樓","E_COORD97":167325.62,"N_COORD97":2540447.6299999999,"ADDRESS":"德興路１３９巷２８號五樓","OBJECTID":448301},"geometry":{"x":167325.62000000011,"y":2540447.629999999}},{"attributes":{"ID":448327,"DIS_CODE":0,"TOWNNAME":"南區","LI":"郡南里","LIN":"18鄰","STREET":"德興路","SECT":" ","MAREA":" ","LANE":"１３９巷","ALLEY":" ","HOUSE_NO":"２８號四樓","E_COORD97":167325.62,"N_COORD97":2540447.6299999999,"ADDRESS":"德興路１３９巷２８號四樓","OBJECTID":448302},"geometry":{"x":167325.62000000011,"y":2540447.629999999}},{"attributes":{"ID":448328,"DIS_CODE":0,"TOWNNAME":"南區","LI":"郡南里","LIN":"18鄰","STREET":"德興路","SECT":" ","MAREA":" ","LANE":"１３９巷","ALLEY":" ","HOUSE_NO":"３２號三樓","E_COORD97":167329.81,"N_COORD97":2540445.1699999999,"ADDRESS":"德興路１３９巷３２號三樓","OBJECTID":448303},"geometry":{"x":167329.81000000052,"y":2540445.1699999999}},{"attributes":{"ID":448329,"DIS_CODE":0,"TOWNNAME":"南區","LI":"郡南里","LIN":"18鄰","STREET":"德興路","SECT":" ","MAREA":" ","LANE":"１３９巷","ALLEY":" ","HOUSE_NO":"３２號二樓","E_COORD97":167329.81,"N_COORD97":2540445.1699999999,"ADDRESS":"德興路１３９巷３２號二樓","OBJECTID":448304},"geometry":{"x":167329.81000000052,"y":2540445.1699999999}},{"attributes":{"ID":448330,"DIS_CODE":0,"TOWNNAME":"南區","LI":"郡南里","LIN":"18鄰","STREET":"德興路","SECT":" ","MAREA":" ","LANE":"１３９巷","ALLEY":" ","HOUSE_NO":"３２號五樓","E_COORD97":167329.81,"N_COORD97":2540445.1699999999,"ADDRESS":"德興路１３９巷３２號五樓","OBJECTID":448305},"geometry":{"x":167329.81000000052,"y":2540445.1699999999}},{"attributes":{"ID":448331,"DIS_CODE":0,"TOWNNAME":"南區","LI":"郡南里","LIN":"18鄰","STREET":"德興路","SECT":" ","MAREA":" ","LANE":"１３９巷","ALLEY":" ","HOUSE_NO":"３２號六樓","E_COORD97":167329.81,"N_COORD97":2540445.1699999999,"ADDRESS":"德興路１３９巷３２號六樓","OBJECTID":448306},"geometry":{"x":167329.81000000052,"y":2540445.1699999999}},{"attributes":{"ID":448332,"DIS_CODE":0,"TOWNNAME":"南區","LI":"郡南里","LIN":"18鄰","STREET":"德興路","SECT":" ","MAREA":" ","LANE":"１３９巷","ALLEY":" ","HOUSE_NO":"３２號四樓","E_COORD97":167329.81,"N_COORD97":2540445.1699999999,"ADDRESS":"德興路１３９巷３２號四樓","OBJECTID":448307},"geometry":{"x":167329.81000000052,"y":2540445.1699999999}},{"attributes":{"ID":448333,"DIS_CODE":0,"TOWNNAME":"南區","LI":"郡南里","LIN":"18鄰","STREET":"德興路","SECT":" ","MAREA":" ","LANE":"１３９巷","ALLEY":" ","HOUSE_NO":"３４號二樓","E_COORD97":167333.97,"N_COORD97":2540440.2799999998,"ADDRESS":"德興路１３９巷３４號二樓","OBJECTID":448308},"geometry":{"x":167333.97000000067,"y":2540440.2799999993}},{"attributes":{"ID":448334,"DIS_CODE":0,"TOWNNAME":"南區","LI":"郡南里","LIN":"18鄰","STREET":"德興路","SECT":" ","MAREA":" ","LANE":"１３９巷","ALLEY":" ","HOUSE_NO":"３４號五樓","E_COORD97":167333.97,"N_COORD97":2540440.2799999998,"ADDRESS":"德興路１３９巷３４號五樓","OBJECTID":448309},"geometry":{"x":167333.97000000067,"y":2540440.2799999993}},{"attributes":{"ID":448335,"DIS_CODE":0,"TOWNNAME":"南區","LI":"郡南里","LIN":"18鄰","STREET":"德興路","SECT":" ","MAREA":" ","LANE":"１３９巷","ALLEY":" ","HOUSE_NO":"３４號六樓","E_COORD97":167333.97,"N_COORD97":2540440.2799999998,"ADDRESS":"德興路１３９巷３４號六樓","OBJECTID":448310},"geometry":{"x":167333.97000000067,"y":2540440.2799999993}},{"attributes":{"ID":448336,"DIS_CODE":0,"TOWNNAME":"南區","LI":"郡南里","LIN":"18鄰","STREET":"德興路","SECT":" ","MAREA":" ","LANE":"１３９巷","ALLEY":" ","HOUSE_NO":"３４號四樓","E_COORD97":167333.97,"N_COORD97":2540440.2799999998,"ADDRESS":"德興路１３９巷３４號四樓","OBJECTID":448311},"geometry":{"x":167333.97000000067,"y":2540440.2799999993}},{"attributes":{"ID":448337,"DIS_CODE":0,"TOWNNAME":"南區","LI":"郡南里","LIN":"18鄰","STREET":"德興路","SECT":" ","MAREA":" ","LANE":"１３９巷","ALLEY":" ","HOUSE_NO":"３６號二樓","E_COORD97":167339.70999999999,"N_COORD97":2540439.5,"ADDRESS":"德興路１３９巷３６號二樓","OBJECTID":448312},"geometry":{"x":167339.70999999996,"y":2540439.5}},{"attributes":{"ID":448338,"DIS_CODE":0,"TOWNNAME":"南區","LI":"郡南里","LIN":"18鄰","STREET":"德興路","SECT":" ","MAREA":" ","LANE":"１３９巷","ALLEY":" ","HOUSE_NO":"３６號四樓","E_COORD97":167339.70999999999,"N_COORD97":2540439.5,"ADDRESS":"德興路１３９巷３６號四樓","OBJECTID":448313},"geometry":{"x":167339.70999999996,"y":2540439.5}},{"attributes":{"ID":448339,"DIS_CODE":0,"TOWNNAME":"南區","LI":"郡南里","LIN":"18鄰","STREET":"德興路","SECT":" ","MAREA":" ","LANE":"１３９巷","ALLEY":" ","HOUSE_NO":"３６號六樓","E_COORD97":167339.70999999999,"N_COORD97":2540439.5,"ADDRESS":"德興路１３９巷３６號六樓","OBJECTID":448314},"geometry":{"x":167339.70999999996,"y":2540439.5}},{"attributes":{"ID":448340,"DIS_CODE":0,"TOWNNAME":"南區","LI":"郡南里","LIN":"18鄰","STREET":"德興路","SECT":" ","MAREA":" ","LANE":"１３９巷","ALLEY":" ","HOUSE_NO":"３６號三樓","E_COORD97":167339.70999999999,"N_COORD97":2540439.5,"ADDRESS":"德興路１３９巷３６號三樓","OBJECTID":448315},"geometry":{"x":167339.70999999996,"y":2540439.5}},{"attributes":{"ID":448341,"DIS_CODE":0,"TOWNNAME":"南區","LI":"郡南里","LIN":"18鄰","STREET":"德興路","SECT":" ","MAREA":" ","LANE":"１３９巷","ALLEY":" ","HOUSE_NO":"３６號五樓","E_COORD97":167339.70999999999,"N_COORD97":2540439.5,"ADDRESS":"德興路１３９巷３６號五樓","OBJECTID":448316},"geometry":{"x":167339.70999999996,"y":2540439.5}},{"attributes":{"ID":448342,"DIS_CODE":0,"TOWNNAME":"南區","LI":"郡南里","LIN":"18鄰","STREET":"德興路","SECT":" ","MAREA":" ","LANE":"１３９巷","ALLEY":" ","HOUSE_NO":"３８號二樓","E_COORD97":167344.57999999999,"N_COORD97":2540440.25,"ADDRESS":"德興路１３９巷３８號二樓","OBJECTID":448317},"geometry":{"x":167344.58000000007,"y":2540440.2500000019}},{"attributes":{"ID":448343,"DIS_CODE":0,"TOWNNAME":"南區","LI":"郡南里","LIN":"18鄰","STREET":"德興路","SECT":" ","MAREA":" ","LANE":"１３９巷","ALLEY":" ","HOUSE_NO":"３８號四樓","E_COORD97":167344.57999999999,"N_COORD97":2540440.25,"ADDRESS":"德興路１３９巷３８號四樓","OBJECTID":448318},"geometry":{"x":167344.58000000007,"y":2540440.2500000019}},{"attributes":{"ID":448344,"DIS_CODE":0,"TOWNNAME":"南區","LI":"郡南里","LIN":"18鄰","STREET":"德興路","SECT":" ","MAREA":" ","LANE":"１３９巷","ALLEY":" ","HOUSE_NO":"３８號三樓","E_COORD97":167344.57999999999,"N_COORD97":2540440.25,"ADDRESS":"德興路１３９巷３８號三樓","OBJECTID":448319},"geometry":{"x":167344.58000000007,"y":2540440.2500000019}},{"attributes":{"ID":448345,"DIS_CODE":0,"TOWNNAME":"南區","LI":"郡南里","LIN":"18鄰","STREET":"德興路","SECT":" ","MAREA":" ","LANE":"１３９巷","ALLEY":" ","HOUSE_NO":"３８號五樓","E_COORD97":167344.57999999999,"N_COORD97":2540440.25,"ADDRESS":"德興路１３９巷３８號五樓","OBJECTID":448320},"geometry":{"x":167344.58000000007,"y":2540440.2500000019}},{"attributes":{"ID":448346,"DIS_CODE":0,"TOWNNAME":"南區","LI":"郡南里","LIN":"18鄰","STREET":"德興路","SECT":" ","MAREA":" ","LANE":"１３９巷","ALLEY":" ","HOUSE_NO":"３８號六樓","E_COORD97":167344.57999999999,"N_COORD97":2540440.25,"ADDRESS":"德興路１３９巷３８號六樓","OBJECTID":448321},"geometry":{"x":167344.58000000007,"y":2540440.2500000019}},{"attributes":{"ID":448347,"DIS_CODE":0,"TOWNNAME":"南區","LI":"郡南里","LIN":"18鄰","STREET":"德興路","SECT":" ","MAREA":" ","LANE":"１３９巷","ALLEY":" ","HOUSE_NO":"４０號三樓","E_COORD97":167345.32000000001,"N_COORD97":2540453.04,"ADDRESS":"德興路１３９巷４０號三樓","OBJECTID":448322},"geometry":{"x":167345.32000000216,"y":2540453.0400000028}},{"attributes":{"ID":448348,"DIS_CODE":0,"TOWNNAME":"南區","LI":"郡南里","LIN":"18鄰","STREET":"德興路","SECT":" ","MAREA":" ","LANE":"１３９巷","ALLEY":" ","HOUSE_NO":"４０號四樓","E_COORD97":167345.32000000001,"N_COORD97":2540453.04,"ADDRESS":"德興路１３９巷４０號四樓","OBJECTID":448323},"geometry":{"x":167345.32000000216,"y":2540453.0400000028}},{"attributes":{"ID":448349,"DIS_CODE":0,"TOWNNAME":"南區","LI":"郡南里","LIN":"18鄰","STREET":"德興路","SECT":" ","MAREA":" ","LANE":"１３９巷","ALLEY":" ","HOUSE_NO":"４０號二樓","E_COORD97":167345.32000000001,"N_COORD97":2540453.04,"ADDRESS":"德興路１３９巷４０號二樓","OBJECTID":448324},"geometry":{"x":167345.32000000216,"y":2540453.0400000028}},{"attributes":{"ID":448350,"DIS_CODE":0,"TOWNNAME":"南區","LI":"郡南里","LIN":"18鄰","STREET":"德興路","SECT":" ","MAREA":" ","LANE":"１３９巷","ALLEY":" ","HOUSE_NO":"４０號五樓","E_COORD97":167345.32000000001,"N_COORD97":2540453.04,"ADDRESS":"德興路１３９巷４０號五樓","OBJECTID":448325},"geometry":{"x":167345.32000000216,"y":2540453.0400000028}},{"attributes":{"ID":448351,"DIS_CODE":0,"TOWNNAME":"南區","LI":"郡南里","LIN":"18鄰","STREET":"德興路","SECT":" ","MAREA":" ","LANE":"１３９巷","ALLEY":" ","HOUSE_NO":"４０號六樓","E_COORD97":167345.32000000001,"N_COORD97":2540453.04,"ADDRESS":"德興路１３９巷４０號六樓","OBJECTID":448326},"geometry":{"x":167345.32000000216,"y":2540453.0400000028}},{"attributes":{"ID":448352,"DIS_CODE":0,"TOWNNAME":"南區","LI":"開南里","LIN":"18鄰","STREET":"新建路","SECT":" ","MAREA":" ","LANE":"３３巷","ALLEY":" ","HOUSE_NO":"３號五樓","E_COORD97":166555.45999999999,"N_COORD97":2541187.25,"ADDRESS":"新建路３３巷３號五樓","OBJECTID":448327},"geometry":{"x":166555.45999999996,"y":2541187.25}},{"attributes":{"ID":448353,"DIS_CODE":0,"TOWNNAME":"南區","LI":"開南里","LIN":"18鄰","STREET":"新建路","SECT":" ","MAREA":" ","LANE":"３７巷","ALLEY":" ","HOUSE_NO":"８號六樓","E_COORD97":166603.72,"N_COORD97":2541049.9700000002,"ADDRESS":"新建路３７巷８號六樓","OBJECTID":448328},"geometry":{"x":166603.71999999974,"y":2541049.9700000025}},{"attributes":{"ID":448354,"DIS_CODE":0,"TOWNNAME":"南區","LI":"開南里","LIN":"18鄰","STREET":"新建路","SECT":" ","MAREA":" ","LANE":"３３巷","ALLEY":" ","HOUSE_NO":"１號七樓","E_COORD97":166490.81,"N_COORD97":2541189.3399999999,"ADDRESS":"新建路３３巷１號七樓","OBJECTID":448329},"geometry":{"x":166490.81000000052,"y":2541189.3399999999}},{"attributes":{"ID":448355,"DIS_CODE":0,"TOWNNAME":"南區","LI":"開南里","LIN":"18鄰","STREET":"新建路","SECT":" ","MAREA":" ","LANE":"３３巷","ALLEY":" ","HOUSE_NO":"１號七樓之１","E_COORD97":166490.81,"N_COORD97":2541189.3399999999,"ADDRESS":"新建路３３巷１號七樓之１","OBJECTID":448330},"geometry":{"x":166490.81000000052,"y":2541189.3399999999}},{"attributes":{"ID":448356,"DIS_CODE":0,"TOWNNAME":"南區","LI":"開南里","LIN":"18鄰","STREET":"新建路","SECT":" ","MAREA":" ","LANE":"３３巷","ALLEY":" ","HOUSE_NO":"１號七樓之２","E_COORD97":166490.81,"N_COORD97":2541189.3399999999,"ADDRESS":"新建路３３巷１號七樓之２","OBJECTID":448331},"geometry":{"x":166490.81000000052,"y":2541189.3399999999}},{"attributes":{"ID":448357,"DIS_CODE":0,"TOWNNAME":"南區","LI":"開南里","LIN":"18鄰","STREET":"新建路","SECT":" ","MAREA":" ","LANE":"３３巷","ALLEY":" ","HOUSE_NO":"１號七樓之３","E_COORD97":166490.81,"N_COORD97":2541189.3399999999,"ADDRESS":"新建路３３巷１號七樓之３","OBJECTID":448332},"geometry":{"x":166490.81000000052,"y":2541189.3399999999}},{"attributes":{"ID":448358,"DIS_CODE":0,"TOWNNAME":"南區","LI":"開南里","LIN":"18鄰","STREET":"新建路","SECT":" ","MAREA":" ","LANE":"３３巷","ALLEY":" ","HOUSE_NO":"１號九樓","E_COORD97":166490.81,"N_COORD97":2541189.3399999999,"ADDRESS":"新建路３３巷１號九樓","OBJECTID":448333},"geometry":{"x":166490.81000000052,"y":2541189.3399999999}},{"attributes":{"ID":448359,"DIS_CODE":0,"TOWNNAME":"南區","LI":"開南里","LIN":"18鄰","STREET":"新建路","SECT":" ","MAREA":" ","LANE":"３３巷","ALLEY":" ","HOUSE_NO":"１號九樓之１","E_COORD97":166490.81,"N_COORD97":2541189.3399999999,"ADDRESS":"新建路３３巷１號九樓之１","OBJECTID":448334},"geometry":{"x":166490.81000000052,"y":2541189.3399999999}},{"attributes":{"ID":448360,"DIS_CODE":0,"TOWNNAME":"南區","LI":"開南里","LIN":"18鄰","STREET":"新建路","SECT":" ","MAREA":" ","LANE":"３３巷","ALLEY":" ","HOUSE_NO":"１號九樓之２","E_COORD97":166490.81,"N_COORD97":2541189.3399999999,"ADDRESS":"新建路３３巷１號九樓之２","OBJECTID":448335},"geometry":{"x":166490.81000000052,"y":2541189.3399999999}},{"attributes":{"ID":448361,"DIS_CODE":0,"TOWNNAME":"南區","LI":"開南里","LIN":"18鄰","STREET":"新建路","SECT":" ","MAREA":" ","LANE":"３３巷","ALLEY":" ","HOUSE_NO":"１號九樓之３","E_COORD97":166490.81,"N_COORD97":2541189.3399999999,"ADDRESS":"新建路３３巷１號九樓之３","OBJECTID":448336},"geometry":{"x":166490.81000000052,"y":2541189.3399999999}},{"attributes":{"ID":448362,"DIS_CODE":0,"TOWNNAME":"南區","LI":"開南里","LIN":"18鄰","STREET":"新建路","SECT":" ","MAREA":" ","LANE":"３３巷","ALLEY":" ","HOUSE_NO":"１號十四樓","E_COORD97":166490.81,"N_COORD97":2541189.3399999999,"ADDRESS":"新建路３３巷１號十四樓","OBJECTID":448337},"geometry":{"x":166490.81000000052,"y":2541189.3399999999}},{"attributes":{"ID":448363,"DIS_CODE":0,"TOWNNAME":"南區","LI":"開南里","LIN":"18鄰","STREET":"新建路","SECT":" ","MAREA":" ","LANE":"３３巷","ALLEY":" ","HOUSE_NO":"１號十四樓之１","E_COORD97":166490.81,"N_COORD97":2541189.3399999999,"ADDRESS":"新建路３３巷１號十四樓之１","OBJECTID":448338},"geometry":{"x":166490.81000000052,"y":2541189.3399999999}},{"attributes":{"ID":448364,"DIS_CODE":0,"TOWNNAME":"南區","LI":"開南里","LIN":"18鄰","STREET":"新建路","SECT":" ","MAREA":" ","LANE":"３３巷","ALLEY":" ","HOUSE_NO":"１號十四樓之２","E_COORD97":166490.81,"N_COORD97":2541189.3399999999,"ADDRESS":"新建路３３巷１號十四樓之２","OBJECTID":448339},"geometry":{"x":166490.81000000052,"y":2541189.3399999999}},{"attributes":{"ID":448365,"DIS_CODE":0,"TOWNNAME":"南區","LI":"開南里","LIN":"18鄰","STREET":"新建路","SECT":" ","MAREA":" ","LANE":"３３巷","ALLEY":" ","HOUSE_NO":"１號十四樓之３","E_COORD97":166490.81,"N_COORD97":2541189.3399999999,"ADDRESS":"新建路３３巷１號十四樓之３","OBJECTID":448340},"geometry":{"x":166490.81000000052,"y":2541189.3399999999}},{"attributes":{"ID":448366,"DIS_CODE":0,"TOWNNAME":"南區","LI":"開南里","LIN":"18鄰","STREET":"新建路","SECT":" ","MAREA":" ","LANE":"３３巷","ALLEY":" ","HOUSE_NO":"１號十樓","E_COORD97":166490.81,"N_COORD97":2541189.3399999999,"ADDRESS":"新建路３３巷１號十樓","OBJECTID":448341},"geometry":{"x":166490.81000000052,"y":2541189.3399999999}},{"attributes":{"ID":448367,"DIS_CODE":0,"TOWNNAME":"南區","LI":"開南里","LIN":"18鄰","STREET":"新建路","SECT":" ","MAREA":" ","LANE":"３３巷","ALLEY":" ","HOUSE_NO":"１號十樓之１","E_COORD97":166490.81,"N_COORD97":2541189.3399999999,"ADDRESS":"新建路３３巷１號十樓之１","OBJECTID":448342},"geometry":{"x":166490.81000000052,"y":2541189.3399999999}},{"attributes":{"ID":448368,"DIS_CODE":0,"TOWNNAME":"南區","LI":"開南里","LIN":"18鄰","STREET":"新建路","SECT":" ","MAREA":" ","LANE":"３３巷","ALLEY":" ","HOUSE_NO":"１號十樓之２","E_COORD97":166490.81,"N_COORD97":2541189.3399999999,"ADDRESS":"新建路３３巷１號十樓之２","OBJECTID":448343},"geometry":{"x":166490.81000000052,"y":2541189.3399999999}},{"attributes":{"ID":448369,"DIS_CODE":0,"TOWNNAME":"南區","LI":"開南里","LIN":"18鄰","STREET":"新建路","SECT":" ","MAREA":" ","LANE":"３３巷","ALLEY":" ","HOUSE_NO":"１號十樓之３","E_COORD97":166490.81,"N_COORD97":2541189.3399999999,"ADDRESS":"新建路３３巷１號十樓之３","OBJECTID":448344},"geometry":{"x":166490.81000000052,"y":2541189.3399999999}},{"attributes":{"ID":448370,"DIS_CODE":0,"TOWNNAME":"南區","LI":"開南里","LIN":"18鄰","STREET":"新建路","SECT":" ","MAREA":" ","LANE":"３３巷","ALLEY":" ","HOUSE_NO":"１號三樓","E_COORD97":166490.81,"N_COORD97":2541189.3399999999,"ADDRESS":"新建路３３巷１號三樓","OBJECTID":448345},"geometry":{"x":166490.81000000052,"y":2541189.3399999999}},{"attributes":{"ID":448371,"DIS_CODE":0,"TOWNNAME":"南區","LI":"開南里","LIN":"18鄰","STREET":"新建路","SECT":" ","MAREA":" ","LANE":"３３巷","ALLEY":" ","HOUSE_NO":"１號三樓之１","E_COORD97":166490.81,"N_COORD97":2541189.3399999999,"ADDRESS":"新建路３３巷１號三樓之１","OBJECTID":448346},"geometry":{"x":166490.81000000052,"y":2541189.3399999999}},{"attributes":{"ID":448372,"DIS_CODE":0,"TOWNNAME":"南區","LI":"開南里","LIN":"18鄰","STREET":"新建路","SECT":" ","MAREA":" ","LANE":"３３巷","ALLEY":" ","HOUSE_NO":"１號三樓之２","E_COORD97":166490.81,"N_COORD97":2541189.3399999999,"ADDRESS":"新建路３３巷１號三樓之２","OBJECTID":448347},"geometry":{"x":166490.81000000052,"y":2541189.3399999999}},{"attributes":{"ID":448373,"DIS_CODE":0,"TOWNNAME":"南區","LI":"開南里","LIN":"18鄰","STREET":"新建路","SECT":" ","MAREA":" ","LANE":"３３巷","ALLEY":" ","HOUSE_NO":"１號三樓之３","E_COORD97":166490.81,"N_COORD97":2541189.3399999999,"ADDRESS":"新建路３３巷１號三樓之３","OBJECTID":448348},"geometry":{"x":166490.81000000052,"y":2541189.3399999999}},{"attributes":{"ID":448374,"DIS_CODE":0,"TOWNNAME":"南區","LI":"開南里","LIN":"18鄰","STREET":"新建路","SECT":" ","MAREA":" ","LANE":"３３巷","ALLEY":" ","HOUSE_NO":"１號五樓","E_COORD97":166490.81,"N_COORD97":2541189.3399999999,"ADDRESS":"新建路３３巷１號五樓","OBJECTID":448349},"geometry":{"x":166490.81000000052,"y":2541189.3399999999}},{"attributes":{"ID":448375,"DIS_CODE":0,"TOWNNAME":"南區","LI":"開南里","LIN":"18鄰","STREET":"新建路","SECT":" ","MAREA":" ","LANE":"３３巷","ALLEY":" ","HOUSE_NO":"１號五樓之１","E_COORD97":166490.81,"N_COORD97":2541189.3399999999,"ADDRESS":"新建路３３巷１號五樓之１","OBJECTID":448350},"geometry":{"x":166490.81000000052,"y":2541189.3399999999}},{"attributes":{"ID":448376,"DIS_CODE":0,"TOWNNAME":"南區","LI":"開南里","LIN":"18鄰","STREET":"新建路","SECT":" ","MAREA":" ","LANE":"３３巷","ALLEY":" ","HOUSE_NO":"１號五樓之２","E_COORD97":166490.81,"N_COORD97":2541189.3399999999,"ADDRESS":"新建路３３巷１號五樓之２","OBJECTID":448351},"geometry":{"x":166490.81000000052,"y":2541189.3399999999}},{"attributes":{"ID":448377,"DIS_CODE":0,"TOWNNAME":"南區","LI":"開南里","LIN":"18鄰","STREET":"新建路","SECT":" ","MAREA":" ","LANE":"３３巷","ALLEY":" ","HOUSE_NO":"１號五樓之３","E_COORD97":166490.81,"N_COORD97":2541189.3399999999,"ADDRESS":"新建路３３巷１號五樓之３","OBJECTID":448352},"geometry":{"x":166490.81000000052,"y":2541189.3399999999}},{"attributes":{"ID":448378,"DIS_CODE":0,"TOWNNAME":"南區","LI":"開南里","LIN":"18鄰","STREET":"新建路","SECT":" ","MAREA":" ","LANE":"３３巷","ALLEY":" ","HOUSE_NO":"１號六樓","E_COORD97":166490.81,"N_COORD97":2541189.3399999999,"ADDRESS":"新建路３３巷１號六樓","OBJECTID":448353},"geometry":{"x":166490.81000000052,"y":2541189.3399999999}},{"attributes":{"ID":448379,"DIS_CODE":0,"TOWNNAME":"南區","LI":"開南里","LIN":"18鄰","STREET":"新建路","SECT":" ","MAREA":" ","LANE":"３３巷","ALLEY":" ","HOUSE_NO":"１號六樓之１","E_COORD97":166490.81,"N_COORD97":2541189.3399999999,"ADDRESS":"新建路３３巷１號六樓之１","OBJECTID":448354},"geometry":{"x":166490.81000000052,"y":2541189.3399999999}},{"attributes":{"ID":448380,"DIS_CODE":0,"TOWNNAME":"南區","LI":"開南里","LIN":"18鄰","STREET":"新建路","SECT":" ","MAREA":" ","LANE":"３３巷","ALLEY":" ","HOUSE_NO":"１號六樓之２","E_COORD97":166490.81,"N_COORD97":2541189.3399999999,"ADDRESS":"新建路３３巷１號六樓之２","OBJECTID":448355},"geometry":{"x":166490.81000000052,"y":2541189.3399999999}},{"attributes":{"ID":448381,"DIS_CODE":0,"TOWNNAME":"南區","LI":"開南里","LIN":"18鄰","STREET":"新建路","SECT":" ","MAREA":" ","LANE":"３３巷","ALLEY":" ","HOUSE_NO":"１號六樓之３","E_COORD97":166490.81,"N_COORD97":2541189.3399999999,"ADDRESS":"新建路３３巷１號六樓之３","OBJECTID":448356},"geometry":{"x":166490.81000000052,"y":2541189.3399999999}},{"attributes":{"ID":448382,"DIS_CODE":0,"TOWNNAME":"南區","LI":"開南里","LIN":"18鄰","STREET":"新建路","SECT":" ","MAREA":" ","LANE":"３３巷","ALLEY":" ","HOUSE_NO":"１號四樓","E_COORD97":166490.81,"N_COORD97":2541189.3399999999,"ADDRESS":"新建路３３巷１號四樓","OBJECTID":448357},"geometry":{"x":166490.81000000052,"y":2541189.3399999999}},{"attributes":{"ID":448383,"DIS_CODE":0,"TOWNNAME":"南區","LI":"開南里","LIN":"18鄰","STREET":"新建路","SECT":" ","MAREA":" ","LANE":"３３巷","ALLEY":" ","HOUSE_NO":"１號四樓之１","E_COORD97":166490.81,"N_COORD97":2541189.3399999999,"ADDRESS":"新建路３３巷１號四樓之１","OBJECTID":448358},"geometry":{"x":166490.81000000052,"y":2541189.3399999999}},{"attributes":{"ID":448384,"DIS_CODE":0,"TOWNNAME":"南區","LI":"開南里","LIN":"18鄰","STREET":"新建路","SECT":" ","MAREA":" ","LANE":"３３巷","ALLEY":" ","HOUSE_NO":"１號四樓之２","E_COORD97":166490.81,"N_COORD97":2541189.3399999999,"ADDRESS":"新建路３３巷１號四樓之２","OBJECTID":448359},"geometry":{"x":166490.81000000052,"y":2541189.3399999999}},{"attributes":{"ID":448385,"DIS_CODE":0,"TOWNNAME":"南區","LI":"開南里","LIN":"18鄰","STREET":"新建路","SECT":" ","MAREA":" ","LANE":"３３巷","ALLEY":" ","HOUSE_NO":"１號四樓之３","E_COORD97":166490.81,"N_COORD97":2541189.3399999999,"ADDRESS":"新建路３３巷１號四樓之３","OBJECTID":448360},"geometry":{"x":166490.81000000052,"y":2541189.3399999999}},{"attributes":{"ID":448386,"DIS_CODE":0,"TOWNNAME":"南區","LI":"開南里","LIN":"18鄰","STREET":"新建路","SECT":" ","MAREA":" ","LANE":"３３巷","ALLEY":" ","HOUSE_NO":"１號二樓","E_COORD97":166490.81,"N_COORD97":2541189.3399999999,"ADDRESS":"新建路３３巷１號二樓","OBJECTID":448361},"geometry":{"x":166490.81000000052,"y":2541189.3399999999}},{"attributes":{"ID":448387,"DIS_CODE":0,"TOWNNAME":"南區","LI":"開南里","LIN":"18鄰","STREET":"新建路","SECT":" ","MAREA":" ","LANE":"３３巷","ALLEY":" ","HOUSE_NO":"１號二樓之１","E_COORD97":166490.81,"N_COORD97":2541189.3399999999,"ADDRESS":"新建路３３巷１號二樓之１","OBJECTID":448362},"geometry":{"x":166490.81000000052,"y":2541189.3399999999}},{"attributes":{"ID":448388,"DIS_CODE":0,"TOWNNAME":"南區","LI":"開南里","LIN":"18鄰","STREET":"新建路","SECT":" ","MAREA":" ","LANE":"３３巷","ALLEY":" ","HOUSE_NO":"１號二樓之２","E_COORD97":166490.81,"N_COORD97":2541189.3399999999,"ADDRESS":"新建路３３巷１號二樓之２","OBJECTID":448363},"geometry":{"x":166490.81000000052,"y":2541189.3399999999}},{"attributes":{"ID":448389,"DIS_CODE":0,"TOWNNAME":"南區","LI":"開南里","LIN":"18鄰","STREET":"新建路","SECT":" ","MAREA":" ","LANE":"３３巷","ALLEY":" ","HOUSE_NO":"１號二樓之３","E_COORD97":166490.81,"N_COORD97":2541189.3399999999,"ADDRESS":"新建路３３巷１號二樓之３","OBJECTID":448364},"geometry":{"x":166490.81000000052,"y":2541189.3399999999}},{"attributes":{"ID":448390,"DIS_CODE":0,"TOWNNAME":"南區","LI":"開南里","LIN":"18鄰","STREET":"新建路","SECT":" ","MAREA":" ","LANE":"３３巷","ALLEY":" ","HOUSE_NO":"１號八樓之１","E_COORD97":166490.81,"N_COORD97":2541189.3399999999,"ADDRESS":"新建路３３巷１號八樓之１","OBJECTID":448365},"geometry":{"x":166490.81000000052,"y":2541189.3399999999}},{"attributes":{"ID":448391,"DIS_CODE":0,"TOWNNAME":"南區","LI":"開南里","LIN":"18鄰","STREET":"新建路","SECT":" ","MAREA":" ","LANE":"３３巷","ALLEY":" ","HOUSE_NO":"１號八樓之２","E_COORD97":166490.81,"N_COORD97":2541189.3399999999,"ADDRESS":"新建路３３巷１號八樓之２","OBJECTID":448366},"geometry":{"x":166490.81000000052,"y":2541189.3399999999}},{"attributes":{"ID":448392,"DIS_CODE":0,"TOWNNAME":"南區","LI":"開南里","LIN":"18鄰","STREET":"新建路","SECT":" ","MAREA":" ","LANE":"３３巷","ALLEY":" ","HOUSE_NO":"１號八樓之３","E_COORD97":166490.81,"N_COORD97":2541189.3399999999,"ADDRESS":"新建路３３巷１號八樓之３","OBJECTID":448367},"geometry":{"x":166490.81000000052,"y":2541189.3399999999}},{"attributes":{"ID":448393,"DIS_CODE":0,"TOWNNAME":"南區","LI":"開南里","LIN":"18鄰","STREET":"新建路","SECT":" ","MAREA":" ","LANE":"３３巷","ALLEY":" ","HOUSE_NO":"１號十一樓","E_COORD97":166490.81,"N_COORD97":2541189.3399999999,"ADDRESS":"新建路３３巷１號十一樓","OBJECTID":448368},"geometry":{"x":166490.81000000052,"y":2541189.3399999999}},{"attributes":{"ID":448394,"DIS_CODE":0,"TOWNNAME":"南區","LI":"開南里","LIN":"18鄰","STREET":"新建路","SECT":" ","MAREA":" ","LANE":"３３巷","ALLEY":" ","HOUSE_NO":"１號十一樓之１","E_COORD97":166490.81,"N_COORD97":2541189.3399999999,"ADDRESS":"新建路３３巷１號十一樓之１","OBJECTID":448369},"geometry":{"x":166490.81000000052,"y":2541189.3399999999}},{"attributes":{"ID":448395,"DIS_CODE":0,"TOWNNAME":"南區","LI":"開南里","LIN":"18鄰","STREET":"新建路","SECT":" ","MAREA":" ","LANE":"３３巷","ALLEY":" ","HOUSE_NO":"１號十一樓之２","E_COORD97":166490.81,"N_COORD97":2541189.3399999999,"ADDRESS":"新建路３３巷１號十一樓之２","OBJECTID":448370},"geometry":{"x":166490.81000000052,"y":2541189.3399999999}},{"attributes":{"ID":448396,"DIS_CODE":0,"TOWNNAME":"南區","LI":"開南里","LIN":"18鄰","STREET":"新建路","SECT":" ","MAREA":" ","LANE":"３３巷","ALLEY":" ","HOUSE_NO":"１號十一樓之３","E_COORD97":166490.81,"N_COORD97":2541189.3399999999,"ADDRESS":"新建路３３巷１號十一樓之３","OBJECTID":448371},"geometry":{"x":166490.81000000052,"y":2541189.3399999999}},{"attributes":{"ID":448397,"DIS_CODE":0,"TOWNNAME":"南區","LI":"開南里","LIN":"18鄰","STREET":"新建路","SECT":" ","MAREA":" ","LANE":"３３巷","ALLEY":" ","HOUSE_NO":"１號十二樓","E_COORD97":166490.81,"N_COORD97":2541189.3399999999,"ADDRESS":"新建路３３巷１號十二樓","OBJECTID":448372},"geometry":{"x":166490.81000000052,"y":2541189.3399999999}},{"attributes":{"ID":448398,"DIS_CODE":0,"TOWNNAME":"南區","LI":"開南里","LIN":"18鄰","STREET":"新建路","SECT":" ","MAREA":" ","LANE":"３３巷","ALLEY":" ","HOUSE_NO":"１號十二樓之１","E_COORD97":166490.81,"N_COORD97":2541189.3399999999,"ADDRESS":"新建路３３巷１號十二樓之１","OBJECTID":448373},"geometry":{"x":166490.81000000052,"y":2541189.3399999999}},{"attributes":{"ID":448399,"DIS_CODE":0,"TOWNNAME":"南區","LI":"開南里","LIN":"18鄰","STREET":"新建路","SECT":" ","MAREA":" ","LANE":"３３巷","ALLEY":" ","HOUSE_NO":"１號十二樓之２","E_COORD97":166490.81,"N_COORD97":2541189.3399999999,"ADDRESS":"新建路３３巷１號十二樓之２","OBJECTID":448374},"geometry":{"x":166490.81000000052,"y":2541189.3399999999}},{"attributes":{"ID":448400,"DIS_CODE":0,"TOWNNAME":"南區","LI":"開南里","LIN":"18鄰","STREET":"新建路","SECT":" ","MAREA":" ","LANE":"３３巷","ALLEY":" ","HOUSE_NO":"１號十二樓之３","E_COORD97":166490.81,"N_COORD97":2541189.3399999999,"ADDRESS":"新建路３３巷１號十二樓之３","OBJECTID":448375},"geometry":{"x":166490.81000000052,"y":2541189.3399999999}},{"attributes":{"ID":448401,"DIS_CODE":0,"TOWNNAME":"南區","LI":"開南里","LIN":"18鄰","STREET":"新建路","SECT":" ","MAREA":" ","LANE":"３３巷","ALLEY":" ","HOUSE_NO":"１號十三樓","E_COORD97":166490.81,"N_COORD97":2541189.3399999999,"ADDRESS":"新建路３３巷１號十三樓","OBJECTID":448376},"geometry":{"x":166490.81000000052,"y":2541189.3399999999}},{"attributes":{"ID":448402,"DIS_CODE":0,"TOWNNAME":"南區","LI":"開南里","LIN":"18鄰","STREET":"新建路","SECT":" ","MAREA":" ","LANE":"３３巷","ALLEY":" ","HOUSE_NO":"１號十三樓之１","E_COORD97":166490.81,"N_COORD97":2541189.3399999999,"ADDRESS":"新建路３３巷１號十三樓之１","OBJECTID":448377},"geometry":{"x":166490.81000000052,"y":2541189.3399999999}},{"attributes":{"ID":448403,"DIS_CODE":0,"TOWNNAME":"南區","LI":"開南里","LIN":"18鄰","STREET":"新建路","SECT":" ","MAREA":" ","LANE":"３３巷","ALLEY":" ","HOUSE_NO":"１號十三樓之２","E_COORD97":166490.81,"N_COORD97":2541189.3399999999,"ADDRESS":"新建路３３巷１號十三樓之２","OBJECTID":448378},"geometry":{"x":166490.81000000052,"y":2541189.3399999999}},{"attributes":{"ID":448404,"DIS_CODE":0,"TOWNNAME":"南區","LI":"開南里","LIN":"18鄰","STREET":"新建路","SECT":" ","MAREA":" ","LANE":"３３巷","ALLEY":" ","HOUSE_NO":"１號十三樓之３","E_COORD97":166490.81,"N_COORD97":2541189.3399999999,"ADDRESS":"新建路３３巷１號十三樓之３","OBJECTID":448379},"geometry":{"x":166490.81000000052,"y":2541189.3399999999}},{"attributes":{"ID":448405,"DIS_CODE":0,"TOWNNAME":"南區","LI":"開南里","LIN":"18鄰","STREET":"新建路","SECT":" ","MAREA":" ","LANE":"３３巷","ALLEY":" ","HOUSE_NO":"１號十五樓","E_COORD97":166490.81,"N_COORD97":2541189.3399999999,"ADDRESS":"新建路３３巷１號十五樓","OBJECTID":448380},"geometry":{"x":166490.81000000052,"y":2541189.3399999999}},{"attributes":{"ID":448406,"DIS_CODE":0,"TOWNNAME":"南區","LI":"開南里","LIN":"18鄰","STREET":"新建路","SECT":" ","MAREA":" ","LANE":"３３巷","ALLEY":" ","HOUSE_NO":"１號十五樓之１","E_COORD97":166490.81,"N_COORD97":2541189.3399999999,"ADDRESS":"新建路３３巷１號十五樓之１","OBJECTID":448381},"geometry":{"x":166490.81000000052,"y":2541189.3399999999}},{"attributes":{"ID":448407,"DIS_CODE":0,"TOWNNAME":"南區","LI":"開南里","LIN":"18鄰","STREET":"新建路","SECT":" ","MAREA":" ","LANE":"３３巷","ALLEY":" ","HOUSE_NO":"１號十五樓之２","E_COORD97":166490.81,"N_COORD97":2541189.3399999999,"ADDRESS":"新建路３３巷１號十五樓之２","OBJECTID":448382},"geometry":{"x":166490.81000000052,"y":2541189.3399999999}},{"attributes":{"ID":448408,"DIS_CODE":0,"TOWNNAME":"南區","LI":"開南里","LIN":"18鄰","STREET":"新建路","SECT":" ","MAREA":" ","LANE":"３３巷","ALLEY":" ","HOUSE_NO":"１號十五樓之３","E_COORD97":166490.81,"N_COORD97":2541189.3399999999,"ADDRESS":"新建路３３巷１號十五樓之３","OBJECTID":448383},"geometry":{"x":166490.81000000052,"y":2541189.3399999999}},{"attributes":{"ID":448409,"DIS_CODE":0,"TOWNNAME":"南區","LI":"開南里","LIN":"18鄰","STREET":"新建路","SECT":" ","MAREA":" ","LANE":"３３巷","ALLEY":" ","HOUSE_NO":"１號十六樓","E_COORD97":166490.81,"N_COORD97":2541189.3399999999,"ADDRESS":"新建路３３巷１號十六樓","OBJECTID":448384},"geometry":{"x":166490.81000000052,"y":2541189.3399999999}},{"attributes":{"ID":448410,"DIS_CODE":0,"TOWNNAME":"南區","LI":"開南里","LIN":"18鄰","STREET":"新建路","SECT":" ","MAREA":" ","LANE":"３３巷","ALLEY":" ","HOUSE_NO":"１號十六樓之１","E_COORD97":166490.81,"N_COORD97":2541189.3399999999,"ADDRESS":"新建路３３巷１號十六樓之１","OBJECTID":448385},"geometry":{"x":166490.81000000052,"y":2541189.3399999999}},{"attributes":{"ID":448411,"DIS_CODE":0,"TOWNNAME":"南區","LI":"開南里","LIN":"18鄰","STREET":"新建路","SECT":" ","MAREA":" ","LANE":"３３巷","ALLEY":" ","HOUSE_NO":"１號十六樓之２","E_COORD97":166490.81,"N_COORD97":2541189.3399999999,"ADDRESS":"新建路３３巷１號十六樓之２","OBJECTID":448386},"geometry":{"x":166490.81000000052,"y":2541189.3399999999}},{"attributes":{"ID":448412,"DIS_CODE":0,"TOWNNAME":"南區","LI":"開南里","LIN":"18鄰","STREET":"新建路","SECT":" ","MAREA":" ","LANE":"３３巷","ALLEY":" ","HOUSE_NO":"１號十六樓之３","E_COORD97":166490.81,"N_COORD97":2541189.3399999999,"ADDRESS":"新建路３３巷１號十六樓之３","OBJECTID":448387},"geometry":{"x":166490.81000000052,"y":2541189.3399999999}},{"attributes":{"ID":448413,"DIS_CODE":0,"TOWNNAME":"南區","LI":"開南里","LIN":"18鄰","STREET":"新建路","SECT":" ","MAREA":" ","LANE":"３３巷","ALLEY":" ","HOUSE_NO":"３號七樓","E_COORD97":166555.45999999999,"N_COORD97":2541187.25,"ADDRESS":"新建路３３巷３號七樓","OBJECTID":448388},"geometry":{"x":166555.45999999996,"y":2541187.25}},{"attributes":{"ID":448414,"DIS_CODE":0,"TOWNNAME":"南區","LI":"開南里","LIN":"18鄰","STREET":"新建路","SECT":" ","MAREA":" ","LANE":"３３巷","ALLEY":" ","HOUSE_NO":"３號七樓之１","E_COORD97":166555.45999999999,"N_COORD97":2541187.25,"ADDRESS":"新建路３３巷３號七樓之１","OBJECTID":448389},"geometry":{"x":166555.45999999996,"y":2541187.25}},{"attributes":{"ID":448415,"DIS_CODE":0,"TOWNNAME":"南區","LI":"開南里","LIN":"18鄰","STREET":"新建路","SECT":" ","MAREA":" ","LANE":"３３巷","ALLEY":" ","HOUSE_NO":"３號七樓之２","E_COORD97":166555.45999999999,"N_COORD97":2541187.25,"ADDRESS":"新建路３３巷３號七樓之２","OBJECTID":448390},"geometry":{"x":166555.45999999996,"y":2541187.25}},{"attributes":{"ID":448416,"DIS_CODE":0,"TOWNNAME":"南區","LI":"開南里","LIN":"18鄰","STREET":"新建路","SECT":" ","MAREA":" ","LANE":"３３巷","ALLEY":" ","HOUSE_NO":"３號七樓之３","E_COORD97":166555.45999999999,"N_COORD97":2541187.25,"ADDRESS":"新建路３３巷３號七樓之３","OBJECTID":448391},"geometry":{"x":166555.45999999996,"y":2541187.25}},{"attributes":{"ID":448417,"DIS_CODE":0,"TOWNNAME":"南區","LI":"開南里","LIN":"18鄰","STREET":"新建路","SECT":" ","MAREA":" ","LANE":"３３巷","ALLEY":" ","HOUSE_NO":"３號九樓","E_COORD97":166555.45999999999,"N_COORD97":2541187.25,"ADDRESS":"新建路３３巷３號九樓","OBJECTID":448392},"geometry":{"x":166555.45999999996,"y":2541187.25}},{"attributes":{"ID":448418,"DIS_CODE":0,"TOWNNAME":"南區","LI":"開南里","LIN":"18鄰","STREET":"新建路","SECT":" ","MAREA":" ","LANE":"３３巷","ALLEY":" ","HOUSE_NO":"３號九樓之１","E_COORD97":166555.45999999999,"N_COORD97":2541187.25,"ADDRESS":"新建路３３巷３號九樓之１","OBJECTID":448393},"geometry":{"x":166555.45999999996,"y":2541187.25}},{"attributes":{"ID":448419,"DIS_CODE":0,"TOWNNAME":"南區","LI":"開南里","LIN":"18鄰","STREET":"新建路","SECT":" ","MAREA":" ","LANE":"３３巷","ALLEY":" ","HOUSE_NO":"３號九樓之２","E_COORD97":166555.45999999999,"N_COORD97":2541187.25,"ADDRESS":"新建路３３巷３號九樓之２","OBJECTID":448394},"geometry":{"x":166555.45999999996,"y":2541187.25}},{"attributes":{"ID":448420,"DIS_CODE":0,"TOWNNAME":"南區","LI":"開南里","LIN":"18鄰","STREET":"新建路","SECT":" ","MAREA":" ","LANE":"３３巷","ALLEY":" ","HOUSE_NO":"３號九樓之３","E_COORD97":166555.45999999999,"N_COORD97":2541187.25,"ADDRESS":"新建路３３巷３號九樓之３","OBJECTID":448395},"geometry":{"x":166555.45999999996,"y":2541187.25}},{"attributes":{"ID":448421,"DIS_CODE":0,"TOWNNAME":"南區","LI":"開南里","LIN":"18鄰","STREET":"新建路","SECT":" ","MAREA":" ","LANE":"３３巷","ALLEY":" ","HOUSE_NO":"３號二樓","E_COORD97":166555.45999999999,"N_COORD97":2541187.25,"ADDRESS":"新建路３３巷３號二樓","OBJECTID":448396},"geometry":{"x":166555.45999999996,"y":2541187.25}},{"attributes":{"ID":448422,"DIS_CODE":0,"TOWNNAME":"南區","LI":"開南里","LIN":"18鄰","STREET":"新建路","SECT":" ","MAREA":" ","LANE":"３３巷","ALLEY":" ","HOUSE_NO":"３號二樓之１","E_COORD97":166555.45999999999,"N_COORD97":2541187.25,"ADDRESS":"新建路３３巷３號二樓之１","OBJECTID":448397},"geometry":{"x":166555.45999999996,"y":2541187.25}},{"attributes":{"ID":448423,"DIS_CODE":0,"TOWNNAME":"南區","LI":"開南里","LIN":"18鄰","STREET":"新建路","SECT":" ","MAREA":" ","LANE":"３３巷","ALLEY":" ","HOUSE_NO":"３號二樓之２","E_COORD97":166555.45999999999,"N_COORD97":2541187.25,"ADDRESS":"新建路３３巷３號二樓之２","OBJECTID":448398},"geometry":{"x":166555.45999999996,"y":2541187.25}},{"attributes":{"ID":448424,"DIS_CODE":0,"TOWNNAME":"南區","LI":"開南里","LIN":"18鄰","STREET":"新建路","SECT":" ","MAREA":" ","LANE":"３３巷","ALLEY":" ","HOUSE_NO":"３號二樓之３","E_COORD97":166555.45999999999,"N_COORD97":2541187.25,"ADDRESS":"新建路３３巷３號二樓之３","OBJECTID":448399},"geometry":{"x":166555.45999999996,"y":2541187.25}},{"attributes":{"ID":448425,"DIS_CODE":0,"TOWNNAME":"南區","LI":"開南里","LIN":"18鄰","STREET":"新建路","SECT":" ","MAREA":" ","LANE":"３３巷","ALLEY":" ","HOUSE_NO":"３號八樓","E_COORD97":166555.45999999999,"N_COORD97":2541187.25,"ADDRESS":"新建路３３巷３號八樓","OBJECTID":448400},"geometry":{"x":166555.45999999996,"y":2541187.25}}]}