{"displayFieldName":"TOWNNAME","fieldAliases":{"ID":"ID","DIS_CODE":"DIS_CODE","TOWNNAME":"TOWNNAME","LI":"LI","LIN":"LIN","STREET":"STREET","SECT":"SECT","MAREA":"MAREA","LANE":"LANE","ALLEY":"ALLEY","HOUSE_NO":"HOUSE_NO","E_COORD97":"E_COORD97","N_COORD97":"N_COORD97","ADDRESS":"ADDRESS","OBJECTID":"OBJECTID"},"geometryType":"esriGeometryPoint","spatialReference":{"wkid":102443,"latestWkid":3826},"fields":[{"name":"ID","type":"esriFieldTypeDouble","alias":"ID"},{"name":"DIS_CODE","type":"esriFieldTypeInteger","alias":"DIS_CODE"},{"name":"TOWNNAME","type":"esriFieldTypeString","alias":"TOWNNAME","length":8},{"name":"LI","type":"esriFieldTypeString","alias":"LI","length":8},{"name":"LIN","type":"esriFieldTypeString","alias":"LIN","length":12},{"name":"STREET","type":"esriFieldTypeString","alias":"STREET","length":20},{"name":"SECT","type":"esriFieldTypeString","alias":"SECT","length":8},{"name":"MAREA","type":"esriFieldTypeString","alias":"MAREA","length":12},{"name":"LANE","type":"esriFieldTypeString","alias":"LANE","length":10},{"name":"ALLEY","type":"esriFieldTypeString","alias":"ALLEY","length":10},{"name":"HOUSE_NO","type":"esriFieldTypeString","alias":"HOUSE_NO","length":20},{"name":"E_COORD97","type":"esriFieldTypeDouble","alias":"E_COORD97"},{"name":"N_COORD97","type":"esriFieldTypeDouble","alias":"N_COORD97"},{"name":"ADDRESS","type":"esriFieldTypeString","alias":"ADDRESS","length":50},{"name":"OBJECTID","type":"esriFieldTypeOID","alias":"OBJECTID"}],"features":[{"attributes":{"ID":315009,"DIS_CODE":0,"TOWNNAME":"安南區","LI":"城南里","LIN":"7鄰","STREET":"城西街","SECT":"一段","MAREA":" ","LANE":"６１巷","ALLEY":" ","HOUSE_NO":"１９７號","E_COORD97":160470.37,"N_COORD97":2551059.48,"ADDRESS":"城西街一段６１巷１９７號","OBJECTID":315001},"geometry":{"x":160470.37000000011,"y":2551059.4800000004}},{"attributes":{"ID":315010,"DIS_CODE":0,"TOWNNAME":"安南區","LI":"城南里","LIN":"7鄰","STREET":"城西街","SECT":"一段","MAREA":" ","LANE":"６１巷","ALLEY":" ","HOUSE_NO":"１９９號","E_COORD97":160465.64000000001,"N_COORD97":2551057.4900000002,"ADDRESS":"城西街一段６１巷１９９號","OBJECTID":315002},"geometry":{"x":160465.6400000006,"y":2551057.4900000021}},{"attributes":{"ID":315011,"DIS_CODE":0,"TOWNNAME":"安南區","LI":"城南里","LIN":"7鄰","STREET":"城西街","SECT":"一段","MAREA":" ","LANE":"６１巷","ALLEY":" ","HOUSE_NO":"２０１號","E_COORD97":160460.42000000001,"N_COORD97":2551056.25,"ADDRESS":"城西街一段６１巷２０１號","OBJECTID":315003},"geometry":{"x":160460.42000000086,"y":2551056.25}},{"attributes":{"ID":315012,"DIS_CODE":0,"TOWNNAME":"南區","LI":"鯤鯓里","LIN":"17鄰","STREET":"鯤鯓路","SECT":" ","MAREA":" ","LANE":" ","ALLEY":" ","HOUSE_NO":"２０６號之１","E_COORD97":164858.32999999999,"N_COORD97":2540317.0600000001,"ADDRESS":"鯤鯓路２０６號之１","OBJECTID":315004},"geometry":{"x":164858.33000000101,"y":2540317.0600000005}},{"attributes":{"ID":315013,"DIS_CODE":0,"TOWNNAME":"大內區","LI":"環湖里","LIN":"5鄰","STREET":" ","SECT":" ","MAREA":"環湖","LANE":" ","ALLEY":" ","HOUSE_NO":"５７號之６","E_COORD97":190637.34969999999,"N_COORD97":2560517.3498200001,"ADDRESS":"環湖５７號之６","OBJECTID":315005},"geometry":{"x":190637.34970000014,"y":2560517.3498200011}},{"attributes":{"ID":315014,"DIS_CODE":0,"TOWNNAME":"南區","LI":"大忠里","LIN":"17鄰","STREET":"大同路","SECT":"二段","MAREA":" ","LANE":" ","ALLEY":" ","HOUSE_NO":"５２０號","E_COORD97":169479.29000000001,"N_COORD97":2541347.79,"ADDRESS":"大同路二段５２０號","OBJECTID":315006},"geometry":{"x":169479.28999999911,"y":2541347.790000001}},{"attributes":{"ID":315015,"DIS_CODE":0,"TOWNNAME":"南區","LI":"大忠里","LIN":"17鄰","STREET":"大同路","SECT":"二段","MAREA":" ","LANE":" ","ALLEY":" ","HOUSE_NO":"５３０號","E_COORD97":169492.51000000001,"N_COORD97":2541328.8300000001,"ADDRESS":"大同路二段５３０號","OBJECTID":315007},"geometry":{"x":169492.50999999978,"y":2541328.8300000001}},{"attributes":{"ID":315016,"DIS_CODE":0,"TOWNNAME":"南區","LI":"大忠里","LIN":"17鄰","STREET":"大同路","SECT":"二段","MAREA":" ","LANE":" ","ALLEY":" ","HOUSE_NO":"５３２號","E_COORD97":169503.57999999999,"N_COORD97":2541285.1699999999,"ADDRESS":"大同路二段５３２號","OBJECTID":315008},"geometry":{"x":169503.58000000101,"y":2541285.1700000018}},{"attributes":{"ID":315017,"DIS_CODE":0,"TOWNNAME":"南區","LI":"大忠里","LIN":"17鄰","STREET":"大同路","SECT":"二段","MAREA":" ","LANE":" ","ALLEY":" ","HOUSE_NO":"５４０號","E_COORD97":169504.19,"N_COORD97":2541276.8799999999,"ADDRESS":"大同路二段５４０號","OBJECTID":315009},"geometry":{"x":169504.19000000227,"y":2541276.879999999}},{"attributes":{"ID":315018,"DIS_CODE":0,"TOWNNAME":"南區","LI":"大忠里","LIN":"17鄰","STREET":"大同路","SECT":"二段","MAREA":" ","LANE":" ","ALLEY":" ","HOUSE_NO":"５４６號","E_COORD97":169505.73000000001,"N_COORD97":2541271.98,"ADDRESS":"大同路二段５４６號","OBJECTID":315010},"geometry":{"x":169505.73000000231,"y":2541271.9800000042}},{"attributes":{"ID":315019,"DIS_CODE":0,"TOWNNAME":"南區","LI":"大忠里","LIN":"17鄰","STREET":"大同路","SECT":"二段","MAREA":" ","LANE":" ","ALLEY":" ","HOUSE_NO":"５５０號","E_COORD97":169507.26999999999,"N_COORD97":2541263.71,"ADDRESS":"大同路二段５５０號","OBJECTID":315011},"geometry":{"x":169507.26999999955,"y":2541263.7100000009}},{"attributes":{"ID":315020,"DIS_CODE":0,"TOWNNAME":"北區","LI":"開元里","LIN":"3鄰","STREET":"北園街","SECT":" ","MAREA":" ","LANE":"９９巷","ALLEY":" ","HOUSE_NO":"１８號","E_COORD97":170285.42999999999,"N_COORD97":2545878.8900000001,"ADDRESS":"北園街９９巷１８號","OBJECTID":315012},"geometry":{"x":170285.43000000063,"y":2545878.8900000006}},{"attributes":{"ID":315021,"DIS_CODE":0,"TOWNNAME":"北區","LI":"開元里","LIN":"3鄰","STREET":"北園街","SECT":" ","MAREA":" ","LANE":"９９巷","ALLEY":" ","HOUSE_NO":"２０號","E_COORD97":170281.62,"N_COORD97":2545879,"ADDRESS":"北園街９９巷２０號","OBJECTID":315013},"geometry":{"x":170281.62000000011,"y":2545879.0000000037}},{"attributes":{"ID":315022,"DIS_CODE":0,"TOWNNAME":"北區","LI":"開元里","LIN":"3鄰","STREET":"北園街","SECT":" ","MAREA":" ","LANE":"９９巷","ALLEY":" ","HOUSE_NO":"２２號","E_COORD97":170277.48000000001,"N_COORD97":2545879.54,"ADDRESS":"北園街９９巷２２號","OBJECTID":315014},"geometry":{"x":170277.48000000138,"y":2545879.5399999991}},{"attributes":{"ID":315023,"DIS_CODE":0,"TOWNNAME":"北區","LI":"開元里","LIN":"3鄰","STREET":"北園街","SECT":" ","MAREA":" ","LANE":"９９巷","ALLEY":" ","HOUSE_NO":"２４號","E_COORD97":170273.01000000001,"N_COORD97":2545880.2000000002,"ADDRESS":"北園街９９巷２４號","OBJECTID":315015},"geometry":{"x":170273.01000000071,"y":2545880.200000003}},{"attributes":{"ID":315024,"DIS_CODE":0,"TOWNNAME":"北區","LI":"開元里","LIN":"3鄰","STREET":"北園街","SECT":" ","MAREA":" ","LANE":"９９巷","ALLEY":" ","HOUSE_NO":"２６號","E_COORD97":170268.20999999999,"N_COORD97":2545880.2000000002,"ADDRESS":"北園街９９巷２６號","OBJECTID":315016},"geometry":{"x":170268.21000000183,"y":2545880.200000003}},{"attributes":{"ID":315025,"DIS_CODE":0,"TOWNNAME":"北區","LI":"開元里","LIN":"3鄰","STREET":"北園街","SECT":" ","MAREA":" ","LANE":"９９巷","ALLEY":" ","HOUSE_NO":"２８號","E_COORD97":170264.67999999999,"N_COORD97":2545880.7400000002,"ADDRESS":"北園街９９巷２８號","OBJECTID":315017},"geometry":{"x":170264.68000000156,"y":2545880.7400000039}},{"attributes":{"ID":315026,"DIS_CODE":0,"TOWNNAME":"北區","LI":"開元里","LIN":"3鄰","STREET":"北園街","SECT":" ","MAREA":" ","LANE":"９９巷","ALLEY":" ","HOUSE_NO":"２號","E_COORD97":170319.35999999999,"N_COORD97":2545875.6200000001,"ADDRESS":"北園街９９巷２號","OBJECTID":315018},"geometry":{"x":170319.36000000034,"y":2545875.6200000048}},{"attributes":{"ID":315027,"DIS_CODE":0,"TOWNNAME":"新營區","LI":"土庫里","LIN":"4鄰","STREET":" ","SECT":" ","MAREA":"土庫","LANE":" ","ALLEY":" ","HOUSE_NO":"３４號","E_COORD97":183195.72,"N_COORD97":2580023.1099999999,"ADDRESS":"土庫３４號","OBJECTID":315019},"geometry":{"x":183195.72000000067,"y":2580023.1100000013}},{"attributes":{"ID":315028,"DIS_CODE":0,"TOWNNAME":"北區","LI":"開元里","LIN":"3鄰","STREET":"北園街","SECT":" ","MAREA":" ","LANE":"９９巷","ALLEY":" ","HOUSE_NO":"３０號","E_COORD97":170260.04000000001,"N_COORD97":2545881.0699999998,"ADDRESS":"北園街９９巷３０號","OBJECTID":315020},"geometry":{"x":170260.04000000004,"y":2545881.0700000003}},{"attributes":{"ID":315029,"DIS_CODE":0,"TOWNNAME":"安南區","LI":"城南里","LIN":"7鄰","STREET":"城西街","SECT":"一段","MAREA":" ","LANE":"６１巷","ALLEY":" ","HOUSE_NO":"２０３號","E_COORD97":160455.95000000001,"N_COORD97":2551055.0099999998,"ADDRESS":"城西街一段６１巷２０３號","OBJECTID":315021},"geometry":{"x":160455.95000000019,"y":2551055.0099999998}},{"attributes":{"ID":315030,"DIS_CODE":0,"TOWNNAME":"安南區","LI":"城南里","LIN":"7鄰","STREET":"城西街","SECT":"一段","MAREA":" ","LANE":"６１巷","ALLEY":" ","HOUSE_NO":"２０５號","E_COORD97":160450.97,"N_COORD97":2551053.52,"ADDRESS":"城西街一段６１巷２０５號","OBJECTID":315022},"geometry":{"x":160450.9700000016,"y":2551053.5200000014}},{"attributes":{"ID":315031,"DIS_CODE":0,"TOWNNAME":"安南區","LI":"安慶里","LIN":"7鄰","STREET":"長溪路","SECT":"一段","MAREA":" ","LANE":"１６８巷","ALLEY":" ","HOUSE_NO":"２２８號","E_COORD97":168965.85000000001,"N_COORD97":2548991.8700000001,"ADDRESS":"長溪路一段１６８巷２２８號","OBJECTID":315023},"geometry":{"x":168965.84999999963,"y":2548991.870000001}},{"attributes":{"ID":315032,"DIS_CODE":0,"TOWNNAME":"歸仁區","LI":"八甲里","LIN":"14鄰","STREET":"大明街","SECT":" ","MAREA":" ","LANE":"１３９巷","ALLEY":" ","HOUSE_NO":"８號","E_COORD97":178178.03,"N_COORD97":2541875.25,"ADDRESS":"大明街１３９巷８號","OBJECTID":315024},"geometry":{"x":178178.03000000119,"y":2541875.25}},{"attributes":{"ID":315033,"DIS_CODE":0,"TOWNNAME":"新化區","LI":"太平里","LIN":"7鄰","STREET":"民生路","SECT":" ","MAREA":" ","LANE":"３１４巷","ALLEY":" ","HOUSE_NO":"１００號","E_COORD97":179077.41,"N_COORD97":2549209.25,"ADDRESS":"民生路３１４巷１００號","OBJECTID":315025},"geometry":{"x":179077.41000000108,"y":2549209.25}},{"attributes":{"ID":315034,"DIS_CODE":0,"TOWNNAME":"新化區","LI":"太平里","LIN":"7鄰","STREET":"民生路","SECT":" ","MAREA":" ","LANE":"３１４巷","ALLEY":" ","HOUSE_NO":"４４號","E_COORD97":179089.56,"N_COORD97":2549224.25,"ADDRESS":"民生路３１４巷４４號","OBJECTID":315026},"geometry":{"x":179089.56000000052,"y":2549224.2500000019}},{"attributes":{"ID":315035,"DIS_CODE":0,"TOWNNAME":"新化區","LI":"太平里","LIN":"7鄰","STREET":"民生路","SECT":" ","MAREA":" ","LANE":"３１４巷","ALLEY":" ","HOUSE_NO":"５４號","E_COORD97":179122.95999999999,"N_COORD97":2549223.25,"ADDRESS":"民生路３１４巷５４號","OBJECTID":315027},"geometry":{"x":179122.95999999996,"y":2549223.2499999981}},{"attributes":{"ID":315036,"DIS_CODE":0,"TOWNNAME":"新化區","LI":"協興里","LIN":"7鄰","STREET":"忠孝路","SECT":" ","MAREA":" ","LANE":"２０６巷","ALLEY":" ","HOUSE_NO":"１１號","E_COORD97":178269.57000000001,"N_COORD97":2548604.25,"ADDRESS":"忠孝路２０６巷１１號","OBJECTID":315028},"geometry":{"x":178269.57000000123,"y":2548604.2500000019}},{"attributes":{"ID":315037,"DIS_CODE":0,"TOWNNAME":"新化區","LI":"太平里","LIN":"7鄰","STREET":"民生路","SECT":" ","MAREA":" ","LANE":"３１４巷","ALLEY":" ","HOUSE_NO":"６０號","E_COORD97":179126.66,"N_COORD97":2549204.25,"ADDRESS":"民生路３１４巷６０號","OBJECTID":315029},"geometry":{"x":179126.66000000108,"y":2549204.2500000019}},{"attributes":{"ID":315038,"DIS_CODE":0,"TOWNNAME":"南區","LI":"大忠里","LIN":"17鄰","STREET":"大同路","SECT":"二段","MAREA":" ","LANE":" ","ALLEY":" ","HOUSE_NO":"５５４號","E_COORD97":169509.42000000001,"N_COORD97":2541255.4300000002,"ADDRESS":"大同路二段５５４號","OBJECTID":315030},"geometry":{"x":169509.42000000086,"y":2541255.4300000016}},{"attributes":{"ID":315039,"DIS_CODE":0,"TOWNNAME":"南區","LI":"大忠里","LIN":"17鄰","STREET":"大同路","SECT":"二段","MAREA":" ","LANE":" ","ALLEY":" ","HOUSE_NO":"５５８號","E_COORD97":169510.64999999999,"N_COORD97":2541248.3700000001,"ADDRESS":"大同路二段５５８號","OBJECTID":315031},"geometry":{"x":169510.65000000037,"y":2541248.370000001}},{"attributes":{"ID":315040,"DIS_CODE":0,"TOWNNAME":"南區","LI":"大忠里","LIN":"17鄰","STREET":"大同路","SECT":"二段","MAREA":" ","LANE":" ","ALLEY":" ","HOUSE_NO":"５６０號","E_COORD97":169512.72,"N_COORD97":2541239.6299999999,"ADDRESS":"大同路二段５６０號","OBJECTID":315032},"geometry":{"x":169512.71999999974,"y":2541239.6300000008}},{"attributes":{"ID":315041,"DIS_CODE":0,"TOWNNAME":"南區","LI":"大忠里","LIN":"17鄰","STREET":"大同路","SECT":"二段","MAREA":" ","LANE":" ","ALLEY":" ","HOUSE_NO":"５６６號","E_COORD97":169514.17000000001,"N_COORD97":2541229.2799999998,"ADDRESS":"大同路二段５６６號","OBJECTID":315033},"geometry":{"x":169514.17000000086,"y":2541229.2800000012}},{"attributes":{"ID":315042,"DIS_CODE":0,"TOWNNAME":"南區","LI":"大忠里","LIN":"17鄰","STREET":"大同路","SECT":"二段","MAREA":" ","LANE":" ","ALLEY":" ","HOUSE_NO":"５６８號","E_COORD97":169497.09,"N_COORD97":2541223.7599999998,"ADDRESS":"大同路二段５６８號","OBJECTID":315034},"geometry":{"x":169497.08999999985,"y":2541223.7599999998}},{"attributes":{"ID":315043,"DIS_CODE":0,"TOWNNAME":"南區","LI":"大忠里","LIN":"17鄰","STREET":"大同路","SECT":"二段","MAREA":" ","LANE":" ","ALLEY":" ","HOUSE_NO":"５７０號","E_COORD97":169504.5,"N_COORD97":2541215.77,"ADDRESS":"大同路二段５７０號","OBJECTID":315035},"geometry":{"x":169504.5,"y":2541215.7700000014}},{"attributes":{"ID":315044,"DIS_CODE":0,"TOWNNAME":"南區","LI":"大忠里","LIN":"17鄰","STREET":"大同路","SECT":"二段","MAREA":" ","LANE":" ","ALLEY":" ","HOUSE_NO":"５７２號","E_COORD97":169506.67000000001,"N_COORD97":2541208.5499999998,"ADDRESS":"大同路二段５７２號","OBJECTID":315036},"geometry":{"x":169506.66999999993,"y":2541208.5500000026}},{"attributes":{"ID":315045,"DIS_CODE":0,"TOWNNAME":"南區","LI":"大忠里","LIN":"17鄰","STREET":"大同路","SECT":"二段","MAREA":" ","LANE":" ","ALLEY":" ","HOUSE_NO":"５７６號","E_COORD97":169507.39999999999,"N_COORD97":2541201.3300000001,"ADDRESS":"大同路二段５７６號","OBJECTID":315037},"geometry":{"x":169507.40000000037,"y":2541201.3300000038}},{"attributes":{"ID":315046,"DIS_CODE":0,"TOWNNAME":"安平區","LI":"海頭里","LIN":"7鄰","STREET":"延平街","SECT":" ","MAREA":" ","LANE":"１０４巷","ALLEY":" ","HOUSE_NO":"９號之１１","E_COORD97":164115.17000000001,"N_COORD97":2544643.4900000002,"ADDRESS":"延平街１０４巷９號之１１","OBJECTID":315038},"geometry":{"x":164115.17000000086,"y":2544643.4900000002}},{"attributes":{"ID":315047,"DIS_CODE":0,"TOWNNAME":"新化區","LI":"太平里","LIN":"7鄰","STREET":"民生路","SECT":" ","MAREA":" ","LANE":"３１４巷","ALLEY":" ","HOUSE_NO":"１０４號","E_COORD97":179063.10999999999,"N_COORD97":2549208.25,"ADDRESS":"民生路３１４巷１０４號","OBJECTID":315039},"geometry":{"x":179063.11000000034,"y":2549208.25}},{"attributes":{"ID":315048,"DIS_CODE":0,"TOWNNAME":"新化區","LI":"太平里","LIN":"7鄰","STREET":"民生路","SECT":" ","MAREA":" ","LANE":"３１４巷","ALLEY":" ","HOUSE_NO":"５３號","E_COORD97":179091.76000000001,"N_COORD97":2549240.25,"ADDRESS":"民生路３１４巷５３號","OBJECTID":315040},"geometry":{"x":179091.76000000071,"y":2549240.2500000037}},{"attributes":{"ID":315049,"DIS_CODE":0,"TOWNNAME":"新化區","LI":"協興里","LIN":"7鄰","STREET":"忠孝路","SECT":" ","MAREA":" ","LANE":"２０６巷","ALLEY":" ","HOUSE_NO":"１１號之１","E_COORD97":178279,"N_COORD97":2548608.2599999998,"ADDRESS":"忠孝路２０６巷１１號之１","OBJECTID":315041},"geometry":{"x":178279,"y":2548608.2599999998}},{"attributes":{"ID":315050,"DIS_CODE":0,"TOWNNAME":"新化區","LI":"太平里","LIN":"7鄰","STREET":"民生路","SECT":" ","MAREA":" ","LANE":"３１４巷","ALLEY":" ","HOUSE_NO":"７１號","E_COORD97":179111.66,"N_COORD97":2549261.25,"ADDRESS":"民生路３１４巷７１號","OBJECTID":315042},"geometry":{"x":179111.66000000015,"y":2549261.2500000019}},{"attributes":{"ID":315051,"DIS_CODE":0,"TOWNNAME":"南區","LI":"大忠里","LIN":"17鄰","STREET":"大同路","SECT":"二段","MAREA":" ","LANE":" ","ALLEY":" ","HOUSE_NO":"５７８號","E_COORD97":169508.45999999999,"N_COORD97":2541194.6699999999,"ADDRESS":"大同路二段５７８號","OBJECTID":315043},"geometry":{"x":169508.45999999996,"y":2541194.6699999999}},{"attributes":{"ID":315052,"DIS_CODE":0,"TOWNNAME":"佳里區","LI":"安西里","LIN":"1鄰","STREET":"中山路","SECT":" ","MAREA":" ","LANE":" ","ALLEY":" ","HOUSE_NO":"３６５號","E_COORD97":165701.97,"N_COORD97":2562615.6499999999,"ADDRESS":"中山路３６５號","OBJECTID":315044},"geometry":{"x":165701.96999999974,"y":2562615.6500000004}},{"attributes":{"ID":315053,"DIS_CODE":0,"TOWNNAME":"安平區","LI":"海頭里","LIN":"10鄰","STREET":"\u25A0忠街","SECT":" ","MAREA":" ","LANE":"５２巷","ALLEY":" ","HOUSE_NO":"５號","E_COORD97":164165.54000000001,"N_COORD97":2544679.9199999999,"ADDRESS":"\u25A0忠街５２巷５號","OBJECTID":315045},"geometry":{"x":164165.54000000097,"y":2544679.9200000018}},{"attributes":{"ID":315054,"DIS_CODE":0,"TOWNNAME":"安平區","LI":"海頭里","LIN":"10鄰","STREET":"\u25A0忠街","SECT":" ","MAREA":" ","LANE":"５２巷","ALLEY":" ","HOUSE_NO":"７號","E_COORD97":164161.95000000001,"N_COORD97":2544695.04,"ADDRESS":"\u25A0忠街５２巷７號","OBJECTID":315046},"geometry":{"x":164161.95000000019,"y":2544695.040000001}},{"attributes":{"ID":315055,"DIS_CODE":0,"TOWNNAME":"安平區","LI":"平通里","LIN":"23鄰","STREET":"育平九街","SECT":" ","MAREA":" ","LANE":"３７２巷","ALLEY":" ","HOUSE_NO":"１０６號","E_COORD97":164608.95000000001,"N_COORD97":2544003.4100000001,"ADDRESS":"育平九街３７２巷１０６號","OBJECTID":315047},"geometry":{"x":164608.95000000112,"y":2544003.4100000001}},{"attributes":{"ID":315056,"DIS_CODE":0,"TOWNNAME":"安平區","LI":"平通里","LIN":"23鄰","STREET":"育平九街","SECT":" ","MAREA":" ","LANE":"３７２巷","ALLEY":" ","HOUSE_NO":"１０８號","E_COORD97":164608.67999999999,"N_COORD97":2544007.46,"ADDRESS":"育平九街３７２巷１０８號","OBJECTID":315048},"geometry":{"x":164608.6799999997,"y":2544007.4600000009}},{"attributes":{"ID":315057,"DIS_CODE":0,"TOWNNAME":"新化區","LI":"太平里","LIN":"7鄰","STREET":"民生路","SECT":" ","MAREA":" ","LANE":"３１４巷","ALLEY":" ","HOUSE_NO":"５７號","E_COORD97":179110.35999999999,"N_COORD97":2549239.25,"ADDRESS":"民生路３１４巷５７號","OBJECTID":315049},"geometry":{"x":179110.36000000127,"y":2549239.25}},{"attributes":{"ID":315058,"DIS_CODE":0,"TOWNNAME":"新化區","LI":"協興里","LIN":"7鄰","STREET":"忠孝路","SECT":" ","MAREA":" ","LANE":"２０６巷","ALLEY":" ","HOUSE_NO":"２５號","E_COORD97":178318.47,"N_COORD97":2548636.25,"ADDRESS":"忠孝路２０６巷２５號","OBJECTID":315050},"geometry":{"x":178318.47000000067,"y":2548636.25}},{"attributes":{"ID":315059,"DIS_CODE":0,"TOWNNAME":"新化區","LI":"太平里","LIN":"7鄰","STREET":"民生路","SECT":" ","MAREA":" ","LANE":"３１４巷","ALLEY":" ","HOUSE_NO":"５１號","E_COORD97":179086.76000000001,"N_COORD97":2549240.25,"ADDRESS":"民生路３１４巷５１號","OBJECTID":315051},"geometry":{"x":179086.76000000071,"y":2549240.2500000037}},{"attributes":{"ID":315060,"DIS_CODE":0,"TOWNNAME":"新營區","LI":"埤寮里","LIN":"4鄰","STREET":" ","SECT":" ","MAREA":"許丑","LANE":" ","ALLEY":" ","HOUSE_NO":"４５號","E_COORD97":179741.29000000001,"N_COORD97":2580976.0099999998,"ADDRESS":"許丑４５號","OBJECTID":315052},"geometry":{"x":179741.29000000004,"y":2580976.0100000016}},{"attributes":{"ID":315061,"DIS_CODE":0,"TOWNNAME":"南區","LI":"大忠里","LIN":"17鄰","STREET":"大同路","SECT":"二段","MAREA":" ","LANE":" ","ALLEY":" ","HOUSE_NO":"５８２號","E_COORD97":169514.41,"N_COORD97":2541188.3399999999,"ADDRESS":"大同路二段５８２號","OBJECTID":315053},"geometry":{"x":169514.41000000201,"y":2541188.3400000017}},{"attributes":{"ID":315062,"DIS_CODE":0,"TOWNNAME":"南區","LI":"大忠里","LIN":"17鄰","STREET":"大同路","SECT":"二段","MAREA":" ","LANE":" ","ALLEY":" ","HOUSE_NO":"５８４號","E_COORD97":169515.20000000001,"N_COORD97":2541182.02,"ADDRESS":"大同路二段５８４號","OBJECTID":315054},"geometry":{"x":169515.20000000019,"y":2541182.0199999996}},{"attributes":{"ID":315063,"DIS_CODE":0,"TOWNNAME":"南區","LI":"大忠里","LIN":"17鄰","STREET":"大同路","SECT":"二段","MAREA":" ","LANE":" ","ALLEY":" ","HOUSE_NO":"５８６號","E_COORD97":169516.79000000001,"N_COORD97":2541176.0899999999,"ADDRESS":"大同路二段５８６號","OBJECTID":315055},"geometry":{"x":169516.7900000019,"y":2541176.0900000017}},{"attributes":{"ID":315064,"DIS_CODE":0,"TOWNNAME":"南區","LI":"大忠里","LIN":"17鄰","STREET":"大同路","SECT":"二段","MAREA":" ","LANE":" ","ALLEY":" ","HOUSE_NO":"５９０號","E_COORD97":169519.16,"N_COORD97":2541167,"ADDRESS":"大同路二段５９０號","OBJECTID":315056},"geometry":{"x":169519.16000000015,"y":2541167.0000000019}},{"attributes":{"ID":315065,"DIS_CODE":0,"TOWNNAME":"安平區","LI":"海頭里","LIN":"17鄰","STREET":"古堡街","SECT":" ","MAREA":" ","LANE":"１１８巷","ALLEY":" ","HOUSE_NO":"２７號","E_COORD97":163813.31,"N_COORD97":2545029.5699999998,"ADDRESS":"古堡街１１８巷２７號","OBJECTID":315057},"geometry":{"x":163813.30999999959,"y":2545029.5700000003}},{"attributes":{"ID":315066,"DIS_CODE":0,"TOWNNAME":"安平區","LI":"海頭里","LIN":"17鄰","STREET":"古堡街","SECT":" ","MAREA":" ","LANE":"１１８巷","ALLEY":" ","HOUSE_NO":"２９號","E_COORD97":163812.66,"N_COORD97":2545034.4500000002,"ADDRESS":"古堡街１１８巷２９號","OBJECTID":315058},"geometry":{"x":163812.66000000015,"y":2545034.4500000011}},{"attributes":{"ID":315067,"DIS_CODE":0,"TOWNNAME":"安平區","LI":"海頭里","LIN":"17鄰","STREET":"古堡街","SECT":" ","MAREA":" ","LANE":"１１８巷","ALLEY":" ","HOUSE_NO":"３１號","E_COORD97":163812.66,"N_COORD97":2545039.0600000001,"ADDRESS":"古堡街１１８巷３１號","OBJECTID":315059},"geometry":{"x":163812.66000000015,"y":2545039.0600000024}},{"attributes":{"ID":315068,"DIS_CODE":0,"TOWNNAME":"安平區","LI":"平通里","LIN":"27鄰","STREET":"育平七街","SECT":" ","MAREA":" ","LANE":"１４２巷","ALLEY":" ","HOUSE_NO":"６６號","E_COORD97":164345.35999999999,"N_COORD97":2543935.0099999998,"ADDRESS":"育平七街１４２巷６６號","OBJECTID":315060},"geometry":{"x":164345.36000000034,"y":2543935.0099999998}},{"attributes":{"ID":315069,"DIS_CODE":0,"TOWNNAME":"安平區","LI":"平通里","LIN":"27鄰","STREET":"育平七街","SECT":" ","MAREA":" ","LANE":"１４２巷","ALLEY":" ","HOUSE_NO":"６８號","E_COORD97":164352.07000000001,"N_COORD97":2543881.46,"ADDRESS":"育平七街１４２巷６８號","OBJECTID":315061},"geometry":{"x":164352.07000000123,"y":2543881.4600000009}},{"attributes":{"ID":315070,"DIS_CODE":0,"TOWNNAME":"安平區","LI":"平通里","LIN":"27鄰","STREET":"育平七街","SECT":" ","MAREA":" ","LANE":"１４２巷","ALLEY":" ","HOUSE_NO":"７４號","E_COORD97":164344.57999999999,"N_COORD97":2543955.1200000001,"ADDRESS":"育平七街１４２巷７４號","OBJECTID":315062},"geometry":{"x":164344.58000000101,"y":2543955.120000001}},{"attributes":{"ID":315071,"DIS_CODE":0,"TOWNNAME":"安平區","LI":"平安里","LIN":"3鄰","STREET":"安平路","SECT":" ","MAREA":" ","LANE":"９８巷","ALLEY":" ","HOUSE_NO":"１０號","E_COORD97":166379.85999999999,"N_COORD97":2544360.0800000001,"ADDRESS":"安平路９８巷１０號","OBJECTID":315063},"geometry":{"x":166379.86000000034,"y":2544360.0800000019}},{"attributes":{"ID":315072,"DIS_CODE":0,"TOWNNAME":"安平區","LI":"平安里","LIN":"3鄰","STREET":"安平路","SECT":" ","MAREA":" ","LANE":"９８巷","ALLEY":" ","HOUSE_NO":"１１號","E_COORD97":166366.32000000001,"N_COORD97":2544364.8399999999,"ADDRESS":"安平路９８巷１１號","OBJECTID":315064},"geometry":{"x":166366.3200000003,"y":2544364.8400000017}},{"attributes":{"ID":315073,"DIS_CODE":0,"TOWNNAME":"安平區","LI":"平安里","LIN":"2鄰","STREET":"安平路","SECT":" ","MAREA":" ","LANE":"８０巷","ALLEY":" ","HOUSE_NO":"１號","E_COORD97":166400.12,"N_COORD97":2544340.8599999999,"ADDRESS":"安平路８０巷１號","OBJECTID":315065},"geometry":{"x":166400.12000000011,"y":2544340.8600000013}},{"attributes":{"ID":315074,"DIS_CODE":0,"TOWNNAME":"新化區","LI":"太平里","LIN":"7鄰","STREET":"民生路","SECT":" ","MAREA":" ","LANE":"３１４巷","ALLEY":" ","HOUSE_NO":"４６號","E_COORD97":179096.66,"N_COORD97":2549223.25,"ADDRESS":"民生路３１４巷４６號","OBJECTID":315066},"geometry":{"x":179096.66000000015,"y":2549223.2499999981}},{"attributes":{"ID":315075,"DIS_CODE":0,"TOWNNAME":"新化區","LI":"太平里","LIN":"7鄰","STREET":"民生路","SECT":" ","MAREA":" ","LANE":"３１４巷","ALLEY":" ","HOUSE_NO":"４５號","E_COORD97":179067.35999999999,"N_COORD97":2549240.25,"ADDRESS":"民生路３１４巷４５號","OBJECTID":315067},"geometry":{"x":179067.36000000127,"y":2549240.2500000037}},{"attributes":{"ID":315076,"DIS_CODE":0,"TOWNNAME":"新化區","LI":"太平里","LIN":"7鄰","STREET":"民生路","SECT":" ","MAREA":" ","LANE":"３１４巷","ALLEY":" ","HOUSE_NO":"６１號","E_COORD97":179121.95999999999,"N_COORD97":2549239.25,"ADDRESS":"民生路３１４巷６１號","OBJECTID":315068},"geometry":{"x":179121.95999999903,"y":2549239.25}},{"attributes":{"ID":315077,"DIS_CODE":0,"TOWNNAME":"新化區","LI":"協興里","LIN":"7鄰","STREET":"忠孝路","SECT":" ","MAREA":" ","LANE":"２０６巷","ALLEY":" ","HOUSE_NO":"２７號","E_COORD97":178322.57000000001,"N_COORD97":2548636.25,"ADDRESS":"忠孝路２０６巷２７號","OBJECTID":315069},"geometry":{"x":178322.5700000003,"y":2548636.25}},{"attributes":{"ID":315078,"DIS_CODE":0,"TOWNNAME":"新化區","LI":"太平里","LIN":"7鄰","STREET":"民生路","SECT":" ","MAREA":" ","LANE":"３１４巷","ALLEY":" ","HOUSE_NO":"４７號","E_COORD97":179073.95999999999,"N_COORD97":2549241.25,"ADDRESS":"民生路３１４巷４７號","OBJECTID":315070},"geometry":{"x":179073.95999999996,"y":2549241.2500000019}},{"attributes":{"ID":315079,"DIS_CODE":0,"TOWNNAME":"新化區","LI":"協興里","LIN":"7鄰","STREET":"忠孝路","SECT":" ","MAREA":" ","LANE":"２０６巷","ALLEY":" ","HOUSE_NO":"２９號","E_COORD97":178326.87,"N_COORD97":2548637.25,"ADDRESS":"忠孝路２０６巷２９號","OBJECTID":315071},"geometry":{"x":178326.87000000104,"y":2548637.2500000019}},{"attributes":{"ID":315080,"DIS_CODE":0,"TOWNNAME":"新化區","LI":"協興里","LIN":"7鄰","STREET":"忠孝路","SECT":" ","MAREA":" ","LANE":"２０６巷","ALLEY":" ","HOUSE_NO":"１３號","E_COORD97":178288.97,"N_COORD97":2548610.25,"ADDRESS":"忠孝路２０６巷１３號","OBJECTID":315072},"geometry":{"x":178288.96999999974,"y":2548610.2500000019}},{"attributes":{"ID":315081,"DIS_CODE":0,"TOWNNAME":"新化區","LI":"太平里","LIN":"7鄰","STREET":"民生路","SECT":" ","MAREA":" ","LANE":"３１４巷","ALLEY":" ","HOUSE_NO":"６９號","E_COORD97":179111.76000000001,"N_COORD97":2549256.25,"ADDRESS":"民生路３１４巷６９號","OBJECTID":315073},"geometry":{"x":179111.76000000071,"y":2549256.25}},{"attributes":{"ID":315082,"DIS_CODE":0,"TOWNNAME":"新化區","LI":"太平里","LIN":"7鄰","STREET":"民生路","SECT":" ","MAREA":" ","LANE":"３１４巷","ALLEY":" ","HOUSE_NO":"３９號","E_COORD97":179044.66,"N_COORD97":2549243.25,"ADDRESS":"民生路３１４巷３９號","OBJECTID":315074},"geometry":{"x":179044.66000000201,"y":2549243.25}},{"attributes":{"ID":315083,"DIS_CODE":0,"TOWNNAME":"南區","LI":"大忠里","LIN":"17鄰","STREET":"大同路","SECT":"二段","MAREA":" ","LANE":" ","ALLEY":" ","HOUSE_NO":"５９２號","E_COORD97":169524.81,"N_COORD97":2541158.4300000002,"ADDRESS":"大同路二段５９２號","OBJECTID":315075},"geometry":{"x":169524.81000000052,"y":2541158.4299999997}},{"attributes":{"ID":315084,"DIS_CODE":0,"TOWNNAME":"南區","LI":"大忠里","LIN":"17鄰","STREET":"大同路","SECT":"二段","MAREA":" ","LANE":" ","ALLEY":" ","HOUSE_NO":"５９６號","E_COORD97":169506.82999999999,"N_COORD97":2541154.77,"ADDRESS":"大同路二段５９６號","OBJECTID":315076},"geometry":{"x":169506.83000000101,"y":2541154.7700000014}},{"attributes":{"ID":315085,"DIS_CODE":0,"TOWNNAME":"南區","LI":"大忠里","LIN":"17鄰","STREET":"大同路","SECT":"二段","MAREA":" ","LANE":" ","ALLEY":" ","HOUSE_NO":"５９８號","E_COORD97":169508.67000000001,"N_COORD97":2541138.6699999999,"ADDRESS":"大同路二段５９８號","OBJECTID":315077},"geometry":{"x":169508.66999999993,"y":2541138.6700000018}},{"attributes":{"ID":315086,"DIS_CODE":0,"TOWNNAME":"南區","LI":"大忠里","LIN":"17鄰","STREET":"大同路","SECT":"二段","MAREA":" ","LANE":" ","ALLEY":" ","HOUSE_NO":"６３２號","E_COORD97":169546.34,"N_COORD97":2541063.4700000002,"ADDRESS":"大同路二段６３２號","OBJECTID":315078},"geometry":{"x":169546.33999999985,"y":2541063.4700000025}},{"attributes":{"ID":315087,"DIS_CODE":0,"TOWNNAME":"南區","LI":"大忠里","LIN":"17鄰","STREET":"大同路","SECT":"二段","MAREA":" ","LANE":" ","ALLEY":" ","HOUSE_NO":"６３６號","E_COORD97":169548.47,"N_COORD97":2541054,"ADDRESS":"大同路二段６３６號","OBJECTID":315079},"geometry":{"x":169548.46999999974,"y":2541054}},{"attributes":{"ID":315088,"DIS_CODE":0,"TOWNNAME":"歸仁區","LI":"八甲里","LIN":"14鄰","STREET":"大仁七街","SECT":" ","MAREA":" ","LANE":" ","ALLEY":" ","HOUSE_NO":"４０號","E_COORD97":178186.82000000001,"N_COORD97":2541648.6099999999,"ADDRESS":"大仁七街４０號","OBJECTID":315080},"geometry":{"x":178186.8200000003,"y":2541648.6099999994}},{"attributes":{"ID":315089,"DIS_CODE":0,"TOWNNAME":"楠西區","LI":"東勢里","LIN":"17鄰","STREET":"信義路","SECT":" ","MAREA":" ","LANE":" ","ALLEY":" ","HOUSE_NO":"６７號","E_COORD97":197599.82000000001,"N_COORD97":2563546.2599999998,"ADDRESS":"信義路６７號","OBJECTID":315081},"geometry":{"x":197599.82000000123,"y":2563546.2599999998}},{"attributes":{"ID":315090,"DIS_CODE":0,"TOWNNAME":"楠西區","LI":"楠西里","LIN":"17鄰","STREET":"中華路","SECT":" ","MAREA":" ","LANE":" ","ALLEY":" ","HOUSE_NO":"１１號","E_COORD97":197280.31,"N_COORD97":2564047.25,"ADDRESS":"中華路１１號","OBJECTID":315082},"geometry":{"x":197280.31000000052,"y":2564047.2500000019}},{"attributes":{"ID":315091,"DIS_CODE":0,"TOWNNAME":"楠西區","LI":"東勢里","LIN":"17鄰","STREET":"茄拔路","SECT":" ","MAREA":" ","LANE":" ","ALLEY":" ","HOUSE_NO":"２０６號","E_COORD97":197518.23999999999,"N_COORD97":2563741.2799999998,"ADDRESS":"茄拔路２０６號","OBJECTID":315083},"geometry":{"x":197518.23999999929,"y":2563741.2800000012}},{"attributes":{"ID":315092,"DIS_CODE":0,"TOWNNAME":"楠西區","LI":"東勢里","LIN":"17鄰","STREET":"信義路","SECT":" ","MAREA":" ","LANE":" ","ALLEY":" ","HOUSE_NO":"９號","E_COORD97":197546.97,"N_COORD97":2563420.27,"ADDRESS":"信義路９號","OBJECTID":315084},"geometry":{"x":197546.97000000067,"y":2563420.2699999996}},{"attributes":{"ID":315093,"DIS_CODE":0,"TOWNNAME":"東山區","LI":"三榮里","LIN":"8鄰","STREET":" ","SECT":" ","MAREA":"木柵","LANE":" ","ALLEY":" ","HOUSE_NO":"２４號","E_COORD97":187521.01000000001,"N_COORD97":2579739.5299999998,"ADDRESS":"木柵２４號","OBJECTID":315085},"geometry":{"x":187521.00999999978,"y":2579739.5299999993}},{"attributes":{"ID":315094,"DIS_CODE":0,"TOWNNAME":"東山區","LI":"三榮里","LIN":"8鄰","STREET":" ","SECT":" ","MAREA":"木柵","LANE":" ","ALLEY":" ","HOUSE_NO":"３８號之２","E_COORD97":187406.22,"N_COORD97":2579863.6299999999,"ADDRESS":"木柵３８號之２","OBJECTID":315086},"geometry":{"x":187406.2200000016,"y":2579863.6300000008}},{"attributes":{"ID":315095,"DIS_CODE":0,"TOWNNAME":"東山區","LI":"三榮里","LIN":"8鄰","STREET":" ","SECT":" ","MAREA":"木柵","LANE":" ","ALLEY":" ","HOUSE_NO":"３８號之５","E_COORD97":187453.04999999999,"N_COORD97":2579854.1499999999,"ADDRESS":"木柵３８號之５","OBJECTID":315087},"geometry":{"x":187453.04999999888,"y":2579854.1500000022}},{"attributes":{"ID":315096,"DIS_CODE":0,"TOWNNAME":"安平區","LI":"育平里","LIN":"30鄰","STREET":"府平路","SECT":" ","MAREA":" ","LANE":"３８６巷","ALLEY":" ","HOUSE_NO":"４７號","E_COORD97":164617.5,"N_COORD97":2543230.27,"ADDRESS":"府平路３８６巷４７號","OBJECTID":315088},"geometry":{"x":164617.5,"y":2543230.2700000014}},{"attributes":{"ID":315097,"DIS_CODE":0,"TOWNNAME":"新化區","LI":"太平里","LIN":"7鄰","STREET":"民生路","SECT":" ","MAREA":" ","LANE":"３１４巷","ALLEY":" ","HOUSE_NO":"８５號","E_COORD97":179021.45999999999,"N_COORD97":2549258.25,"ADDRESS":"民生路３１４巷８５號","OBJECTID":315089},"geometry":{"x":179021.45999999996,"y":2549258.2500000019}},{"attributes":{"ID":315098,"DIS_CODE":0,"TOWNNAME":"新化區","LI":"太平里","LIN":"7鄰","STREET":"民生路","SECT":" ","MAREA":" ","LANE":"３１４巷","ALLEY":" ","HOUSE_NO":"８３號","E_COORD97":179048.06,"N_COORD97":2549263.25,"ADDRESS":"民生路３１４巷８３號","OBJECTID":315090},"geometry":{"x":179048.06000000145,"y":2549263.25}},{"attributes":{"ID":315099,"DIS_CODE":0,"TOWNNAME":"新化區","LI":"太平里","LIN":"7鄰","STREET":"民生路","SECT":" ","MAREA":" ","LANE":"３１４巷","ALLEY":" ","HOUSE_NO":"３６號","E_COORD97":179062.45999999999,"N_COORD97":2549224.25,"ADDRESS":"民生路３１４巷３６號","OBJECTID":315091},"geometry":{"x":179062.45999999996,"y":2549224.2500000019}},{"attributes":{"ID":315100,"DIS_CODE":0,"TOWNNAME":"新化區","LI":"太平里","LIN":"7鄰","STREET":"民生路","SECT":" ","MAREA":" ","LANE":"３１４巷","ALLEY":" ","HOUSE_NO":"８７號","E_COORD97":179021.26000000001,"N_COORD97":2549263.25,"ADDRESS":"民生路３１４巷８７號","OBJECTID":315092},"geometry":{"x":179021.25999999978,"y":2549263.25}},{"attributes":{"ID":315101,"DIS_CODE":0,"TOWNNAME":"新化區","LI":"太平里","LIN":"7鄰","STREET":"民生路","SECT":" ","MAREA":" ","LANE":"３１４巷","ALLEY":" ","HOUSE_NO":"９２號","E_COORD97":179104.16,"N_COORD97":2549207.25,"ADDRESS":"民生路３１４巷９２號","OBJECTID":315093},"geometry":{"x":179104.16000000108,"y":2549207.2500000019}},{"attributes":{"ID":315102,"DIS_CODE":0,"TOWNNAME":"新化區","LI":"太平里","LIN":"7鄰","STREET":"民生路","SECT":" ","MAREA":" ","LANE":"３１４巷","ALLEY":" ","HOUSE_NO":"９６號","E_COORD97":179089.85999999999,"N_COORD97":2549208.25,"ADDRESS":"民生路３１４巷９６號","OBJECTID":315094},"geometry":{"x":179089.86000000127,"y":2549208.25}},{"attributes":{"ID":315103,"DIS_CODE":0,"TOWNNAME":"南區","LI":"光明里","LIN":"7鄰","STREET":"新興路","SECT":" ","MAREA":" ","LANE":"５３３巷","ALLEY":" ","HOUSE_NO":"１７號","E_COORD97":166663.51000000001,"N_COORD97":2541639.1000000001,"ADDRESS":"新興路５３３巷１７號","OBJECTID":315095},"geometry":{"x":166663.50999999885,"y":2541639.0999999996}},{"attributes":{"ID":315104,"DIS_CODE":0,"TOWNNAME":"楠西區","LI":"東勢里","LIN":"17鄰","STREET":"茄拔路","SECT":" ","MAREA":" ","LANE":" ","ALLEY":" ","HOUSE_NO":"２３０號","E_COORD97":197568.73999999999,"N_COORD97":2563725.2799999998,"ADDRESS":"茄拔路２３０號","OBJECTID":315096},"geometry":{"x":197568.74000000022,"y":2563725.2799999993}},{"attributes":{"ID":315105,"DIS_CODE":0,"TOWNNAME":"新營區","LI":"土庫里","LIN":"1鄰","STREET":" ","SECT":" ","MAREA":"土庫","LANE":" ","ALLEY":" ","HOUSE_NO":"４號之２","E_COORD97":182945.09,"N_COORD97":2579962.27,"ADDRESS":"土庫４號之２","OBJECTID":315097},"geometry":{"x":182945.08999999985,"y":2579962.2699999996}},{"attributes":{"ID":315106,"DIS_CODE":0,"TOWNNAME":"歸仁區","LI":"沙崙里","LIN":"6鄰","STREET":" ","SECT":" ","MAREA":"沙崙","LANE":" ","ALLEY":" ","HOUSE_NO":"２８６之１號","E_COORD97":179643.35616,"N_COORD97":2538045.3469199999,"ADDRESS":"沙崙２８１之１號","OBJECTID":315098},"geometry":{"x":179643.35615999997,"y":2538045.3469200023}},{"attributes":{"ID":315107,"DIS_CODE":0,"TOWNNAME":"東山區","LI":"三榮里","LIN":"8鄰","STREET":" ","SECT":" ","MAREA":"木柵","LANE":" ","ALLEY":" ","HOUSE_NO":"２４號之１","E_COORD97":187525.54999999999,"N_COORD97":2579728.04,"ADDRESS":"木柵２４號之１","OBJECTID":315099},"geometry":{"x":187525.54999999981,"y":2579728.040000001}},{"attributes":{"ID":315108,"DIS_CODE":0,"TOWNNAME":"東山區","LI":"三榮里","LIN":"7鄰","STREET":" ","SECT":" ","MAREA":"木柵","LANE":" ","ALLEY":" ","HOUSE_NO":"１９號","E_COORD97":187613.48999999999,"N_COORD97":2579742.77,"ADDRESS":"木柵１９號","OBJECTID":315100},"geometry":{"x":187613.49000000209,"y":2579742.7699999977}},{"attributes":{"ID":315109,"DIS_CODE":0,"TOWNNAME":"東山區","LI":"三榮里","LIN":"7鄰","STREET":" ","SECT":" ","MAREA":"木柵","LANE":" ","ALLEY":" ","HOUSE_NO":"２０號之３","E_COORD97":187579.06,"N_COORD97":2579749.4900000002,"ADDRESS":"木柵２０號之３","OBJECTID":315101},"geometry":{"x":187579.06000000052,"y":2579749.4900000021}},{"attributes":{"ID":315110,"DIS_CODE":0,"TOWNNAME":"東山區","LI":"三榮里","LIN":"7鄰","STREET":" ","SECT":" ","MAREA":"木柵","LANE":" ","ALLEY":" ","HOUSE_NO":"２０號之４","E_COORD97":187574.57000000001,"N_COORD97":2579749.1200000001,"ADDRESS":"木柵２０號之４","OBJECTID":315102},"geometry":{"x":187574.57000000123,"y":2579749.1200000048}},{"attributes":{"ID":315111,"DIS_CODE":0,"TOWNNAME":"東山區","LI":"三榮里","LIN":"6鄰","STREET":" ","SECT":" ","MAREA":"木柵","LANE":" ","ALLEY":" ","HOUSE_NO":"５號之１","E_COORD97":187688.81,"N_COORD97":2579792.25,"ADDRESS":"木柵５號之１","OBJECTID":315103},"geometry":{"x":187688.81000000052,"y":2579792.2500000019}},{"attributes":{"ID":315112,"DIS_CODE":0,"TOWNNAME":"新營區","LI":"南興里","LIN":"4鄰","STREET":"和平路","SECT":" ","MAREA":" ","LANE":"９５巷","ALLEY":" ","HOUSE_NO":"５１號","E_COORD97":179562.59,"N_COORD97":2577605.77,"ADDRESS":"和平路９５巷５１號","OBJECTID":315104},"geometry":{"x":179562.59000000078,"y":2577605.7699999996}},{"attributes":{"ID":315113,"DIS_CODE":0,"TOWNNAME":"新營區","LI":"嘉芳里","LIN":"3鄰","STREET":" ","SECT":" ","MAREA":"茄苳腳","LANE":" ","ALLEY":" ","HOUSE_NO":"２９號之１","E_COORD97":177028.89000000001,"N_COORD97":2578350.1200000001,"ADDRESS":"茄苳腳２９之１號","OBJECTID":315105},"geometry":{"x":177028.8900000006,"y":2578350.1200000029}},{"attributes":{"ID":315114,"DIS_CODE":0,"TOWNNAME":"新營區","LI":"土庫里","LIN":" ","STREET":" ","SECT":" ","MAREA":"土庫","LANE":" ","ALLEY":" ","HOUSE_NO":"５３號","E_COORD97":183230.70999999999,"N_COORD97":2579859.04,"ADDRESS":"土庫５３號","OBJECTID":315106},"geometry":{"x":183230.70999999996,"y":2579859.0399999991}},{"attributes":{"ID":315115,"DIS_CODE":0,"TOWNNAME":"南區","LI":"光明里","LIN":"7鄰","STREET":"新興路","SECT":" ","MAREA":" ","LANE":"５３３巷","ALLEY":" ","HOUSE_NO":"１９號","E_COORD97":166664.76999999999,"N_COORD97":2541631.54,"ADDRESS":"新興路５３３巷１９號","OBJECTID":315107},"geometry":{"x":166664.76999999955,"y":2541631.5399999991}},{"attributes":{"ID":315116,"DIS_CODE":0,"TOWNNAME":"新營區","LI":"土庫里","LIN":"4鄰","STREET":" ","SECT":" ","MAREA":"土庫","LANE":" ","ALLEY":" ","HOUSE_NO":"３８之２０號","E_COORD97":183384.94,"N_COORD97":2580099.8399999999,"ADDRESS":"土庫３８之２０號","OBJECTID":315108},"geometry":{"x":183384.94000000134,"y":2580099.8400000017}},{"attributes":{"ID":315117,"DIS_CODE":0,"TOWNNAME":"新營區","LI":"嘉芳里","LIN":" ","STREET":" ","SECT":" ","MAREA":"茄苳腳","LANE":" ","ALLEY":" ","HOUSE_NO":"３號","E_COORD97":177231.39999999999,"N_COORD97":2578272.6400000001,"ADDRESS":"茄苳腳３號","OBJECTID":315109},"geometry":{"x":177231.4000000013,"y":2578272.6400000006}},{"attributes":{"ID":315118,"DIS_CODE":0,"TOWNNAME":"新營區","LI":"嘉芳里","LIN":"3鄰","STREET":" ","SECT":" ","MAREA":"茄苳腳","LANE":" ","ALLEY":" ","HOUSE_NO":"２８號之１５","E_COORD97":177016.23999999999,"N_COORD97":2578435.4700000002,"ADDRESS":"茄苳腳２８之１５號","OBJECTID":315110},"geometry":{"x":177016.24000000022,"y":2578435.4700000025}},{"attributes":{"ID":315119,"DIS_CODE":0,"TOWNNAME":"南區","LI":"光明里","LIN":"7鄰","STREET":"新興路","SECT":" ","MAREA":" ","LANE":"５３３巷","ALLEY":" ","HOUSE_NO":"２１號","E_COORD97":166665.70999999999,"N_COORD97":2541624.9300000002,"ADDRESS":"新興路５３３巷２１號","OBJECTID":315111},"geometry":{"x":166665.70999999903,"y":2541624.9300000016}},{"attributes":{"ID":315120,"DIS_CODE":0,"TOWNNAME":"南區","LI":"光明里","LIN":"7鄰","STREET":"新興路","SECT":" ","MAREA":" ","LANE":"５３３巷","ALLEY":" ","HOUSE_NO":"２３號","E_COORD97":166666.29999999999,"N_COORD97":2541618.6000000001,"ADDRESS":"新興路５３３巷２３號","OBJECTID":315112},"geometry":{"x":166666.29999999981,"y":2541618.5999999996}},{"attributes":{"ID":315121,"DIS_CODE":0,"TOWNNAME":"南區","LI":"同安里","LIN":"7鄰","STREET":"灣裡路","SECT":" ","MAREA":" ","LANE":"３５１巷","ALLEY":" ","HOUSE_NO":"２５號","E_COORD97":166288.51999999999,"N_COORD97":2536240.9500000002,"ADDRESS":"灣裡路３５１巷２５號","OBJECTID":315113},"geometry":{"x":166288.51999999862,"y":2536240.9500000011}},{"attributes":{"ID":315122,"DIS_CODE":0,"TOWNNAME":"南區","LI":"同安里","LIN":"7鄰","STREET":"灣裡路","SECT":" ","MAREA":" ","LANE":"３５１巷","ALLEY":" ","HOUSE_NO":"２７號","E_COORD97":166284.07999999999,"N_COORD97":2536245.1699999999,"ADDRESS":"灣裡路３５１巷２７號","OBJECTID":315114},"geometry":{"x":166284.08000000101,"y":2536245.1699999999}},{"attributes":{"ID":315123,"DIS_CODE":0,"TOWNNAME":"南區","LI":"同安里","LIN":"7鄰","STREET":"灣裡路","SECT":" ","MAREA":" ","LANE":"３５１巷","ALLEY":" ","HOUSE_NO":"２９號","E_COORD97":166301.62,"N_COORD97":2536247.7000000002,"ADDRESS":"灣裡路３５１巷２９號","OBJECTID":315115},"geometry":{"x":166301.62000000011,"y":2536247.6999999974}},{"attributes":{"ID":315124,"DIS_CODE":0,"TOWNNAME":"楠西區","LI":"東勢里","LIN":"17鄰","STREET":"信義路","SECT":" ","MAREA":" ","LANE":" ","ALLEY":" ","HOUSE_NO":"４２號","E_COORD97":197599.51999999999,"N_COORD97":2563449.27,"ADDRESS":"信義路４２號","OBJECTID":315116},"geometry":{"x":197599.52000000048,"y":2563449.2700000014}},{"attributes":{"ID":315125,"DIS_CODE":0,"TOWNNAME":"新營區","LI":"太北里","LIN":"16鄰","STREET":" ","SECT":" ","MAREA":"太子宮","LANE":" ","ALLEY":" ","HOUSE_NO":"１３３號之１０","E_COORD97":175911.70999999999,"N_COORD97":2576801.9100000001,"ADDRESS":"太子宮１３３號之１０","OBJECTID":315117},"geometry":{"x":175911.71000000089,"y":2576801.9100000001}},{"attributes":{"ID":315126,"DIS_CODE":0,"TOWNNAME":"新營區","LI":"大宏里","LIN":"10鄰","STREET":"民治路","SECT":" ","MAREA":" ","LANE":" ","ALLEY":" ","HOUSE_NO":"２７號之２","E_COORD97":180251.32000000001,"N_COORD97":2578866.1699999999,"ADDRESS":"民治路２７號之２","OBJECTID":315118},"geometry":{"x":180251.32000000123,"y":2578866.1700000037}},{"attributes":{"ID":315127,"DIS_CODE":0,"TOWNNAME":"新營區","LI":"太南里","LIN":"20鄰","STREET":" ","SECT":" ","MAREA":"太子宮","LANE":" ","ALLEY":" ","HOUSE_NO":"１７０號","E_COORD97":176243.29000000001,"N_COORD97":2576966.3100000001,"ADDRESS":"太子宮１７０號","OBJECTID":315119},"geometry":{"x":176243.2900000019,"y":2576966.3100000005}},{"attributes":{"ID":315128,"DIS_CODE":0,"TOWNNAME":"新營區","LI":"嘉芳里","LIN":"3鄰","STREET":" ","SECT":" ","MAREA":"茄苳腳","LANE":" ","ALLEY":" ","HOUSE_NO":"２８號之２","E_COORD97":177044.44,"N_COORD97":2578392.1299999999,"ADDRESS":"茄苳腳２８之２號","OBJECTID":315120},"geometry":{"x":177044.44000000227,"y":2578392.1300000008}},{"attributes":{"ID":315129,"DIS_CODE":0,"TOWNNAME":"新營區","LI":"王公里","LIN":"6鄰","STREET":"民治路","SECT":" ","MAREA":" ","LANE":" ","ALLEY":" ","HOUSE_NO":"６號之２２","E_COORD97":180576.06,"N_COORD97":2578986.4700000002,"ADDRESS":"民治路６號之２２","OBJECTID":315121},"geometry":{"x":180576.06000000052,"y":2578986.4700000007}},{"attributes":{"ID":315130,"DIS_CODE":0,"TOWNNAME":"新營區","LI":"王公里","LIN":"6鄰","STREET":"民治路","SECT":" ","MAREA":" ","LANE":" ","ALLEY":" ","HOUSE_NO":"６號之１６","E_COORD97":180556.42999999999,"N_COORD97":2578943.3700000001,"ADDRESS":"民治路６號之１６","OBJECTID":315122},"geometry":{"x":180556.43000000063,"y":2578943.370000001}},{"attributes":{"ID":315131,"DIS_CODE":0,"TOWNNAME":"新營區","LI":"太北里","LIN":" ","STREET":" ","SECT":" ","MAREA":"太子宮","LANE":" ","ALLEY":" ","HOUSE_NO":"６９號","E_COORD97":176056.60999999999,"N_COORD97":2577114.5299999998,"ADDRESS":"太子宮６９號","OBJECTID":315123},"geometry":{"x":176056.6100000022,"y":2577114.5300000012}},{"attributes":{"ID":315132,"DIS_CODE":0,"TOWNNAME":"新營區","LI":"興業里","LIN":" ","STREET":"中興路","SECT":" ","MAREA":" ","LANE":"１５巷","ALLEY":" ","HOUSE_NO":"１５之４號","E_COORD97":180219.25,"N_COORD97":2577936.0699999998,"ADDRESS":"中興路１５巷１５之４號","OBJECTID":315124},"geometry":{"x":180219.25000000093,"y":2577936.0700000022}},{"attributes":{"ID":315133,"DIS_CODE":0,"TOWNNAME":"新營區","LI":"新東里","LIN":"20鄰","STREET":"東明街","SECT":" ","MAREA":" ","LANE":"２巷","ALLEY":" ","HOUSE_NO":"４３號","E_COORD97":180891.28,"N_COORD97":2579546.3999999999,"ADDRESS":"東明街２巷４３號","OBJECTID":315125},"geometry":{"x":180891.28000000026,"y":2579546.4000000041}},{"attributes":{"ID":315134,"DIS_CODE":0,"TOWNNAME":"南區","LI":"同安里","LIN":"7鄰","STREET":"灣裡路","SECT":" ","MAREA":" ","LANE":"３５１巷","ALLEY":" ","HOUSE_NO":"３１號","E_COORD97":166305.42999999999,"N_COORD97":2536243.48,"ADDRESS":"灣裡路３５１巷３１號","OBJECTID":315126},"geometry":{"x":166305.43000000063,"y":2536243.4800000004}},{"attributes":{"ID":315135,"DIS_CODE":0,"TOWNNAME":"南區","LI":"同安里","LIN":"7鄰","STREET":"灣裡路","SECT":" ","MAREA":" ","LANE":"３５１巷","ALLEY":" ","HOUSE_NO":"３３號","E_COORD97":166321.92000000001,"N_COORD97":2536247.2799999998,"ADDRESS":"灣裡路３５１巷３３號","OBJECTID":315127},"geometry":{"x":166321.92000000179,"y":2536247.2799999975}},{"attributes":{"ID":315136,"DIS_CODE":0,"TOWNNAME":"南區","LI":"同安里","LIN":"7鄰","STREET":"灣裡路","SECT":" ","MAREA":" ","LANE":"３５１巷","ALLEY":" ","HOUSE_NO":"３５號","E_COORD97":166336.07999999999,"N_COORD97":2536247.7000000002,"ADDRESS":"灣裡路３５１巷３５號","OBJECTID":315128},"geometry":{"x":166336.08000000007,"y":2536247.6999999974}},{"attributes":{"ID":315137,"DIS_CODE":0,"TOWNNAME":"楠西區","LI":"楠西里","LIN":"17鄰","STREET":"東勢路","SECT":" ","MAREA":" ","LANE":" ","ALLEY":" ","HOUSE_NO":"２１８號","E_COORD97":197271.97,"N_COORD97":2564026.29,"ADDRESS":"東勢路２１８號","OBJECTID":315129},"geometry":{"x":197271.96999999974,"y":2564026.2899999991}},{"attributes":{"ID":315138,"DIS_CODE":0,"TOWNNAME":"楠西區","LI":"楠西里","LIN":"17鄰","STREET":"中華路","SECT":" ","MAREA":" ","LANE":" ","ALLEY":" ","HOUSE_NO":"１７號","E_COORD97":197279.20999999999,"N_COORD97":2564061.2400000002,"ADDRESS":"中華路１７號","OBJECTID":315130},"geometry":{"x":197279.21000000183,"y":2564061.2400000021}},{"attributes":{"ID":315139,"DIS_CODE":0,"TOWNNAME":"楠西區","LI":"楠西里","LIN":"17鄰","STREET":"中華路","SECT":" ","MAREA":" ","LANE":" ","ALLEY":" ","HOUSE_NO":"３號","E_COORD97":197271.95999999999,"N_COORD97":2564029.25,"ADDRESS":"中華路３號","OBJECTID":315131},"geometry":{"x":197271.95999999996,"y":2564029.2500000037}},{"attributes":{"ID":315140,"DIS_CODE":0,"TOWNNAME":"楠西區","LI":"楠西里","LIN":"17鄰","STREET":"中華路","SECT":" ","MAREA":" ","LANE":" ","ALLEY":" ","HOUSE_NO":"９號","E_COORD97":197278.85999999999,"N_COORD97":2564041.25,"ADDRESS":"中華路９號","OBJECTID":315132},"geometry":{"x":197278.86000000127,"y":2564041.25}},{"attributes":{"ID":315141,"DIS_CODE":0,"TOWNNAME":"楠西區","LI":"楠西里","LIN":"17鄰","STREET":"中華路","SECT":" ","MAREA":" ","LANE":" ","ALLEY":" ","HOUSE_NO":"１９號","E_COORD97":197279.41,"N_COORD97":2564066.25,"ADDRESS":"中華路１９號","OBJECTID":315133},"geometry":{"x":197279.41000000015,"y":2564066.2499999981}},{"attributes":{"ID":315142,"DIS_CODE":0,"TOWNNAME":"新營區","LI":"嘉芳里","LIN":"3鄰","STREET":" ","SECT":" ","MAREA":"茄苳腳","LANE":" ","ALLEY":" ","HOUSE_NO":"２８號之１４","E_COORD97":177011.13,"N_COORD97":2578435.4900000002,"ADDRESS":"茄苳腳２８之１４號","OBJECTID":315134},"geometry":{"x":177011.13000000082,"y":2578435.4900000002}},{"attributes":{"ID":315143,"DIS_CODE":0,"TOWNNAME":"新營區","LI":"嘉芳里","LIN":"15鄰","STREET":"復興路","SECT":" ","MAREA":" ","LANE":"１０００巷","ALLEY":" ","HOUSE_NO":"１號之６","E_COORD97":176318.39999999999,"N_COORD97":2578904.04,"ADDRESS":"復興路１０００巷１之６號","OBJECTID":315135},"geometry":{"x":176318.40000000037,"y":2578904.040000001}},{"attributes":{"ID":315144,"DIS_CODE":0,"TOWNNAME":"新營區","LI":"新東里","LIN":"20鄰","STREET":"東明街","SECT":" ","MAREA":" ","LANE":"２８巷","ALLEY":" ","HOUSE_NO":"３７號","E_COORD97":180897.67000000001,"N_COORD97":2579598.4300000002,"ADDRESS":"東明街２８巷３７號","OBJECTID":315136},"geometry":{"x":180897.67000000086,"y":2579598.4299999997}},{"attributes":{"ID":315145,"DIS_CODE":0,"TOWNNAME":"新營區","LI":"新東里","LIN":"4鄰","STREET":"東大街","SECT":" ","MAREA":" ","LANE":"５２巷","ALLEY":" ","HOUSE_NO":"３８號","E_COORD97":181144.07000000001,"N_COORD97":2579139.9100000001,"ADDRESS":"東大街５２巷３８號","OBJECTID":315137},"geometry":{"x":181144.07000000216,"y":2579139.910000002}},{"attributes":{"ID":315146,"DIS_CODE":0,"TOWNNAME":"新營區","LI":"新東里","LIN":"20鄰","STREET":"東明街","SECT":" ","MAREA":" ","LANE":"２巷","ALLEY":" ","HOUSE_NO":"７號","E_COORD97":180798.94,"N_COORD97":2579543.5099999998,"ADDRESS":"東明街２巷７號","OBJECTID":315138},"geometry":{"x":180798.94000000041,"y":2579543.5099999998}},{"attributes":{"ID":315147,"DIS_CODE":0,"TOWNNAME":"南區","LI":"同安里","LIN":"7鄰","STREET":"灣裡路","SECT":" ","MAREA":" ","LANE":"３５１巷","ALLEY":" ","HOUSE_NO":"３７號","E_COORD97":166316,"N_COORD97":2536268.8199999998,"ADDRESS":"灣裡路３５１巷３７號","OBJECTID":315139},"geometry":{"x":166316,"y":2536268.820000004}},{"attributes":{"ID":315148,"DIS_CODE":0,"TOWNNAME":"南區","LI":"竹溪里","LIN":"7鄰","STREET":"體育路","SECT":" ","MAREA":" ","LANE":"２１巷","ALLEY":" ","HOUSE_NO":"１７號","E_COORD97":168862.89999999999,"N_COORD97":2542354.98,"ADDRESS":"體育路２１巷１７號","OBJECTID":315140},"geometry":{"x":168862.90000000037,"y":2542354.9800000023}},{"attributes":{"ID":315149,"DIS_CODE":0,"TOWNNAME":"南區","LI":"竹溪里","LIN":"7鄰","STREET":"體育路","SECT":" ","MAREA":" ","LANE":"２１巷","ALLEY":" ","HOUSE_NO":"２５號","E_COORD97":168870.41,"N_COORD97":2542355.3900000001,"ADDRESS":"體育路２１巷２５號","OBJECTID":315141},"geometry":{"x":168870.41000000108,"y":2542355.3900000025}},{"attributes":{"ID":315150,"DIS_CODE":0,"TOWNNAME":"東區","LI":"德光里","LIN":"7鄰","STREET":"崇明路","SECT":" ","MAREA":" ","LANE":"１５５巷","ALLEY":" ","HOUSE_NO":"９號","E_COORD97":169952.07000000001,"N_COORD97":2542199.5,"ADDRESS":"崇明路１５５巷９號","OBJECTID":315142},"geometry":{"x":169952.0700000003,"y":2542199.5}},{"attributes":{"ID":315151,"DIS_CODE":0,"TOWNNAME":"仁德區","LI":"成功里","LIN":"7鄰","STREET":"保華路","SECT":" ","MAREA":" ","LANE":"１１７巷","ALLEY":" ","HOUSE_NO":"７號","E_COORD97":171145.51000000001,"N_COORD97":2540021,"ADDRESS":"保華路１１７巷７號","OBJECTID":315143},"geometry":{"x":171145.50999999978,"y":2540021.0000000019}},{"attributes":{"ID":315152,"DIS_CODE":0,"TOWNNAME":"仁德區","LI":"成功里","LIN":"7鄰","STREET":"保華路","SECT":" ","MAREA":" ","LANE":"１１７巷","ALLEY":" ","HOUSE_NO":"１３號","E_COORD97":171148.72,"N_COORD97":2540003.75,"ADDRESS":"保華路１１７巷１３號","OBJECTID":315144},"geometry":{"x":171148.71999999974,"y":2540003.75}},{"attributes":{"ID":315153,"DIS_CODE":0,"TOWNNAME":"仁德區","LI":"後壁里","LIN":"7鄰","STREET":"德安路","SECT":" ","MAREA":" ","LANE":"７３巷","ALLEY":" ","HOUSE_NO":"５號","E_COORD97":173568.66,"N_COORD97":2539003.8100000001,"ADDRESS":"德安路７３巷５號","OBJECTID":315145},"geometry":{"x":173568.66000000015,"y":2539003.8100000005}},{"attributes":{"ID":315154,"DIS_CODE":0,"TOWNNAME":"楠西區","LI":"楠西里","LIN":"17鄰","STREET":"中華路","SECT":" ","MAREA":" ","LANE":" ","ALLEY":" ","HOUSE_NO":"１５號","E_COORD97":197280.31,"N_COORD97":2564051.25,"ADDRESS":"中華路１５號","OBJECTID":315146},"geometry":{"x":197280.31000000052,"y":2564051.25}},{"attributes":{"ID":315155,"DIS_CODE":0,"TOWNNAME":"楠西區","LI":"東勢里","LIN":"17鄰","STREET":"信義路","SECT":" ","MAREA":" ","LANE":" ","ALLEY":" ","HOUSE_NO":"５５號","E_COORD97":197593.01999999999,"N_COORD97":2563509.27,"ADDRESS":"信義路５５號","OBJECTID":315147},"geometry":{"x":197593.01999999955,"y":2563509.2699999996}},{"attributes":{"ID":315156,"DIS_CODE":0,"TOWNNAME":"楠西區","LI":"東勢里","LIN":"17鄰","STREET":"信義路","SECT":" ","MAREA":" ","LANE":" ","ALLEY":" ","HOUSE_NO":"４９號","E_COORD97":197591.42000000001,"N_COORD97":2563496.27,"ADDRESS":"信義路４９號","OBJECTID":315148},"geometry":{"x":197591.42000000179,"y":2563496.2700000033}},{"attributes":{"ID":315157,"DIS_CODE":0,"TOWNNAME":"楠西區","LI":"楠西里","LIN":"17鄰","STREET":"中正路","SECT":" ","MAREA":" ","LANE":" ","ALLEY":" ","HOUSE_NO":"９９號","E_COORD97":197264.01000000001,"N_COORD97":2563972.25,"ADDRESS":"中正路９９號","OBJECTID":315149},"geometry":{"x":197264.01000000071,"y":2563972.2500000019}},{"attributes":{"ID":315158,"DIS_CODE":0,"TOWNNAME":"楠西區","LI":"東勢里","LIN":"17鄰","STREET":"信義路","SECT":" ","MAREA":" ","LANE":" ","ALLEY":" ","HOUSE_NO":"６５號","E_COORD97":197600.12,"N_COORD97":2563542.27,"ADDRESS":"信義路６５號","OBJECTID":315150},"geometry":{"x":197600.12000000011,"y":2563542.2699999996}},{"attributes":{"ID":315159,"DIS_CODE":0,"TOWNNAME":"新營區","LI":"大宏里","LIN":"5鄰","STREET":"民族路","SECT":" ","MAREA":" ","LANE":" ","ALLEY":" ","HOUSE_NO":"１３號之２","E_COORD97":180286.54000000001,"N_COORD97":2578540.4199999999,"ADDRESS":"民族路１３號之２","OBJECTID":315151},"geometry":{"x":180286.54000000097,"y":2578540.4200000018}},{"attributes":{"ID":315160,"DIS_CODE":0,"TOWNNAME":"新營區","LI":"護鎮里","LIN":"1鄰","STREET":" ","SECT":" ","MAREA":"後鎮","LANE":" ","ALLEY":" ","HOUSE_NO":"３號之８","E_COORD97":179608,"N_COORD97":2581068.6200000001,"ADDRESS":"後鎮３之８號","OBJECTID":315152},"geometry":{"x":179608,"y":2581068.6200000029}},{"attributes":{"ID":315161,"DIS_CODE":0,"TOWNNAME":"新營區","LI":"南興里","LIN":"25鄰","STREET":"和平路","SECT":" ","MAREA":" ","LANE":"９５巷","ALLEY":" ","HOUSE_NO":"４４號","E_COORD97":179573.82999999999,"N_COORD97":2577590.2200000002,"ADDRESS":"和平路９５巷４４號","OBJECTID":315153},"geometry":{"x":179573.83000000007,"y":2577590.2200000007}},{"attributes":{"ID":315162,"DIS_CODE":0,"TOWNNAME":"新營區","LI":"土庫里","LIN":"5鄰","STREET":" ","SECT":" ","MAREA":"土庫","LANE":" ","ALLEY":" ","HOUSE_NO":"５１號","E_COORD97":183354.04999999999,"N_COORD97":2579995.8199999998,"ADDRESS":"土庫５１號","OBJECTID":315154},"geometry":{"x":183354.04999999981,"y":2579995.8200000022}},{"attributes":{"ID":315163,"DIS_CODE":0,"TOWNNAME":"鹽水區","LI":"飯店里","LIN":"4鄰","STREET":" ","SECT":" ","MAREA":"飯店","LANE":" ","ALLEY":" ","HOUSE_NO":"８號","E_COORD97":170064.64000000001,"N_COORD97":2574220.8399999999,"ADDRESS":"飯店８號","OBJECTID":315155},"geometry":{"x":170064.63999999966,"y":2574220.8400000017}},{"attributes":{"ID":315164,"DIS_CODE":0,"TOWNNAME":"新營區","LI":"嘉芳里","LIN":"5鄰","STREET":" ","SECT":" ","MAREA":"茄苳腳","LANE":" ","ALLEY":" ","HOUSE_NO":"５７號之３０","E_COORD97":176859.91,"N_COORD97":2578480.5299999998,"ADDRESS":"茄苳腳５７之３０號","OBJECTID":315156},"geometry":{"x":176859.91000000108,"y":2578480.5300000012}},{"attributes":{"ID":315165,"DIS_CODE":0,"TOWNNAME":"新營區","LI":"嘉芳里","LIN":" ","STREET":" ","SECT":" ","MAREA":"茄苳腳","LANE":" ","ALLEY":" ","HOUSE_NO":"１３之１１號","E_COORD97":177072.92999999999,"N_COORD97":2578331.0899999999,"ADDRESS":"茄苳腳１３之１１號","OBJECTID":315157},"geometry":{"x":177072.93000000063,"y":2578331.0900000017}},{"attributes":{"ID":315166,"DIS_CODE":0,"TOWNNAME":"新營區","LI":"鐵線里","LIN":" ","STREET":" ","SECT":" ","MAREA":"鐵線橋","LANE":" ","ALLEY":" ","HOUSE_NO":"１８之４號","E_COORD97":176137.92999999999,"N_COORD97":2573841.6400000001,"ADDRESS":"鐵線橋１８之４號","OBJECTID":315158},"geometry":{"x":176137.9299999997,"y":2573841.6400000006}},{"attributes":{"ID":315167,"DIS_CODE":0,"TOWNNAME":"新營區","LI":"新北里","LIN":"14鄰","STREET":"南新街","SECT":" ","MAREA":" ","LANE":"１３巷","ALLEY":" ","HOUSE_NO":"１０號","E_COORD97":179323.01000000001,"N_COORD97":2578850.5800000001,"ADDRESS":"南新街１３巷１０號","OBJECTID":315159},"geometry":{"x":179323.00999999978,"y":2578850.5800000019}},{"attributes":{"ID":315168,"DIS_CODE":0,"TOWNNAME":"新營區","LI":"民生里","LIN":" ","STREET":"公園路","SECT":"一段","MAREA":" ","LANE":"１６０巷","ALLEY":" ","HOUSE_NO":"２號","E_COORD97":178943.17999999999,"N_COORD97":2578167.98,"ADDRESS":"公園路一段１６０巷２號","OBJECTID":315160},"geometry":{"x":178943.1799999997,"y":2578167.9800000004}},{"attributes":{"ID":315169,"DIS_CODE":0,"TOWNNAME":"仁德區","LI":"成功里","LIN":"7鄰","STREET":"保華路","SECT":" ","MAREA":" ","LANE":"１１７巷","ALLEY":" ","HOUSE_NO":"１７號","E_COORD97":171149.23999999999,"N_COORD97":2539989.5,"ADDRESS":"保華路１１７巷１７號","OBJECTID":315161},"geometry":{"x":171149.24000000022,"y":2539989.4999999981}},{"attributes":{"ID":315170,"DIS_CODE":0,"TOWNNAME":"仁德區","LI":"上崙里","LIN":"7鄰","STREET":"德南路","SECT":" ","MAREA":" ","LANE":"３９９巷","ALLEY":" ","HOUSE_NO":"２７號","E_COORD97":173995.51999999999,"N_COORD97":2538286.5,"ADDRESS":"德南路３９９巷２７號","OBJECTID":315162},"geometry":{"x":173995.52000000048,"y":2538286.5}},{"attributes":{"ID":315171,"DIS_CODE":0,"TOWNNAME":"楠西區","LI":"東勢里","LIN":"17鄰","STREET":"信義路","SECT":" ","MAREA":" ","LANE":" ","ALLEY":" ","HOUSE_NO":"１０１號","E_COORD97":197615.97,"N_COORD97":2563625.27,"ADDRESS":"信義路１０１號","OBJECTID":315163},"geometry":{"x":197615.96999999974,"y":2563625.2700000033}},{"attributes":{"ID":315172,"DIS_CODE":0,"TOWNNAME":"楠西區","LI":"東勢里","LIN":"17鄰","STREET":"信義路","SECT":" ","MAREA":" ","LANE":" ","ALLEY":" ","HOUSE_NO":"４３號","E_COORD97":197583.72,"N_COORD97":2563476.27,"ADDRESS":"信義路４３號","OBJECTID":315164},"geometry":{"x":197583.71999999974,"y":2563476.2700000014}},{"attributes":{"ID":315173,"DIS_CODE":0,"TOWNNAME":"楠西區","LI":"東勢里","LIN":"17鄰","STREET":"茄拔路","SECT":" ","MAREA":" ","LANE":" ","ALLEY":" ","HOUSE_NO":"２２２號","E_COORD97":197554.73999999999,"N_COORD97":2563732.2799999998,"ADDRESS":"茄拔路２２２號","OBJECTID":315165},"geometry":{"x":197554.74000000115,"y":2563732.2799999993}},{"attributes":{"ID":315174,"DIS_CODE":0,"TOWNNAME":"楠西區","LI":"東勢里","LIN":"17鄰","STREET":"信義路","SECT":" ","MAREA":" ","LANE":" ","ALLEY":" ","HOUSE_NO":"８５號","E_COORD97":197607.01999999999,"N_COORD97":2563585.27,"ADDRESS":"信義路８５號","OBJECTID":315166},"geometry":{"x":197607.01999999955,"y":2563585.2700000014}},{"attributes":{"ID":315175,"DIS_CODE":0,"TOWNNAME":"新營區","LI":"嘉芳里","LIN":" ","STREET":" ","SECT":" ","MAREA":"茄苳腳","LANE":" ","ALLEY":" ","HOUSE_NO":"２３號","E_COORD97":177073.76999999999,"N_COORD97":2578417.3999999999,"ADDRESS":"茄苳腳２３號","OBJECTID":315167},"geometry":{"x":177073.77000000048,"y":2578417.4000000041}},{"attributes":{"ID":315176,"DIS_CODE":0,"TOWNNAME":"新營區","LI":"嘉芳里","LIN":" ","STREET":" ","SECT":" ","MAREA":"茄苳腳","LANE":" ","ALLEY":" ","HOUSE_NO":"２９之１１號","E_COORD97":177028.98000000001,"N_COORD97":2578323.5499999998,"ADDRESS":"茄苳腳２９之１１號","OBJECTID":315168},"geometry":{"x":177028.98000000231,"y":2578323.5500000007}},{"attributes":{"ID":315177,"DIS_CODE":0,"TOWNNAME":"新營區","LI":"護鎮里","LIN":" ","STREET":" ","SECT":" ","MAREA":"後鎮","LANE":" ","ALLEY":" ","HOUSE_NO":"８５之１５號","E_COORD97":179242.59,"N_COORD97":2580913.1200000001,"ADDRESS":"後鎮８５之１５號","OBJECTID":315169},"geometry":{"x":179242.58999999985,"y":2580913.1200000029}},{"attributes":{"ID":315178,"DIS_CODE":0,"TOWNNAME":"新營區","LI":"大宏里","LIN":"8鄰","STREET":"文昌街","SECT":" ","MAREA":" ","LANE":" ","ALLEY":" ","HOUSE_NO":"２２號之７","E_COORD97":180426.16,"N_COORD97":2578415.73,"ADDRESS":"文昌街２２號之７","OBJECTID":315170},"geometry":{"x":180426.16000000201,"y":2578415.7300000023}},{"attributes":{"ID":315179,"DIS_CODE":0,"TOWNNAME":"新營區","LI":"太南里","LIN":" ","STREET":" ","SECT":" ","MAREA":"太子宮","LANE":" ","ALLEY":" ","HOUSE_NO":"２６２之１號","E_COORD97":176131.54999999999,"N_COORD97":2576814.1000000001,"ADDRESS":"太子宮２６２之１號","OBJECTID":315171},"geometry":{"x":176131.55000000075,"y":2576814.0999999996}},{"attributes":{"ID":315180,"DIS_CODE":0,"TOWNNAME":"新營區","LI":"南興里","LIN":"13鄰","STREET":"興農街","SECT":" ","MAREA":" ","LANE":"１３６巷","ALLEY":" ","HOUSE_NO":"２２號之３","E_COORD97":179159.10999999999,"N_COORD97":2577618.8300000001,"ADDRESS":"興農街１３６巷２２之３號","OBJECTID":315172},"geometry":{"x":179159.11000000127,"y":2577618.8300000019}},{"attributes":{"ID":315181,"DIS_CODE":0,"TOWNNAME":"新營區","LI":"南興里","LIN":"18鄰","STREET":"建業路","SECT":" ","MAREA":" ","LANE":"１５７巷","ALLEY":" ","HOUSE_NO":"６號","E_COORD97":178385.28,"N_COORD97":2577458.5699999998,"ADDRESS":"建業路１５７巷６號","OBJECTID":315173},"geometry":{"x":178385.28000000119,"y":2577458.5700000003}},{"attributes":{"ID":315182,"DIS_CODE":0,"TOWNNAME":"仁德區","LI":"成功里","LIN":"7鄰","STREET":"保華路","SECT":" ","MAREA":" ","LANE":"１２９巷","ALLEY":" ","HOUSE_NO":"１３號","E_COORD97":171107.89000000001,"N_COORD97":2540004.75,"ADDRESS":"保華路１２９巷１３號","OBJECTID":315174},"geometry":{"x":171107.8900000006,"y":2540004.7499999981}},{"attributes":{"ID":315183,"DIS_CODE":0,"TOWNNAME":"仁德區","LI":"成功里","LIN":"7鄰","STREET":"保華路","SECT":" ","MAREA":" ","LANE":"１２９巷","ALLEY":" ","HOUSE_NO":"４３號","E_COORD97":171119.01000000001,"N_COORD97":2539896.5,"ADDRESS":"保華路１２９巷４３號","OBJECTID":315175},"geometry":{"x":171119.01000000071,"y":2539896.5}},{"attributes":{"ID":315184,"DIS_CODE":0,"TOWNNAME":"仁德區","LI":"後壁里","LIN":"7鄰","STREET":"德善二街","SECT":" ","MAREA":" ","LANE":"５１巷","ALLEY":" ","HOUSE_NO":"１５號","E_COORD97":173608.54000000001,"N_COORD97":2539018.0099999998,"ADDRESS":"德善二街５１巷１５號","OBJECTID":315176},"geometry":{"x":173608.54000000004,"y":2539018.0100000016}},{"attributes":{"ID":315185,"DIS_CODE":0,"TOWNNAME":"仁德區","LI":"成功里","LIN":"7鄰","STREET":"保華路","SECT":" ","MAREA":" ","LANE":"１１７巷","ALLEY":" ","HOUSE_NO":"１２號","E_COORD97":171137.29000000001,"N_COORD97":2540012.5,"ADDRESS":"保華路１１７巷１２號","OBJECTID":315177},"geometry":{"x":171137.2900000019,"y":2540012.5}},{"attributes":{"ID":315186,"DIS_CODE":0,"TOWNNAME":"仁德區","LI":"成功里","LIN":"7鄰","STREET":"保華路","SECT":" ","MAREA":" ","LANE":"１２９巷","ALLEY":" ","HOUSE_NO":"５７號","E_COORD97":171122.16,"N_COORD97":2539865.2400000002,"ADDRESS":"保華路１２９巷５７號","OBJECTID":315178},"geometry":{"x":171122.16000000108,"y":2539865.2400000002}},{"attributes":{"ID":315187,"DIS_CODE":0,"TOWNNAME":"楠西區","LI":"東勢里","LIN":"17鄰","STREET":"信義路","SECT":" ","MAREA":" ","LANE":" ","ALLEY":" ","HOUSE_NO":"４７號","E_COORD97":197591.01999999999,"N_COORD97":2563492.27,"ADDRESS":"信義路４７號","OBJECTID":315179},"geometry":{"x":197591.02000000048,"y":2563492.2699999996}},{"attributes":{"ID":315188,"DIS_CODE":0,"TOWNNAME":"楠西區","LI":"楠西里","LIN":"17鄰","STREET":"中正路","SECT":" ","MAREA":" ","LANE":" ","ALLEY":" ","HOUSE_NO":"８３號","E_COORD97":197231.81,"N_COORD97":2564013.25,"ADDRESS":"中正路８３號","OBJECTID":315180},"geometry":{"x":197231.80999999959,"y":2564013.2500000019}},{"attributes":{"ID":315189,"DIS_CODE":0,"TOWNNAME":"楠西區","LI":"東勢里","LIN":"17鄰","STREET":"信義路","SECT":" ","MAREA":" ","LANE":" ","ALLEY":" ","HOUSE_NO":"３８號","E_COORD97":197596.51999999999,"N_COORD97":2563437.27,"ADDRESS":"信義路３８號","OBJECTID":315181},"geometry":{"x":197596.51999999955,"y":2563437.2699999996}},{"attributes":{"ID":315190,"DIS_CODE":0,"TOWNNAME":"楠西區","LI":"楠西里","LIN":"17鄰","STREET":"中正路","SECT":" ","MAREA":" ","LANE":" ","ALLEY":" ","HOUSE_NO":"８９號","E_COORD97":197240.91,"N_COORD97":2564024.25,"ADDRESS":"中正路８９號","OBJECTID":315182},"geometry":{"x":197240.91000000201,"y":2564024.25}},{"attributes":{"ID":315191,"DIS_CODE":0,"TOWNNAME":"新營區","LI":"太北里","LIN":"16鄰","STREET":" ","SECT":" ","MAREA":"太子宮","LANE":" ","ALLEY":" ","HOUSE_NO":"１３２號之３","E_COORD97":175911.56988299999,"N_COORD97":2576895.9964999999,"ADDRESS":"太子宮１３２號之３","OBJECTID":315183},"geometry":{"x":175911.56988299917,"y":2576895.996495001}},{"attributes":{"ID":315192,"DIS_CODE":0,"TOWNNAME":"新營區","LI":"新東里","LIN":"23鄰","STREET":"大同路","SECT":" ","MAREA":" ","LANE":"７８巷","ALLEY":" ","HOUSE_NO":"１３號","E_COORD97":180753.82000000001,"N_COORD97":2579038.7400000002,"ADDRESS":"大同路７８巷１３號","OBJECTID":315184},"geometry":{"x":180753.8200000003,"y":2579038.7400000039}},{"attributes":{"ID":315193,"DIS_CODE":0,"TOWNNAME":"仁德區","LI":"後壁里","LIN":"7鄰","STREET":"德善二街","SECT":" ","MAREA":" ","LANE":"５１巷","ALLEY":" ","HOUSE_NO":"１６號","E_COORD97":173624.79000000001,"N_COORD97":2539025.2599999998,"ADDRESS":"德善二街５１巷１６號","OBJECTID":315185},"geometry":{"x":173624.79000000097,"y":2539025.2600000016}},{"attributes":{"ID":315194,"DIS_CODE":0,"TOWNNAME":"新營區","LI":"嘉芳里","LIN":" ","STREET":" ","SECT":" ","MAREA":"茄苳腳","LANE":" ","ALLEY":" ","HOUSE_NO":"３８號","E_COORD97":177001.60999999999,"N_COORD97":2578507.4500000002,"ADDRESS":"茄苳腳３８號","OBJECTID":315186},"geometry":{"x":177001.61000000127,"y":2578507.450000003}},{"attributes":{"ID":315195,"DIS_CODE":0,"TOWNNAME":"新營區","LI":"嘉芳里","LIN":"4鄰","STREET":" ","SECT":" ","MAREA":"茄苳腳","LANE":" ","ALLEY":" ","HOUSE_NO":"５０之１４號","E_COORD97":176912.59,"N_COORD97":2578378.3900000001,"ADDRESS":"茄苳腳５０之１４號","OBJECTID":315187},"geometry":{"x":176912.59000000078,"y":2578378.3900000025}},{"attributes":{"ID":315196,"DIS_CODE":0,"TOWNNAME":"永康區","LI":"正強里","LIN":"7鄰","STREET":"自強路","SECT":" ","MAREA":" ","LANE":"３６８巷","ALLEY":" ","HOUSE_NO":"１２號","E_COORD97":173532.92999999999,"N_COORD97":2547678.2799999998,"ADDRESS":"自強路３６８巷１２號","OBJECTID":315188},"geometry":{"x":173532.93000000156,"y":2547678.2799999993}},{"attributes":{"ID":315197,"DIS_CODE":0,"TOWNNAME":"永康區","LI":"烏竹里","LIN":"7鄰","STREET":"龍橋街","SECT":" ","MAREA":" ","LANE":"４５９巷","ALLEY":" ","HOUSE_NO":"８之５號","E_COORD97":174345.95000000001,"N_COORD97":2549355.2999999998,"ADDRESS":"龍橋街４５９巷８之５號","OBJECTID":315189},"geometry":{"x":174345.95000000112,"y":2549355.3000000007}},{"attributes":{"ID":315198,"DIS_CODE":0,"TOWNNAME":"永康區","LI":"甲頂里","LIN":"7鄰","STREET":"中正南路","SECT":" ","MAREA":" ","LANE":"５２巷","ALLEY":" ","HOUSE_NO":"８３號","E_COORD97":170189.88,"N_COORD97":2546843.75,"ADDRESS":"中正南路５２巷８３號","OBJECTID":315190},"geometry":{"x":170189.87999999989,"y":2546843.7500000019}},{"attributes":{"ID":315199,"DIS_CODE":0,"TOWNNAME":"新營區","LI":"嘉芳里","LIN":"8鄰","STREET":" ","SECT":" ","MAREA":"茄苳腳","LANE":" ","ALLEY":" ","HOUSE_NO":"７８號之１９","E_COORD97":176840.88,"N_COORD97":2578561.4700000002,"ADDRESS":"茄苳腳７８之１９號","OBJECTID":315191},"geometry":{"x":176840.88000000175,"y":2578561.4700000007}},{"attributes":{"ID":315200,"DIS_CODE":0,"TOWNNAME":"永康區","LI":"西勢里","LIN":"7鄰","STREET":"富強路","SECT":"一段","MAREA":" ","LANE":"２７９巷","ALLEY":" ","HOUSE_NO":"２４號","E_COORD97":175647.67000000001,"N_COORD97":2546636.9199999999,"ADDRESS":"富強路一段２７９巷２４號","OBJECTID":315192},"geometry":{"x":175647.67000000086,"y":2546636.9200000018}},{"attributes":{"ID":315201,"DIS_CODE":0,"TOWNNAME":"新營區","LI":"嘉芳里","LIN":"5鄰","STREET":" ","SECT":" ","MAREA":"茄苳腳","LANE":" ","ALLEY":" ","HOUSE_NO":"６０號之１６","E_COORD97":176906.89999999999,"N_COORD97":2578469.23,"ADDRESS":"茄苳腳６０之１６號","OBJECTID":315193},"geometry":{"x":176906.90000000037,"y":2578469.2299999986}},{"attributes":{"ID":315202,"DIS_CODE":0,"TOWNNAME":"永康區","LI":"蔦松里","LIN":"7鄰","STREET":"蔦松一街","SECT":" ","MAREA":" ","LANE":"２２巷","ALLEY":" ","HOUSE_NO":"２９號","E_COORD97":174092.31,"N_COORD97":2549446.4199999999,"ADDRESS":"蔦松一街２２巷２９號","OBJECTID":315194},"geometry":{"x":174092.30999999959,"y":2549446.4200000018}},{"attributes":{"ID":315203,"DIS_CODE":0,"TOWNNAME":"新營區","LI":"嘉芳里","LIN":" ","STREET":" ","SECT":" ","MAREA":"茄苳腳","LANE":" ","ALLEY":" ","HOUSE_NO":"１０號","E_COORD97":177196.63,"N_COORD97":2578247.3500000001,"ADDRESS":"茄苳腳１０號","OBJECTID":315195},"geometry":{"x":177196.62999999989,"y":2578247.3500000034}},{"attributes":{"ID":315204,"DIS_CODE":0,"TOWNNAME":"永康區","LI":"正強里","LIN":"7鄰","STREET":"自強路","SECT":" ","MAREA":" ","LANE":"３３０巷","ALLEY":" ","HOUSE_NO":"３７號","E_COORD97":173446.72,"N_COORD97":2547600.29,"ADDRESS":"自強路３３０巷３７號","OBJECTID":315196},"geometry":{"x":173446.72000000067,"y":2547600.2899999991}},{"attributes":{"ID":315205,"DIS_CODE":0,"TOWNNAME":"永康區","LI":"西橋里","LIN":"7鄰","STREET":"中華西街","SECT":" ","MAREA":" ","LANE":"６３巷","ALLEY":" ","HOUSE_NO":"１號","E_COORD97":170724.44,"N_COORD97":2546028.75,"ADDRESS":"中華西街６３巷１號","OBJECTID":315197},"geometry":{"x":170724.44000000041,"y":2546028.75}},{"attributes":{"ID":315206,"DIS_CODE":0,"TOWNNAME":"南區","LI":"明亮里","LIN":"7鄰","STREET":"新都路","SECT":" ","MAREA":" ","LANE":"５０６巷","ALLEY":" ","HOUSE_NO":"１８號","E_COORD97":167179.23000000001,"N_COORD97":2540937.6400000001,"ADDRESS":"新都路５０６巷１８號","OBJECTID":315198},"geometry":{"x":167179.23000000045,"y":2540937.6400000006}},{"attributes":{"ID":315207,"DIS_CODE":0,"TOWNNAME":"南區","LI":"明亮里","LIN":"7鄰","STREET":"新都路","SECT":" ","MAREA":" ","LANE":"５０６巷","ALLEY":" ","HOUSE_NO":"１９號","E_COORD97":167157.85000000001,"N_COORD97":2540944.3500000001,"ADDRESS":"新都路５０６巷１９號","OBJECTID":315199},"geometry":{"x":167157.85000000149,"y":2540944.3500000015}},{"attributes":{"ID":315208,"DIS_CODE":0,"TOWNNAME":"南區","LI":"明亮里","LIN":"7鄰","STREET":"新都路","SECT":" ","MAREA":" ","LANE":"５０６巷","ALLEY":" ","HOUSE_NO":"２０號","E_COORD97":167180.76999999999,"N_COORD97":2540942.2400000002,"ADDRESS":"新都路５０６巷２０號","OBJECTID":315200},"geometry":{"x":167180.77000000048,"y":2540942.2400000021}}]}