{"displayFieldName":"TOWNNAME","fieldAliases":{"ID":"ID","DIS_CODE":"DIS_CODE","TOWNNAME":"TOWNNAME","LI":"LI","LIN":"LIN","STREET":"STREET","SECT":"SECT","MAREA":"MAREA","LANE":"LANE","ALLEY":"ALLEY","HOUSE_NO":"HOUSE_NO","E_COORD97":"E_COORD97","N_COORD97":"N_COORD97","ADDRESS":"ADDRESS","OBJECTID":"OBJECTID"},"geometryType":"esriGeometryPoint","spatialReference":{"wkid":102443,"latestWkid":3826},"fields":[{"name":"ID","type":"esriFieldTypeDouble","alias":"ID"},{"name":"DIS_CODE","type":"esriFieldTypeInteger","alias":"DIS_CODE"},{"name":"TOWNNAME","type":"esriFieldTypeString","alias":"TOWNNAME","length":8},{"name":"LI","type":"esriFieldTypeString","alias":"LI","length":8},{"name":"LIN","type":"esriFieldTypeString","alias":"LIN","length":12},{"name":"STREET","type":"esriFieldTypeString","alias":"STREET","length":20},{"name":"SECT","type":"esriFieldTypeString","alias":"SECT","length":8},{"name":"MAREA","type":"esriFieldTypeString","alias":"MAREA","length":12},{"name":"LANE","type":"esriFieldTypeString","alias":"LANE","length":10},{"name":"ALLEY","type":"esriFieldTypeString","alias":"ALLEY","length":10},{"name":"HOUSE_NO","type":"esriFieldTypeString","alias":"HOUSE_NO","length":20},{"name":"E_COORD97","type":"esriFieldTypeDouble","alias":"E_COORD97"},{"name":"N_COORD97","type":"esriFieldTypeDouble","alias":"N_COORD97"},{"name":"ADDRESS","type":"esriFieldTypeString","alias":"ADDRESS","length":50},{"name":"OBJECTID","type":"esriFieldTypeOID","alias":"OBJECTID"}],"features":[{"attributes":{"ID":583228,"DIS_CODE":0,"TOWNNAME":"永康區","LI":"中興里","LIN":"17鄰","STREET":"中華路","SECT":" ","MAREA":" ","LANE":" ","ALLEY":" ","HOUSE_NO":"２６８號","E_COORD97":171630.73000000001,"N_COORD97":2545148.7400000002,"ADDRESS":"中華路２６８號","OBJECTID":583201},"geometry":{"x":171630.73000000045,"y":2545148.7400000021}},{"attributes":{"ID":583229,"DIS_CODE":0,"TOWNNAME":"永康區","LI":"五王里","LIN":"30鄰","STREET":"中山東路","SECT":" ","MAREA":" ","LANE":" ","ALLEY":" ","HOUSE_NO":"５８號","E_COORD97":171699.03,"N_COORD97":2546034.71,"ADDRESS":"中山東路５８號","OBJECTID":583202},"geometry":{"x":171699.03000000119,"y":2546034.7100000028}},{"attributes":{"ID":583230,"DIS_CODE":0,"TOWNNAME":"永康區","LI":"大灣里","LIN":"12鄰","STREET":"民族路","SECT":" ","MAREA":" ","LANE":" ","ALLEY":" ","HOUSE_NO":"３３８號","E_COORD97":174900.73999999999,"N_COORD97":2545311.1000000001,"ADDRESS":"民族路３３８號","OBJECTID":583203},"geometry":{"x":174900.74000000022,"y":2545311.0999999996}},{"attributes":{"ID":583231,"DIS_CODE":0,"TOWNNAME":"永康區","LI":"大橋里","LIN":"28鄰","STREET":"中華路","SECT":" ","MAREA":" ","LANE":" ","ALLEY":" ","HOUSE_NO":"７４０號","E_COORD97":170928.92999999999,"N_COORD97":2546360.7400000002,"ADDRESS":"中華路７４０號","OBJECTID":583204},"geometry":{"x":170928.9299999997,"y":2546360.7400000002}},{"attributes":{"ID":583232,"DIS_CODE":0,"TOWNNAME":"永康區","LI":"大灣里","LIN":"29鄰","STREET":"文賢街","SECT":" ","MAREA":" ","LANE":" ","ALLEY":" ","HOUSE_NO":"２５號","E_COORD97":175260.51999999999,"N_COORD97":2544979.9399999999,"ADDRESS":"文賢街２５號","OBJECTID":583205},"geometry":{"x":175260.51999999955,"y":2544979.9399999976}},{"attributes":{"ID":583233,"DIS_CODE":0,"TOWNNAME":"仁德區","LI":"新田里","LIN":"16鄰","STREET":"北保東路","SECT":" ","MAREA":" ","LANE":" ","ALLEY":" ","HOUSE_NO":"４０號","E_COORD97":173450.39000000001,"N_COORD97":2539342.9900000002,"ADDRESS":"北保東路４０號","OBJECTID":583206},"geometry":{"x":173450.3900000006,"y":2539342.9900000021}},{"attributes":{"ID":583234,"DIS_CODE":0,"TOWNNAME":"仁德區","LI":"新田里","LIN":"16鄰","STREET":"民安路","SECT":"二段","MAREA":" ","LANE":" ","ALLEY":" ","HOUSE_NO":"５３號","E_COORD97":173405.98999999999,"N_COORD97":2539245.8100000001,"ADDRESS":"民安路二段５３號","OBJECTID":583207},"geometry":{"x":173405.99000000209,"y":2539245.8100000042}},{"attributes":{"ID":583235,"DIS_CODE":0,"TOWNNAME":"仁德區","LI":"新田里","LIN":"16鄰","STREET":"北保東路","SECT":" ","MAREA":" ","LANE":" ","ALLEY":" ","HOUSE_NO":"３８號","E_COORD97":173445.97,"N_COORD97":2539345.4900000002,"ADDRESS":"北保東路３８號","OBJECTID":583208},"geometry":{"x":173445.96999999974,"y":2539345.4900000002}},{"attributes":{"ID":583236,"DIS_CODE":0,"TOWNNAME":"仁德區","LI":"後壁里","LIN":"16鄰","STREET":"德善路","SECT":" ","MAREA":" ","LANE":" ","ALLEY":" ","HOUSE_NO":"１０２號","E_COORD97":173416.85000000001,"N_COORD97":2538827.2599999998,"ADDRESS":"德善路１０２號","OBJECTID":583209},"geometry":{"x":173416.85000000056,"y":2538827.2599999998}},{"attributes":{"ID":583237,"DIS_CODE":0,"TOWNNAME":"永康區","LI":"五王里","LIN":"30鄰","STREET":"中山東路","SECT":" ","MAREA":" ","LANE":" ","ALLEY":" ","HOUSE_NO":"８６號","E_COORD97":171713.28,"N_COORD97":2545985.9300000002,"ADDRESS":"中山東路８６號","OBJECTID":583210},"geometry":{"x":171713.28000000026,"y":2545985.9299999997}},{"attributes":{"ID":583238,"DIS_CODE":0,"TOWNNAME":"永康區","LI":"大灣里","LIN":"28鄰","STREET":"文賢街","SECT":" ","MAREA":" ","LANE":" ","ALLEY":" ","HOUSE_NO":"４１號","E_COORD97":175292.59,"N_COORD97":2545029.5499999998,"ADDRESS":"文賢街４１號","OBJECTID":583211},"geometry":{"x":175292.58999999985,"y":2545029.5500000026}},{"attributes":{"ID":583239,"DIS_CODE":0,"TOWNNAME":"仁德區","LI":"後壁里","LIN":"16鄰","STREET":"德善路","SECT":" ","MAREA":" ","LANE":" ","ALLEY":" ","HOUSE_NO":"６２號","E_COORD97":173371.95000000001,"N_COORD97":2538871.02,"ADDRESS":"德善路６２號","OBJECTID":583212},"geometry":{"x":173371.95000000019,"y":2538871.0200000014}},{"attributes":{"ID":583240,"DIS_CODE":0,"TOWNNAME":"安南區","LI":"理想里","LIN":"16鄰","STREET":"大安街","SECT":" ","MAREA":" ","LANE":" ","ALLEY":" ","HOUSE_NO":"１６３號","E_COORD97":167331.04000000001,"N_COORD97":2548236.4300000002,"ADDRESS":"大安街１６３號","OBJECTID":583213},"geometry":{"x":167331.04000000004,"y":2548236.4300000016}},{"attributes":{"ID":583241,"DIS_CODE":0,"TOWNNAME":"安南區","LI":"理想里","LIN":"16鄰","STREET":"大安街","SECT":" ","MAREA":" ","LANE":" ","ALLEY":" ","HOUSE_NO":"１６５號","E_COORD97":167332.42000000001,"N_COORD97":2548240.3900000001,"ADDRESS":"大安街１６５號","OBJECTID":583214},"geometry":{"x":167332.42000000086,"y":2548240.3900000025}},{"attributes":{"ID":583242,"DIS_CODE":0,"TOWNNAME":"安南區","LI":"理想里","LIN":"16鄰","STREET":"大安街","SECT":" ","MAREA":" ","LANE":" ","ALLEY":" ","HOUSE_NO":"１６７號","E_COORD97":167334.35000000001,"N_COORD97":2548245.8399999999,"ADDRESS":"大安街１６７號","OBJECTID":583215},"geometry":{"x":167334.35000000056,"y":2548245.8399999999}},{"attributes":{"ID":583243,"DIS_CODE":0,"TOWNNAME":"安南區","LI":"理想里","LIN":"16鄰","STREET":"大安街","SECT":" ","MAREA":" ","LANE":" ","ALLEY":" ","HOUSE_NO":"１６９號","E_COORD97":167338,"N_COORD97":2548247.5699999998,"ADDRESS":"大安街１６９號","OBJECTID":583216},"geometry":{"x":167338,"y":2548247.5700000003}},{"attributes":{"ID":583244,"DIS_CODE":0,"TOWNNAME":"安南區","LI":"理想里","LIN":"16鄰","STREET":"大安街","SECT":" ","MAREA":" ","LANE":" ","ALLEY":" ","HOUSE_NO":"１７１號","E_COORD97":167339.12,"N_COORD97":2548252.8599999999,"ADDRESS":"大安街１７１號","OBJECTID":583217},"geometry":{"x":167339.12000000011,"y":2548252.8600000013}},{"attributes":{"ID":583245,"DIS_CODE":0,"TOWNNAME":"永康區","LI":"大灣里","LIN":"5鄰","STREET":"大民街","SECT":" ","MAREA":" ","LANE":" ","ALLEY":" ","HOUSE_NO":"１２７號","E_COORD97":174931.48000000001,"N_COORD97":2545615.3500000001,"ADDRESS":"大民街１２７號","OBJECTID":583218},"geometry":{"x":174931.48000000045,"y":2545615.3500000015}},{"attributes":{"ID":583246,"DIS_CODE":0,"TOWNNAME":"永康區","LI":"大橋里","LIN":"17鄰","STREET":"大橋一街","SECT":" ","MAREA":" ","LANE":" ","ALLEY":" ","HOUSE_NO":"１１３號","E_COORD97":171014.09,"N_COORD97":2546480.2400000002,"ADDRESS":"大橋一街１１３號","OBJECTID":583219},"geometry":{"x":171014.08999999985,"y":2546480.2400000002}},{"attributes":{"ID":583247,"DIS_CODE":0,"TOWNNAME":"永康區","LI":"大灣里","LIN":"19鄰","STREET":"大灣路","SECT":" ","MAREA":" ","LANE":" ","ALLEY":" ","HOUSE_NO":"３６２號","E_COORD97":174832.31,"N_COORD97":2545108,"ADDRESS":"大灣路３６２號","OBJECTID":583220},"geometry":{"x":174832.31000000145,"y":2545108}},{"attributes":{"ID":583248,"DIS_CODE":0,"TOWNNAME":"安南區","LI":"理想里","LIN":"16鄰","STREET":"大安街","SECT":" ","MAREA":" ","LANE":" ","ALLEY":" ","HOUSE_NO":"１７５號","E_COORD97":167343.91,"N_COORD97":2548263.8799999999,"ADDRESS":"大安街１７５號","OBJECTID":583221},"geometry":{"x":167343.91000000015,"y":2548263.879999999}},{"attributes":{"ID":583249,"DIS_CODE":0,"TOWNNAME":"安南區","LI":"理想里","LIN":"16鄰","STREET":"大安街","SECT":" ","MAREA":" ","LANE":" ","ALLEY":" ","HOUSE_NO":"１７９號","E_COORD97":167350.42000000001,"N_COORD97":2548269.7599999998,"ADDRESS":"大安街１７９號","OBJECTID":583222},"geometry":{"x":167350.41999999993,"y":2548269.7599999998}},{"attributes":{"ID":583250,"DIS_CODE":0,"TOWNNAME":"安南區","LI":"理想里","LIN":"16鄰","STREET":"大安街","SECT":" ","MAREA":" ","LANE":" ","ALLEY":" ","HOUSE_NO":"１８１號","E_COORD97":167352.84,"N_COORD97":2548273.29,"ADDRESS":"大安街１８１號","OBJECTID":583223},"geometry":{"x":167352.83999999985,"y":2548273.290000001}},{"attributes":{"ID":583251,"DIS_CODE":0,"TOWNNAME":"安南區","LI":"海東里","LIN":"16鄰","STREET":"海佃路","SECT":"二段","MAREA":" ","LANE":" ","ALLEY":" ","HOUSE_NO":"３６５號","E_COORD97":166747.69,"N_COORD97":2548852.4399999999,"ADDRESS":"海佃路二段３６５號","OBJECTID":583224},"geometry":{"x":166747.68999999948,"y":2548852.4400000013}},{"attributes":{"ID":583252,"DIS_CODE":0,"TOWNNAME":"永康區","LI":"大灣里","LIN":"5鄰","STREET":"大同街","SECT":" ","MAREA":" ","LANE":" ","ALLEY":" ","HOUSE_NO":"１８２號","E_COORD97":174864.20999999999,"N_COORD97":2545602.6299999999,"ADDRESS":"大同街１８２號","OBJECTID":583225},"geometry":{"x":174864.21000000089,"y":2545602.6300000008}},{"attributes":{"ID":583253,"DIS_CODE":0,"TOWNNAME":"永康區","LI":"中興里","LIN":"16鄰","STREET":"中華二路","SECT":" ","MAREA":" ","LANE":" ","ALLEY":" ","HOUSE_NO":"１５３號","E_COORD97":171949.26000000001,"N_COORD97":2545426.2400000002,"ADDRESS":"中華二路１５３號","OBJECTID":583226},"geometry":{"x":171949.26000000164,"y":2545426.2399999984}},{"attributes":{"ID":583254,"DIS_CODE":0,"TOWNNAME":"永康區","LI":"中興里","LIN":"16鄰","STREET":"中華二路","SECT":" ","MAREA":" ","LANE":" ","ALLEY":" ","HOUSE_NO":"１４３號","E_COORD97":171969.45000000001,"N_COORD97":2545425.9900000002,"ADDRESS":"中華二路１４３號","OBJECTID":583227},"geometry":{"x":171969.45000000112,"y":2545425.9900000021}},{"attributes":{"ID":583255,"DIS_CODE":0,"TOWNNAME":"永康區","LI":"中興里","LIN":"16鄰","STREET":"中華二路","SECT":" ","MAREA":" ","LANE":" ","ALLEY":" ","HOUSE_NO":"１５１號","E_COORD97":171953.31,"N_COORD97":2545425.9900000002,"ADDRESS":"中華二路１５１號","OBJECTID":583228},"geometry":{"x":171953.30999999959,"y":2545425.9900000021}},{"attributes":{"ID":583256,"DIS_CODE":0,"TOWNNAME":"永康區","LI":"中興里","LIN":"16鄰","STREET":"中華二路","SECT":" ","MAREA":" ","LANE":" ","ALLEY":" ","HOUSE_NO":"１５９號","E_COORD97":171937.17999999999,"N_COORD97":2545419.75,"ADDRESS":"中華二路１５９號","OBJECTID":583229},"geometry":{"x":171937.1799999997,"y":2545419.7500000019}},{"attributes":{"ID":583257,"DIS_CODE":0,"TOWNNAME":"永康區","LI":"中興里","LIN":"16鄰","STREET":"中華二路","SECT":" ","MAREA":" ","LANE":" ","ALLEY":" ","HOUSE_NO":"１４７號","E_COORD97":171961.23000000001,"N_COORD97":2545425.9900000002,"ADDRESS":"中華二路１４７號","OBJECTID":583230},"geometry":{"x":171961.23000000045,"y":2545425.9900000021}},{"attributes":{"ID":583258,"DIS_CODE":0,"TOWNNAME":"永康區","LI":"中興里","LIN":"16鄰","STREET":"中華二路","SECT":" ","MAREA":" ","LANE":" ","ALLEY":" ","HOUSE_NO":"１５５號","E_COORD97":171944.79000000001,"N_COORD97":2545426.2400000002,"ADDRESS":"中華二路１５５號","OBJECTID":583231},"geometry":{"x":171944.79000000097,"y":2545426.2399999984}},{"attributes":{"ID":583259,"DIS_CODE":0,"TOWNNAME":"永康區","LI":"王行里","LIN":"16鄰","STREET":"中山北路","SECT":" ","MAREA":" ","LANE":" ","ALLEY":" ","HOUSE_NO":"６９１號","E_COORD97":175695.07000000001,"N_COORD97":2547848.02,"ADDRESS":"中山北路６９１號","OBJECTID":583232},"geometry":{"x":175695.0700000003,"y":2547848.0200000033}},{"attributes":{"ID":583260,"DIS_CODE":0,"TOWNNAME":"永康區","LI":"二王里","LIN":"16鄰","STREET":"忠孝路","SECT":" ","MAREA":" ","LANE":" ","ALLEY":" ","HOUSE_NO":"４４６號","E_COORD97":172480.17999999999,"N_COORD97":2546602.29,"ADDRESS":"忠孝路４４６號","OBJECTID":583233},"geometry":{"x":172480.17999999877,"y":2546602.290000001}},{"attributes":{"ID":583261,"DIS_CODE":0,"TOWNNAME":"永康區","LI":"二王里","LIN":"16鄰","STREET":"忠孝路","SECT":" ","MAREA":" ","LANE":" ","ALLEY":" ","HOUSE_NO":"４３４號","E_COORD97":172480.10999999999,"N_COORD97":2546573.2799999998,"ADDRESS":"忠孝路４３４號","OBJECTID":583234},"geometry":{"x":172480.11000000127,"y":2546573.2799999993}},{"attributes":{"ID":583262,"DIS_CODE":0,"TOWNNAME":"永康區","LI":"中興里","LIN":"16鄰","STREET":"中華二路","SECT":" ","MAREA":" ","LANE":" ","ALLEY":" ","HOUSE_NO":"１４５號","E_COORD97":171965.42000000001,"N_COORD97":2545425.9900000002,"ADDRESS":"中華二路１４５號","OBJECTID":583235},"geometry":{"x":171965.42000000086,"y":2545425.9900000021}},{"attributes":{"ID":583263,"DIS_CODE":0,"TOWNNAME":"永康區","LI":"三合里","LIN":"16鄰","STREET":"南工街","SECT":" ","MAREA":" ","LANE":" ","ALLEY":" ","HOUSE_NO":"２５５號之５","E_COORD97":171940.12,"N_COORD97":2545954.79,"ADDRESS":"南工街２５５號之５","OBJECTID":583236},"geometry":{"x":171940.12000000011,"y":2545954.790000001}},{"attributes":{"ID":583264,"DIS_CODE":0,"TOWNNAME":"永康區","LI":"中興里","LIN":"2鄰","STREET":"中山東路","SECT":" ","MAREA":" ","LANE":" ","ALLEY":" ","HOUSE_NO":"４４９號","E_COORD97":171981.89999999999,"N_COORD97":2544979.5,"ADDRESS":"中山東路４４９號","OBJECTID":583237},"geometry":{"x":171981.9000000013,"y":2544979.5}},{"attributes":{"ID":583265,"DIS_CODE":0,"TOWNNAME":"永康區","LI":"大灣里","LIN":"2鄰","STREET":"中灣一街","SECT":" ","MAREA":" ","LANE":" ","ALLEY":" ","HOUSE_NO":"１８號","E_COORD97":174761.22,"N_COORD97":2545626.6499999999,"ADDRESS":"中灣一街１８號","OBJECTID":583238},"geometry":{"x":174761.21999999974,"y":2545626.6500000004}},{"attributes":{"ID":583266,"DIS_CODE":0,"TOWNNAME":"永康區","LI":"大橋里","LIN":"5鄰","STREET":"大橋五街","SECT":" ","MAREA":" ","LANE":" ","ALLEY":" ","HOUSE_NO":"２０之６號","E_COORD97":170817.20000000001,"N_COORD97":2546838.7999999998,"ADDRESS":"大橋五街２０之６號","OBJECTID":583239},"geometry":{"x":170817.20000000019,"y":2546838.8000000007}},{"attributes":{"ID":583267,"DIS_CODE":0,"TOWNNAME":"永康區","LI":"王行里","LIN":"16鄰","STREET":"中山北路","SECT":" ","MAREA":" ","LANE":" ","ALLEY":" ","HOUSE_NO":"８１７號","E_COORD97":176181.45000000001,"N_COORD97":2548043.54,"ADDRESS":"中山北路８１７號","OBJECTID":583240},"geometry":{"x":176181.45000000112,"y":2548043.5399999991}},{"attributes":{"ID":583268,"DIS_CODE":0,"TOWNNAME":"永康區","LI":"中興里","LIN":"2鄰","STREET":"中山東路","SECT":" ","MAREA":" ","LANE":" ","ALLEY":" ","HOUSE_NO":"４３７號","E_COORD97":171976.39000000001,"N_COORD97":2545008.9900000002,"ADDRESS":"中山東路４３７號","OBJECTID":583241},"geometry":{"x":171976.38999999966,"y":2545008.9900000021}},{"attributes":{"ID":583269,"DIS_CODE":0,"TOWNNAME":"永康區","LI":"五王里","LIN":"36鄰","STREET":"中華路","SECT":" ","MAREA":" ","LANE":" ","ALLEY":" ","HOUSE_NO":"５９８號之１３","E_COORD97":171216.32000000001,"N_COORD97":2545951.54,"ADDRESS":"中華路５９８號之１３","OBJECTID":583242},"geometry":{"x":171216.3200000003,"y":2545951.5399999991}},{"attributes":{"ID":583270,"DIS_CODE":0,"TOWNNAME":"永康區","LI":"五王里","LIN":"41鄰","STREET":"中山南路","SECT":" ","MAREA":" ","LANE":" ","ALLEY":" ","HOUSE_NO":"２０６號之１","E_COORD97":171377.35999999999,"N_COORD97":2546042.54,"ADDRESS":"中山南路２０６號之１","OBJECTID":583243},"geometry":{"x":171377.36000000034,"y":2546042.5399999991}},{"attributes":{"ID":583271,"DIS_CODE":0,"TOWNNAME":"永康區","LI":"大橋里","LIN":"6鄰","STREET":"大橋五街","SECT":" ","MAREA":" ","LANE":" ","ALLEY":" ","HOUSE_NO":"６２號","E_COORD97":170883.10999999999,"N_COORD97":2546902.3300000001,"ADDRESS":"大橋五街６２號","OBJECTID":583244},"geometry":{"x":170883.11000000127,"y":2546902.3300000001}},{"attributes":{"ID":583272,"DIS_CODE":0,"TOWNNAME":"永康區","LI":"大灣里","LIN":"23鄰","STREET":"民族路","SECT":" ","MAREA":" ","LANE":" ","ALLEY":" ","HOUSE_NO":"３６３號","E_COORD97":174972.14000000001,"N_COORD97":2545219.5600000001,"ADDRESS":"民族路３６３號","OBJECTID":583245},"geometry":{"x":174972.13999999966,"y":2545219.5600000005}},{"attributes":{"ID":583273,"DIS_CODE":0,"TOWNNAME":"永康區","LI":"大橋里","LIN":"5鄰","STREET":"大橋三街","SECT":" ","MAREA":" ","LANE":" ","ALLEY":" ","HOUSE_NO":"１７９號","E_COORD97":170818.78,"N_COORD97":2546752.3500000001,"ADDRESS":"大橋三街１７９號","OBJECTID":583246},"geometry":{"x":170818.77999999933,"y":2546752.3500000015}},{"attributes":{"ID":583274,"DIS_CODE":0,"TOWNNAME":"永康區","LI":"中華里","LIN":"20鄰","STREET":"小東路","SECT":" ","MAREA":" ","LANE":" ","ALLEY":" ","HOUSE_NO":"４７３號之２","E_COORD97":171576.32999999999,"N_COORD97":2544348.9700000002,"ADDRESS":"小東路４７３號之２","OBJECTID":583247},"geometry":{"x":171576.33000000101,"y":2544348.9700000007}},{"attributes":{"ID":583275,"DIS_CODE":0,"TOWNNAME":"永康區","LI":"大灣里","LIN":"1鄰","STREET":"大同街","SECT":" ","MAREA":" ","LANE":" ","ALLEY":" ","HOUSE_NO":"２０１號","E_COORD97":174773.29999999999,"N_COORD97":2545708.8900000001,"ADDRESS":"大同街２０１號","OBJECTID":583248},"geometry":{"x":174773.30000000075,"y":2545708.8900000025}},{"attributes":{"ID":583276,"DIS_CODE":0,"TOWNNAME":"永康區","LI":"大灣里","LIN":"28鄰","STREET":"文賢街","SECT":" ","MAREA":" ","LANE":" ","ALLEY":" ","HOUSE_NO":"５７號","E_COORD97":175301.45999999999,"N_COORD97":2545058.21,"ADDRESS":"文賢街５７號","OBJECTID":583249},"geometry":{"x":175301.46000000089,"y":2545058.2100000028}},{"attributes":{"ID":583277,"DIS_CODE":0,"TOWNNAME":"永康區","LI":"大灣里","LIN":"29鄰","STREET":"文賢街","SECT":" ","MAREA":" ","LANE":" ","ALLEY":" ","HOUSE_NO":"１９號","E_COORD97":175263.63,"N_COORD97":2544963.4399999999,"ADDRESS":"文賢街１９號","OBJECTID":583250},"geometry":{"x":175263.62999999989,"y":2544963.4400000032}},{"attributes":{"ID":583278,"DIS_CODE":0,"TOWNNAME":"永康區","LI":"大橋里","LIN":"23鄰","STREET":"大橋一街","SECT":" ","MAREA":" ","LANE":" ","ALLEY":" ","HOUSE_NO":"２０３號","E_COORD97":171191.73000000001,"N_COORD97":2546596.2400000002,"ADDRESS":"大橋一街２０３號","OBJECTID":583251},"geometry":{"x":171191.73000000045,"y":2546596.2400000039}},{"attributes":{"ID":583279,"DIS_CODE":0,"TOWNNAME":"永康區","LI":"大灣里","LIN":"27鄰","STREET":"大灣六街","SECT":" ","MAREA":" ","LANE":" ","ALLEY":" ","HOUSE_NO":"２６號","E_COORD97":175274.70999999999,"N_COORD97":2545216.0099999998,"ADDRESS":"大灣六街２６號","OBJECTID":583252},"geometry":{"x":175274.71000000089,"y":2545216.0099999998}},{"attributes":{"ID":583280,"DIS_CODE":0,"TOWNNAME":"永康區","LI":"大橋里","LIN":"6鄰","STREET":"大橋五街","SECT":" ","MAREA":" ","LANE":" ","ALLEY":" ","HOUSE_NO":"１２６號","E_COORD97":170976.39999999999,"N_COORD97":2546973,"ADDRESS":"大橋五街１２６號","OBJECTID":583253},"geometry":{"x":170976.4000000013,"y":2546973}},{"attributes":{"ID":583281,"DIS_CODE":0,"TOWNNAME":"永康區","LI":"大灣里","LIN":"27鄰","STREET":"大灣六街","SECT":" ","MAREA":" ","LANE":" ","ALLEY":" ","HOUSE_NO":"８號","E_COORD97":175306.44,"N_COORD97":2545211.02,"ADDRESS":"大灣六街８號","OBJECTID":583254},"geometry":{"x":175306.44000000041,"y":2545211.0200000014}},{"attributes":{"ID":583282,"DIS_CODE":0,"TOWNNAME":"永康區","LI":"中興里","LIN":"14鄰","STREET":"中山東路","SECT":" ","MAREA":" ","LANE":" ","ALLEY":" ","HOUSE_NO":"３４５號","E_COORD97":171917.89999999999,"N_COORD97":2545268.5,"ADDRESS":"中山東路３４５號","OBJECTID":583255},"geometry":{"x":171917.90000000037,"y":2545268.5000000037}},{"attributes":{"ID":583283,"DIS_CODE":0,"TOWNNAME":"永康區","LI":"中興里","LIN":"17鄰","STREET":"中華二路","SECT":" ","MAREA":" ","LANE":" ","ALLEY":" ","HOUSE_NO":"２９３號","E_COORD97":171525.03,"N_COORD97":2545418.1099999999,"ADDRESS":"中華二路２９３號","OBJECTID":583256},"geometry":{"x":171525.03000000026,"y":2545418.1099999994}},{"attributes":{"ID":583284,"DIS_CODE":0,"TOWNNAME":"永康區","LI":"中興里","LIN":"8鄰","STREET":"中山東路","SECT":" ","MAREA":" ","LANE":" ","ALLEY":" ","HOUSE_NO":"４１５號","E_COORD97":171964.28,"N_COORD97":2545069,"ADDRESS":"中山東路４１５號","OBJECTID":583257},"geometry":{"x":171964.28000000026,"y":2545069.0000000019}},{"attributes":{"ID":583285,"DIS_CODE":0,"TOWNNAME":"永康區","LI":"中興里","LIN":"8鄰","STREET":"中山東路","SECT":" ","MAREA":" ","LANE":" ","ALLEY":" ","HOUSE_NO":"４２７號","E_COORD97":171969.29000000001,"N_COORD97":2545044.7400000002,"ADDRESS":"中山東路４２７號","OBJECTID":583258},"geometry":{"x":171969.29000000004,"y":2545044.7400000021}},{"attributes":{"ID":583286,"DIS_CODE":0,"TOWNNAME":"永康區","LI":"大灣里","LIN":"12鄰","STREET":"民族路","SECT":" ","MAREA":" ","LANE":" ","ALLEY":" ","HOUSE_NO":"３４２號","E_COORD97":174894,"N_COORD97":2545313.6000000001,"ADDRESS":"民族路３４２號","OBJECTID":583259},"geometry":{"x":174894.00000000186,"y":2545313.5999999996}},{"attributes":{"ID":583287,"DIS_CODE":0,"TOWNNAME":"永康區","LI":"大橋里","LIN":"22鄰","STREET":"大橋一街","SECT":" ","MAREA":" ","LANE":" ","ALLEY":" ","HOUSE_NO":"１６５號","E_COORD97":171098.13,"N_COORD97":2546539,"ADDRESS":"大橋一街１６５號","OBJECTID":583260},"geometry":{"x":171098.13000000082,"y":2546539}},{"attributes":{"ID":583288,"DIS_CODE":0,"TOWNNAME":"永康區","LI":"大橋里","LIN":"1鄰","STREET":"中華路","SECT":" ","MAREA":" ","LANE":" ","ALLEY":" ","HOUSE_NO":"８９６號","E_COORD97":170561.82000000001,"N_COORD97":2546656,"ADDRESS":"中華路８９６號","OBJECTID":583261},"geometry":{"x":170561.82000000123,"y":2546656.0000000019}},{"attributes":{"ID":583289,"DIS_CODE":0,"TOWNNAME":"永康區","LI":"大橋里","LIN":"12鄰","STREET":"大橋二街","SECT":" ","MAREA":" ","LANE":" ","ALLEY":" ","HOUSE_NO":"２５７號","E_COORD97":171151.98000000001,"N_COORD97":2546833.8999999999,"ADDRESS":"大橋二街２５７號","OBJECTID":583262},"geometry":{"x":171151.98000000138,"y":2546833.9000000022}},{"attributes":{"ID":583290,"DIS_CODE":0,"TOWNNAME":"永康區","LI":"大灣里","LIN":"10鄰","STREET":"大同街","SECT":" ","MAREA":" ","LANE":" ","ALLEY":" ","HOUSE_NO":"１０９號","E_COORD97":174999.73999999999,"N_COORD97":2545520.79,"ADDRESS":"大同街１０９號","OBJECTID":583263},"geometry":{"x":174999.74000000115,"y":2545520.790000001}},{"attributes":{"ID":583291,"DIS_CODE":0,"TOWNNAME":"永康區","LI":"五王里","LIN":"41鄰","STREET":"中山南路","SECT":" ","MAREA":" ","LANE":" ","ALLEY":" ","HOUSE_NO":"１８８號之１","E_COORD97":171356.95999999999,"N_COORD97":2546035.0499999998,"ADDRESS":"中山南路１８８號之１","OBJECTID":583264},"geometry":{"x":171356.96000000089,"y":2546035.0499999989}},{"attributes":{"ID":583292,"DIS_CODE":0,"TOWNNAME":"永康區","LI":"大橋里","LIN":"14鄰","STREET":"中華路","SECT":" ","MAREA":" ","LANE":" ","ALLEY":" ","HOUSE_NO":"７７６號","E_COORD97":170854.17999999999,"N_COORD97":2546439.5,"ADDRESS":"中華路７７６號","OBJECTID":583265},"geometry":{"x":170854.1799999997,"y":2546439.5000000019}},{"attributes":{"ID":583293,"DIS_CODE":0,"TOWNNAME":"永康區","LI":"五王里","LIN":"35鄰","STREET":"中華路","SECT":" ","MAREA":" ","LANE":" ","ALLEY":" ","HOUSE_NO":"５８６號","E_COORD97":171197.70000000001,"N_COORD97":2545933.5,"ADDRESS":"中華路５８６號","OBJECTID":583266},"geometry":{"x":171197.70000000112,"y":2545933.5000000019}},{"attributes":{"ID":583294,"DIS_CODE":0,"TOWNNAME":"永康區","LI":"五王里","LIN":"2鄰","STREET":"成功路","SECT":" ","MAREA":" ","LANE":" ","ALLEY":" ","HOUSE_NO":"６５號","E_COORD97":171475.95999999999,"N_COORD97":2545518.1600000001,"ADDRESS":"成功路６５號","OBJECTID":583267},"geometry":{"x":171475.95999999996,"y":2545518.1600000001}},{"attributes":{"ID":583295,"DIS_CODE":0,"TOWNNAME":"永康區","LI":"五王里","LIN":"35鄰","STREET":"中華路","SECT":" ","MAREA":" ","LANE":" ","ALLEY":" ","HOUSE_NO":"５８８號","E_COORD97":171194.64999999999,"N_COORD97":2545937,"ADDRESS":"中華路５８８號","OBJECTID":583268},"geometry":{"x":171194.65000000224,"y":2545937.0000000019}},{"attributes":{"ID":583296,"DIS_CODE":0,"TOWNNAME":"永康區","LI":"五王里","LIN":"35鄰","STREET":"中山南路","SECT":" ","MAREA":" ","LANE":" ","ALLEY":" ","HOUSE_NO":"１６２號之２","E_COORD97":171245.88,"N_COORD97":2545999.0499999998,"ADDRESS":"中山南路１６２號之２","OBJECTID":583269},"geometry":{"x":171245.87999999989,"y":2545999.0500000026}},{"attributes":{"ID":583297,"DIS_CODE":0,"TOWNNAME":"永康區","LI":"五王里","LIN":"31鄰","STREET":"中華路","SECT":" ","MAREA":" ","LANE":" ","ALLEY":" ","HOUSE_NO":"５１０號","E_COORD97":171246.98000000001,"N_COORD97":2545854.4100000001,"ADDRESS":"中華路５１０號","OBJECTID":583270},"geometry":{"x":171246.98000000138,"y":2545854.4100000001}},{"attributes":{"ID":583298,"DIS_CODE":0,"TOWNNAME":"永康區","LI":"大灣里","LIN":"5鄰","STREET":"大同街","SECT":" ","MAREA":" ","LANE":" ","ALLEY":" ","HOUSE_NO":"１９８號","E_COORD97":174865.23000000001,"N_COORD97":2545628.4900000002,"ADDRESS":"大同街１９８號","OBJECTID":583271},"geometry":{"x":174865.23000000045,"y":2545628.4900000021}},{"attributes":{"ID":583299,"DIS_CODE":0,"TOWNNAME":"永康區","LI":"五王里","LIN":"36鄰","STREET":"中華路","SECT":" ","MAREA":" ","LANE":" ","ALLEY":" ","HOUSE_NO":"５９８號之１６","E_COORD97":171213.29999999999,"N_COORD97":2545960.29,"ADDRESS":"中華路５９８號之１６","OBJECTID":583272},"geometry":{"x":171213.30000000168,"y":2545960.2899999991}},{"attributes":{"ID":583300,"DIS_CODE":0,"TOWNNAME":"永康區","LI":"大灣里","LIN":"13鄰","STREET":"中灣五街","SECT":" ","MAREA":" ","LANE":" ","ALLEY":" ","HOUSE_NO":"１５號","E_COORD97":175076.34,"N_COORD97":2545225.8799999999,"ADDRESS":"中灣五街１５號","OBJECTID":583273},"geometry":{"x":175076.34000000171,"y":2545225.879999999}},{"attributes":{"ID":583301,"DIS_CODE":0,"TOWNNAME":"永康區","LI":"中興里","LIN":"17鄰","STREET":"中華路","SECT":" ","MAREA":" ","LANE":" ","ALLEY":" ","HOUSE_NO":"２８０號之３２","E_COORD97":171636.32999999999,"N_COORD97":2545277.6800000002,"ADDRESS":"中華路２８０號之３２","OBJECTID":583274},"geometry":{"x":171636.33000000007,"y":2545277.6800000016}},{"attributes":{"ID":583302,"DIS_CODE":0,"TOWNNAME":"永康區","LI":"中興里","LIN":"17鄰","STREET":"中華路","SECT":" ","MAREA":" ","LANE":" ","ALLEY":" ","HOUSE_NO":"２７８號","E_COORD97":171625.48999999999,"N_COORD97":2545170.25,"ADDRESS":"中華路２７８號","OBJECTID":583275},"geometry":{"x":171625.49000000022,"y":2545170.25}},{"attributes":{"ID":583303,"DIS_CODE":0,"TOWNNAME":"永康區","LI":"大灣里","LIN":"29鄰","STREET":"文賢街","SECT":" ","MAREA":" ","LANE":" ","ALLEY":" ","HOUSE_NO":"２７號","E_COORD97":175256.10000000001,"N_COORD97":2544986.9399999999,"ADDRESS":"文賢街２７號","OBJECTID":583276},"geometry":{"x":175256.10000000056,"y":2544986.9400000032}},{"attributes":{"ID":583304,"DIS_CODE":0,"TOWNNAME":"永康區","LI":"北灣里","LIN":"16鄰","STREET":"大同街","SECT":" ","MAREA":" ","LANE":" ","ALLEY":" ","HOUSE_NO":"３１６號","E_COORD97":174784.04999999999,"N_COORD97":2545907.4100000001,"ADDRESS":"大同街３１６號","OBJECTID":583277},"geometry":{"x":174784.05000000075,"y":2545907.410000002}},{"attributes":{"ID":583305,"DIS_CODE":0,"TOWNNAME":"永康區","LI":"大灣里","LIN":"22鄰","STREET":"中灣五街","SECT":" ","MAREA":" ","LANE":" ","ALLEY":" ","HOUSE_NO":"１號","E_COORD97":175047.67999999999,"N_COORD97":2545200.1200000001,"ADDRESS":"中灣五街１號","OBJECTID":583278},"geometry":{"x":175047.6799999997,"y":2545200.120000001}},{"attributes":{"ID":583306,"DIS_CODE":0,"TOWNNAME":"永康區","LI":"西灣里","LIN":"16鄰","STREET":"大安街","SECT":" ","MAREA":" ","LANE":" ","ALLEY":" ","HOUSE_NO":"２０９號","E_COORD97":174670.31,"N_COORD97":2545339.8100000001,"ADDRESS":"大安街２０９號","OBJECTID":583279},"geometry":{"x":174670.30999999959,"y":2545339.8100000024}},{"attributes":{"ID":583307,"DIS_CODE":0,"TOWNNAME":"永康區","LI":"中華里","LIN":"16鄰","STREET":"小東路","SECT":" ","MAREA":" ","LANE":" ","ALLEY":" ","HOUSE_NO":"５１１號","E_COORD97":171671.87,"N_COORD97":2544337.6200000001,"ADDRESS":"小東路５１１號","OBJECTID":583280},"geometry":{"x":171671.87000000011,"y":2544337.6200000029}},{"attributes":{"ID":583308,"DIS_CODE":0,"TOWNNAME":"永康區","LI":"王行里","LIN":"16鄰","STREET":"中山北路","SECT":" ","MAREA":" ","LANE":" ","ALLEY":" ","HOUSE_NO":"１０３７號","E_COORD97":176515.29999999999,"N_COORD97":2548116.6200000001,"ADDRESS":"中山北路１０３７號","OBJECTID":583281},"geometry":{"x":176515.29999999981,"y":2548116.6200000048}},{"attributes":{"ID":583309,"DIS_CODE":0,"TOWNNAME":"永康區","LI":"埔園里","LIN":"16鄰","STREET":"八德街","SECT":" ","MAREA":" ","LANE":" ","ALLEY":" ","HOUSE_NO":"３６８號","E_COORD97":173491.32999999999,"N_COORD97":2548573.4100000001,"ADDRESS":"八德街３６８號","OBJECTID":583282},"geometry":{"x":173491.33000000007,"y":2548573.4100000001}},{"attributes":{"ID":583310,"DIS_CODE":0,"TOWNNAME":"永康區","LI":"埔園里","LIN":"16鄰","STREET":"八德街","SECT":" ","MAREA":" ","LANE":" ","ALLEY":" ","HOUSE_NO":"３７０號","E_COORD97":173485.44,"N_COORD97":2548572.0800000001,"ADDRESS":"八德街３７０號","OBJECTID":583283},"geometry":{"x":173485.44000000041,"y":2548572.0800000001}},{"attributes":{"ID":583311,"DIS_CODE":0,"TOWNNAME":"永康區","LI":"埔園里","LIN":"16鄰","STREET":"八德街","SECT":" ","MAREA":" ","LANE":" ","ALLEY":" ","HOUSE_NO":"３７２號","E_COORD97":173480.25,"N_COORD97":2548571.1000000001,"ADDRESS":"八德街３７２號","OBJECTID":583284},"geometry":{"x":173480.25000000186,"y":2548571.1000000015}},{"attributes":{"ID":583312,"DIS_CODE":0,"TOWNNAME":"永康區","LI":"埔園里","LIN":"16鄰","STREET":"八德街","SECT":" ","MAREA":" ","LANE":" ","ALLEY":" ","HOUSE_NO":"３７６號","E_COORD97":173475.19,"N_COORD97":2548569.9700000002,"ADDRESS":"八德街３７６號","OBJECTID":583285},"geometry":{"x":173475.19000000041,"y":2548569.9700000007}},{"attributes":{"ID":583313,"DIS_CODE":0,"TOWNNAME":"永康區","LI":"埔園里","LIN":"16鄰","STREET":"八德街","SECT":" ","MAREA":" ","LANE":" ","ALLEY":" ","HOUSE_NO":"３７８號","E_COORD97":173469.73999999999,"N_COORD97":2548568.5800000001,"ADDRESS":"八德街３７８號","OBJECTID":583286},"geometry":{"x":173469.74000000022,"y":2548568.5800000019}},{"attributes":{"ID":583314,"DIS_CODE":0,"TOWNNAME":"永康區","LI":"埔園里","LIN":"16鄰","STREET":"八德街","SECT":" ","MAREA":" ","LANE":" ","ALLEY":" ","HOUSE_NO":"３８０號","E_COORD97":173464.39999999999,"N_COORD97":2548567.5800000001,"ADDRESS":"八德街３８０號","OBJECTID":583287},"geometry":{"x":173464.40000000224,"y":2548567.5800000019}},{"attributes":{"ID":583315,"DIS_CODE":0,"TOWNNAME":"永康區","LI":"埔園里","LIN":"16鄰","STREET":"八德街","SECT":" ","MAREA":" ","LANE":" ","ALLEY":" ","HOUSE_NO":"３８２號","E_COORD97":173459.25,"N_COORD97":2548566.7000000002,"ADDRESS":"八德街３８２號","OBJECTID":583288},"geometry":{"x":173459.25,"y":2548566.7000000011}},{"attributes":{"ID":583316,"DIS_CODE":0,"TOWNNAME":"永康區","LI":"埔園里","LIN":"16鄰","STREET":"八德街","SECT":" ","MAREA":" ","LANE":" ","ALLEY":" ","HOUSE_NO":"３８６號","E_COORD97":173454.10999999999,"N_COORD97":2548565.6800000002,"ADDRESS":"八德街３８６號","OBJECTID":583289},"geometry":{"x":173454.11000000034,"y":2548565.6799999978}},{"attributes":{"ID":583317,"DIS_CODE":0,"TOWNNAME":"永康區","LI":"中興里","LIN":"22鄰","STREET":"中華路","SECT":" ","MAREA":" ","LANE":" ","ALLEY":" ","HOUSE_NO":"１９６號之５","E_COORD97":171633.41,"N_COORD97":2544991.2999999998,"ADDRESS":"中華路１９６號之５","OBJECTID":583290},"geometry":{"x":171633.41000000108,"y":2544991.3000000007}},{"attributes":{"ID":583318,"DIS_CODE":0,"TOWNNAME":"永康區","LI":"大橋里","LIN":"18鄰","STREET":"大橋二街","SECT":" ","MAREA":" ","LANE":" ","ALLEY":" ","HOUSE_NO":"１９０號","E_COORD97":171116.06,"N_COORD97":2546788.2400000002,"ADDRESS":"大橋二街１９０號","OBJECTID":583291},"geometry":{"x":171116.05999999959,"y":2546788.2400000002}},{"attributes":{"ID":583319,"DIS_CODE":0,"TOWNNAME":"永康區","LI":"五王里","LIN":"20鄰","STREET":"成功路","SECT":" ","MAREA":" ","LANE":" ","ALLEY":" ","HOUSE_NO":"１８９號","E_COORD97":171291.10999999999,"N_COORD97":2545836.1800000002,"ADDRESS":"成功路１８９號","OBJECTID":583292},"geometry":{"x":171291.11000000034,"y":2545836.1799999997}},{"attributes":{"ID":583320,"DIS_CODE":0,"TOWNNAME":"永康區","LI":"中興里","LIN":"25鄰","STREET":"中華路","SECT":" ","MAREA":" ","LANE":" ","ALLEY":" ","HOUSE_NO":"２１８號之３８","E_COORD97":171681.47,"N_COORD97":2545146.79,"ADDRESS":"中華路２１８號之３８","OBJECTID":583293},"geometry":{"x":171681.46999999881,"y":2545146.7899999972}},{"attributes":{"ID":583321,"DIS_CODE":0,"TOWNNAME":"永康區","LI":"五王里","LIN":"42鄰","STREET":"中山東路","SECT":" ","MAREA":" ","LANE":" ","ALLEY":" ","HOUSE_NO":"２８號","E_COORD97":171668.31,"N_COORD97":2546113,"ADDRESS":"中山東路２８號","OBJECTID":583294},"geometry":{"x":171668.30999999959,"y":2546113.0000000019}},{"attributes":{"ID":583322,"DIS_CODE":0,"TOWNNAME":"永康區","LI":"五王里","LIN":"42鄰","STREET":"中山東路","SECT":" ","MAREA":" ","LANE":" ","ALLEY":" ","HOUSE_NO":"３６號","E_COORD97":171674.10999999999,"N_COORD97":2546101.75,"ADDRESS":"中山東路３６號","OBJECTID":583295},"geometry":{"x":171674.11000000034,"y":2546101.7500000019}},{"attributes":{"ID":583323,"DIS_CODE":0,"TOWNNAME":"永康區","LI":"北灣里","LIN":"16鄰","STREET":"文賢街","SECT":" ","MAREA":" ","LANE":" ","ALLEY":" ","HOUSE_NO":"３８１號","E_COORD97":174892.72,"N_COORD97":2545805.1499999999,"ADDRESS":"文賢街３８１號","OBJECTID":583296},"geometry":{"x":174892.72000000067,"y":2545805.1500000022}},{"attributes":{"ID":583324,"DIS_CODE":0,"TOWNNAME":"永康區","LI":"五王里","LIN":"20鄰","STREET":"中華路","SECT":" ","MAREA":" ","LANE":" ","ALLEY":" ","HOUSE_NO":"５０４號","E_COORD97":171256.79000000001,"N_COORD97":2545833.5,"ADDRESS":"中華路５０４號","OBJECTID":583297},"geometry":{"x":171256.79000000004,"y":2545833.5}},{"attributes":{"ID":583325,"DIS_CODE":0,"TOWNNAME":"永康區","LI":"五王里","LIN":"35鄰","STREET":"中山南路","SECT":" ","MAREA":" ","LANE":" ","ALLEY":" ","HOUSE_NO":"１６２號之３","E_COORD97":171250.28,"N_COORD97":2546000.5499999998,"ADDRESS":"中山南路１６２號之３","OBJECTID":583298},"geometry":{"x":171250.28000000119,"y":2546000.5500000007}},{"attributes":{"ID":583326,"DIS_CODE":0,"TOWNNAME":"永康區","LI":"大灣里","LIN":"29鄰","STREET":"文賢街","SECT":" ","MAREA":" ","LANE":" ","ALLEY":" ","HOUSE_NO":"３１號","E_COORD97":175283.42999999999,"N_COORD97":2545002.1299999999,"ADDRESS":"文賢街３１號","OBJECTID":583299},"geometry":{"x":175283.4299999997,"y":2545002.1300000027}},{"attributes":{"ID":583327,"DIS_CODE":0,"TOWNNAME":"永康區","LI":"中興里","LIN":"26鄰","STREET":"中山東路","SECT":" ","MAREA":" ","LANE":" ","ALLEY":" ","HOUSE_NO":"４０６號","E_COORD97":171912.95000000001,"N_COORD97":2545187.2200000002,"ADDRESS":"中山東路４０６號","OBJECTID":583300},"geometry":{"x":171912.95000000112,"y":2545187.2200000025}},{"attributes":{"ID":583328,"DIS_CODE":0,"TOWNNAME":"永康區","LI":"五王里","LIN":"41鄰","STREET":"中山南路","SECT":" ","MAREA":" ","LANE":" ","ALLEY":" ","HOUSE_NO":"１７６號","E_COORD97":171320.29000000001,"N_COORD97":2546024,"ADDRESS":"中山南路１７６號","OBJECTID":583301},"geometry":{"x":171320.2900000019,"y":2546024}},{"attributes":{"ID":583329,"DIS_CODE":0,"TOWNNAME":"永康區","LI":"五王里","LIN":"35鄰","STREET":"中山南路","SECT":" ","MAREA":" ","LANE":" ","ALLEY":" ","HOUSE_NO":"１５２號之６","E_COORD97":171207.23999999999,"N_COORD97":2545985.04,"ADDRESS":"中山南路１５２號之６","OBJECTID":583302},"geometry":{"x":171207.23999999929,"y":2545985.0399999991}},{"attributes":{"ID":583330,"DIS_CODE":0,"TOWNNAME":"永康區","LI":"五王里","LIN":"31鄰","STREET":"中華路","SECT":" ","MAREA":" ","LANE":" ","ALLEY":" ","HOUSE_NO":"５１４號","E_COORD97":171242.92999999999,"N_COORD97":2545861.9100000001,"ADDRESS":"中華路５１４號","OBJECTID":583303},"geometry":{"x":171242.93000000063,"y":2545861.9100000001}},{"attributes":{"ID":583331,"DIS_CODE":0,"TOWNNAME":"永康區","LI":"大橋里","LIN":"9鄰","STREET":"大橋三街","SECT":" ","MAREA":" ","LANE":" ","ALLEY":" ","HOUSE_NO":"２８３號","E_COORD97":171124.29000000001,"N_COORD97":2546953.21,"ADDRESS":"大橋三街２８３號","OBJECTID":583304},"geometry":{"x":171124.29000000097,"y":2546953.2100000046}},{"attributes":{"ID":583332,"DIS_CODE":0,"TOWNNAME":"永康區","LI":"東橋里","LIN":"16鄰","STREET":"東橋一路","SECT":" ","MAREA":" ","LANE":" ","ALLEY":" ","HOUSE_NO":"１４２號","E_COORD97":171535.85999999999,"N_COORD97":2546469.5499999998,"ADDRESS":"東橋一路１４２號","OBJECTID":583305},"geometry":{"x":171535.86000000127,"y":2546469.5500000026}},{"attributes":{"ID":583333,"DIS_CODE":0,"TOWNNAME":"永康區","LI":"東橋里","LIN":"16鄰","STREET":"東橋一路","SECT":" ","MAREA":" ","LANE":" ","ALLEY":" ","HOUSE_NO":"１４６號","E_COORD97":171530.20999999999,"N_COORD97":2546476.4900000002,"ADDRESS":"東橋一路１４６號","OBJECTID":583306},"geometry":{"x":171530.20999999996,"y":2546476.4900000021}},{"attributes":{"ID":583334,"DIS_CODE":0,"TOWNNAME":"永康區","LI":"五王里","LIN":"36鄰","STREET":"中華路","SECT":" ","MAREA":" ","LANE":" ","ALLEY":" ","HOUSE_NO":"５９８號之１１","E_COORD97":171218.13,"N_COORD97":2545945.79,"ADDRESS":"中華路５９８號之１１","OBJECTID":583307},"geometry":{"x":171218.13000000082,"y":2545945.7899999991}},{"attributes":{"ID":583335,"DIS_CODE":0,"TOWNNAME":"永康區","LI":"五王里","LIN":"35鄰","STREET":"中山南路","SECT":" ","MAREA":" ","LANE":" ","ALLEY":" ","HOUSE_NO":"１６２號之１","E_COORD97":171242.04000000001,"N_COORD97":2545997.7999999998,"ADDRESS":"中山南路１６２號之１","OBJECTID":583308},"geometry":{"x":171242.04000000004,"y":2545997.8000000026}},{"attributes":{"ID":583336,"DIS_CODE":0,"TOWNNAME":"永康區","LI":"東橋里","LIN":"16鄰","STREET":"東橋一路","SECT":" ","MAREA":" ","LANE":" ","ALLEY":" ","HOUSE_NO":"１５２號","E_COORD97":171522.85000000001,"N_COORD97":2546486.2200000002,"ADDRESS":"東橋一路１５２號","OBJECTID":583309},"geometry":{"x":171522.8499999987,"y":2546486.2200000025}},{"attributes":{"ID":583337,"DIS_CODE":0,"TOWNNAME":"永康區","LI":"東橋里","LIN":"16鄰","STREET":"東橋一路","SECT":" ","MAREA":" ","LANE":" ","ALLEY":" ","HOUSE_NO":"１５６號","E_COORD97":171517.13,"N_COORD97":2546493.8399999999,"ADDRESS":"東橋一路１５６號","OBJECTID":583310},"geometry":{"x":171517.12999999989,"y":2546493.8400000017}},{"attributes":{"ID":583338,"DIS_CODE":0,"TOWNNAME":"永康區","LI":"東橋里","LIN":"16鄰","STREET":"東橋一路","SECT":" ","MAREA":" ","LANE":" ","ALLEY":" ","HOUSE_NO":"１７８號","E_COORD97":171488.01000000001,"N_COORD97":2546534.9300000002,"ADDRESS":"東橋一路１７８號","OBJECTID":583311},"geometry":{"x":171488.00999999885,"y":2546534.9300000016}},{"attributes":{"ID":583339,"DIS_CODE":0,"TOWNNAME":"永康區","LI":"五王里","LIN":"22鄰","STREET":"成功路","SECT":" ","MAREA":" ","LANE":" ","ALLEY":" ","HOUSE_NO":"２２６號","E_COORD97":171356.19,"N_COORD97":2545767.7599999998,"ADDRESS":"成功路２２６號","OBJECTID":583312},"geometry":{"x":171356.19000000041,"y":2545767.7599999998}},{"attributes":{"ID":583340,"DIS_CODE":0,"TOWNNAME":"永康區","LI":"五王里","LIN":"20鄰","STREET":"成功路","SECT":" ","MAREA":" ","LANE":" ","ALLEY":" ","HOUSE_NO":"１８３號","E_COORD97":171303.53,"N_COORD97":2545814.52,"ADDRESS":"成功路１８３號","OBJECTID":583313},"geometry":{"x":171303.53000000026,"y":2545814.5200000014}},{"attributes":{"ID":583341,"DIS_CODE":0,"TOWNNAME":"永康區","LI":"中興里","LIN":"17鄰","STREET":"中華二路","SECT":" ","MAREA":" ","LANE":" ","ALLEY":" ","HOUSE_NO":"２９５號","E_COORD97":171521.22,"N_COORD97":2545418.6099999999,"ADDRESS":"中華二路２９５號","OBJECTID":583314},"geometry":{"x":171521.22000000067,"y":2545418.6099999994}},{"attributes":{"ID":583342,"DIS_CODE":0,"TOWNNAME":"永康區","LI":"大灣里","LIN":"1鄰","STREET":"中灣一街","SECT":" ","MAREA":" ","LANE":" ","ALLEY":" ","HOUSE_NO":"６號","E_COORD97":174771.06,"N_COORD97":2545629.8500000001,"ADDRESS":"中灣一街６號","OBJECTID":583315},"geometry":{"x":174771.05999999866,"y":2545629.8500000015}},{"attributes":{"ID":583343,"DIS_CODE":0,"TOWNNAME":"永康區","LI":"大橋里","LIN":"3鄰","STREET":"大橋三街","SECT":" ","MAREA":" ","LANE":" ","ALLEY":" ","HOUSE_NO":"１３４號","E_COORD97":170784.89999999999,"N_COORD97":2546708.9900000002,"ADDRESS":"大橋三街１３４號","OBJECTID":583316},"geometry":{"x":170784.9000000013,"y":2546708.9900000002}},{"attributes":{"ID":583344,"DIS_CODE":0,"TOWNNAME":"永康區","LI":"五王里","LIN":"36鄰","STREET":"中華路","SECT":" ","MAREA":" ","LANE":" ","ALLEY":" ","HOUSE_NO":"５９８號之４","E_COORD97":171220.56,"N_COORD97":2545956.54,"ADDRESS":"中華路５９８號之４","OBJECTID":583317},"geometry":{"x":171220.56000000052,"y":2545956.540000001}},{"attributes":{"ID":583345,"DIS_CODE":0,"TOWNNAME":"永康區","LI":"五王里","LIN":"18鄰","STREET":"成功路","SECT":" ","MAREA":" ","LANE":" ","ALLEY":" ","HOUSE_NO":"１９０號","E_COORD97":171416.57000000001,"N_COORD97":2545669.0099999998,"ADDRESS":"成功路１９０號","OBJECTID":583318},"geometry":{"x":171416.5700000003,"y":2545669.0100000016}},{"attributes":{"ID":583346,"DIS_CODE":0,"TOWNNAME":"永康區","LI":"大灣里","LIN":"13鄰","STREET":"中灣五街","SECT":" ","MAREA":" ","LANE":" ","ALLEY":" ","HOUSE_NO":"２１號","E_COORD97":175095.51999999999,"N_COORD97":2545243.8500000001,"ADDRESS":"中灣五街２１號","OBJECTID":583319},"geometry":{"x":175095.52000000048,"y":2545243.8499999996}},{"attributes":{"ID":583347,"DIS_CODE":0,"TOWNNAME":"永康區","LI":"五王里","LIN":"1鄰","STREET":"成功路","SECT":" ","MAREA":" ","LANE":" ","ALLEY":" ","HOUSE_NO":"６０號","E_COORD97":171542.10999999999,"N_COORD97":2545481.27,"ADDRESS":"成功路６０號","OBJECTID":583320},"geometry":{"x":171542.11000000034,"y":2545481.2700000014}},{"attributes":{"ID":583348,"DIS_CODE":0,"TOWNNAME":"永康區","LI":"五王里","LIN":"31鄰","STREET":"中華路","SECT":" ","MAREA":" ","LANE":" ","ALLEY":" ","HOUSE_NO":"５０８號","E_COORD97":171250.34,"N_COORD97":2545850.1600000001,"ADDRESS":"中華路５０８號","OBJECTID":583321},"geometry":{"x":171250.34000000171,"y":2545850.1600000001}},{"attributes":{"ID":583349,"DIS_CODE":0,"TOWNNAME":"永康區","LI":"大橋里","LIN":"3鄰","STREET":"大橋三街","SECT":" ","MAREA":" ","LANE":" ","ALLEY":" ","HOUSE_NO":"１００號","E_COORD97":170732.25,"N_COORD97":2546651,"ADDRESS":"大橋三街１００號","OBJECTID":583322},"geometry":{"x":170732.24999999907,"y":2546651}},{"attributes":{"ID":583350,"DIS_CODE":0,"TOWNNAME":"永康區","LI":"大灣里","LIN":"2鄰","STREET":"中灣一街","SECT":" ","MAREA":" ","LANE":" ","ALLEY":" ","HOUSE_NO":"２３號","E_COORD97":174775.48999999999,"N_COORD97":2545603.2200000002,"ADDRESS":"中灣一街２３號","OBJECTID":583323},"geometry":{"x":174775.49000000022,"y":2545603.2199999988}},{"attributes":{"ID":583351,"DIS_CODE":0,"TOWNNAME":"永康區","LI":"五王里","LIN":"36鄰","STREET":"中華路","SECT":" ","MAREA":" ","LANE":" ","ALLEY":" ","HOUSE_NO":"５９８號之８","E_COORD97":171227.04000000001,"N_COORD97":2545945.54,"ADDRESS":"中華路５９８號之８","OBJECTID":583324},"geometry":{"x":171227.03999999911,"y":2545945.5400000028}},{"attributes":{"ID":583352,"DIS_CODE":0,"TOWNNAME":"永康區","LI":"大灣里","LIN":"5鄰","STREET":"大同街","SECT":" ","MAREA":" ","LANE":" ","ALLEY":" ","HOUSE_NO":"１６３號","E_COORD97":174825.59,"N_COORD97":2545619.2000000002,"ADDRESS":"大同街１６３號","OBJECTID":583325},"geometry":{"x":174825.59000000171,"y":2545619.200000003}},{"attributes":{"ID":583353,"DIS_CODE":0,"TOWNNAME":"永康區","LI":"五王里","LIN":"35鄰","STREET":"中山南路","SECT":" ","MAREA":" ","LANE":" ","ALLEY":" ","HOUSE_NO":"１６２號之７","E_COORD97":171266.29000000001,"N_COORD97":2546005.5499999998,"ADDRESS":"中山南路１６２號之７","OBJECTID":583326},"geometry":{"x":171266.29000000097,"y":2546005.5500000026}},{"attributes":{"ID":583354,"DIS_CODE":0,"TOWNNAME":"永康區","LI":"五王里","LIN":"35鄰","STREET":"中山南路","SECT":" ","MAREA":" ","LANE":" ","ALLEY":" ","HOUSE_NO":"１５２號之４","E_COORD97":171199.20000000001,"N_COORD97":2545982.29,"ADDRESS":"中山南路１５２號之４","OBJECTID":583327},"geometry":{"x":171199.20000000205,"y":2545982.290000001}},{"attributes":{"ID":583355,"DIS_CODE":0,"TOWNNAME":"永康區","LI":"五王里","LIN":"30鄰","STREET":"中山東路","SECT":" ","MAREA":" ","LANE":" ","ALLEY":" ","HOUSE_NO":"５２號","E_COORD97":171696.39000000001,"N_COORD97":2546043.2000000002,"ADDRESS":"中山東路５２號","OBJECTID":583328},"geometry":{"x":171696.3900000006,"y":2546043.2000000011}},{"attributes":{"ID":583356,"DIS_CODE":0,"TOWNNAME":"永康區","LI":"大灣里","LIN":"16鄰","STREET":"大灣路","SECT":" ","MAREA":" ","LANE":" ","ALLEY":" ","HOUSE_NO":"３１４號","E_COORD97":174881.78,"N_COORD97":2545202.6499999999,"ADDRESS":"大灣路３１４號","OBJECTID":583329},"geometry":{"x":174881.78000000026,"y":2545202.6500000004}},{"attributes":{"ID":583357,"DIS_CODE":0,"TOWNNAME":"永康區","LI":"大灣里","LIN":"3鄰","STREET":"信義二街","SECT":" ","MAREA":" ","LANE":" ","ALLEY":" ","HOUSE_NO":"１１１號","E_COORD97":174863.04000000001,"N_COORD97":2545725.5899999999,"ADDRESS":"信義二街１１１號","OBJECTID":583330},"geometry":{"x":174863.04000000004,"y":2545725.5900000036}},{"attributes":{"ID":583358,"DIS_CODE":0,"TOWNNAME":"永康區","LI":"五王里","LIN":"24鄰","STREET":"成功路","SECT":" ","MAREA":" ","LANE":" ","ALLEY":" ","HOUSE_NO":"２５８號","E_COORD97":171309.10000000001,"N_COORD97":2545846.0099999998,"ADDRESS":"成功路２５８號","OBJECTID":583331},"geometry":{"x":171309.09999999963,"y":2545846.0100000016}},{"attributes":{"ID":583359,"DIS_CODE":0,"TOWNNAME":"永康區","LI":"中興里","LIN":"17鄰","STREET":"中華路","SECT":" ","MAREA":" ","LANE":" ","ALLEY":" ","HOUSE_NO":"２８０號之４４","E_COORD97":171625.67000000001,"N_COORD97":2545190.0499999998,"ADDRESS":"中華路２８０號之４４","OBJECTID":583332},"geometry":{"x":171625.66999999993,"y":2545190.0500000007}},{"attributes":{"ID":583360,"DIS_CODE":0,"TOWNNAME":"永康區","LI":"大橋里","LIN":"1鄰","STREET":"中華路","SECT":" ","MAREA":" ","LANE":" ","ALLEY":" ","HOUSE_NO":"９０６號","E_COORD97":170544.98000000001,"N_COORD97":2546667.7400000002,"ADDRESS":"中華路９０６號","OBJECTID":583333},"geometry":{"x":170544.98000000138,"y":2546667.7400000021}},{"attributes":{"ID":583361,"DIS_CODE":0,"TOWNNAME":"東區","LI":"東明里","LIN":"1鄰","STREET":"東寧路","SECT":" ","MAREA":" ","LANE":" ","ALLEY":" ","HOUSE_NO":"３３１號","E_COORD97":170837.54999999999,"N_COORD97":2543408.71,"ADDRESS":"東寧路３３１號","OBJECTID":583334},"geometry":{"x":170837.55000000075,"y":2543408.7100000009}},{"attributes":{"ID":583362,"DIS_CODE":0,"TOWNNAME":"永康區","LI":"五王里","LIN":"35鄰","STREET":"中山南路","SECT":" ","MAREA":" ","LANE":" ","ALLEY":" ","HOUSE_NO":"１５２號之７","E_COORD97":171211.51000000001,"N_COORD97":2545986.29,"ADDRESS":"中山南路１５２號之７","OBJECTID":583335},"geometry":{"x":171211.50999999978,"y":2545986.2899999991}},{"attributes":{"ID":583363,"DIS_CODE":0,"TOWNNAME":"永康區","LI":"東橋里","LIN":"16鄰","STREET":"東橋一路","SECT":" ","MAREA":" ","LANE":" ","ALLEY":" ","HOUSE_NO":"１８２號","E_COORD97":171480.85999999999,"N_COORD97":2546542.2200000002,"ADDRESS":"東橋一路１８２號","OBJECTID":583336},"geometry":{"x":171480.86000000034,"y":2546542.2200000007}},{"attributes":{"ID":583364,"DIS_CODE":0,"TOWNNAME":"永康區","LI":"東橋里","LIN":"16鄰","STREET":"東橋一路","SECT":" ","MAREA":" ","LANE":" ","ALLEY":" ","HOUSE_NO":"１８６號","E_COORD97":171478.47,"N_COORD97":2546545.5600000001,"ADDRESS":"東橋一路１８６號","OBJECTID":583337},"geometry":{"x":171478.47000000067,"y":2546545.5600000005}},{"attributes":{"ID":583365,"DIS_CODE":0,"TOWNNAME":"永康區","LI":"東橋里","LIN":"16鄰","STREET":"東橋一路","SECT":" ","MAREA":" ","LANE":" ","ALLEY":" ","HOUSE_NO":"１８８號","E_COORD97":171476.54000000001,"N_COORD97":2546549.21,"ADDRESS":"東橋一路１８８號","OBJECTID":583338},"geometry":{"x":171476.54000000097,"y":2546549.2100000009}},{"attributes":{"ID":583366,"DIS_CODE":0,"TOWNNAME":"永康區","LI":"東橋里","LIN":"16鄰","STREET":"東橋一路","SECT":" ","MAREA":" ","LANE":" ","ALLEY":" ","HOUSE_NO":"１９０號","E_COORD97":171474.17000000001,"N_COORD97":2546552.5299999998,"ADDRESS":"東橋一路１９０號","OBJECTID":583339},"geometry":{"x":171474.17000000086,"y":2546552.5300000031}},{"attributes":{"ID":583367,"DIS_CODE":0,"TOWNNAME":"永康區","LI":"東橋里","LIN":"16鄰","STREET":"東橋一路","SECT":" ","MAREA":" ","LANE":" ","ALLEY":" ","HOUSE_NO":"１９２號","E_COORD97":171471.29000000001,"N_COORD97":2546555.73,"ADDRESS":"東橋一路１９２號","OBJECTID":583340},"geometry":{"x":171471.2900000019,"y":2546555.7300000042}},{"attributes":{"ID":583368,"DIS_CODE":0,"TOWNNAME":"永康區","LI":"東橋里","LIN":"16鄰","STREET":"東橋一路","SECT":" ","MAREA":" ","LANE":" ","ALLEY":" ","HOUSE_NO":"１９６號","E_COORD97":171469.82000000001,"N_COORD97":2546559.1400000001,"ADDRESS":"東橋一路１９６號","OBJECTID":583341},"geometry":{"x":171469.82000000123,"y":2546559.1400000006}},{"attributes":{"ID":583369,"DIS_CODE":0,"TOWNNAME":"永康區","LI":"大灣里","LIN":"3鄰","STREET":"信義二街","SECT":" ","MAREA":" ","LANE":" ","ALLEY":" ","HOUSE_NO":"１２９號","E_COORD97":174822.20000000001,"N_COORD97":2545718.3599999999,"ADDRESS":"信義二街１２９號","OBJECTID":583342},"geometry":{"x":174822.20000000112,"y":2545718.3599999994}},{"attributes":{"ID":583370,"DIS_CODE":0,"TOWNNAME":"永康區","LI":"東橋里","LIN":"16鄰","STREET":"東橋一路","SECT":" ","MAREA":" ","LANE":" ","ALLEY":" ","HOUSE_NO":"１９８號","E_COORD97":171467.78,"N_COORD97":2546562.6800000002,"ADDRESS":"東橋一路１９８號","OBJECTID":583343},"geometry":{"x":171467.78000000026,"y":2546562.6800000016}},{"attributes":{"ID":583371,"DIS_CODE":0,"TOWNNAME":"永康區","LI":"東橋里","LIN":"16鄰","STREET":"東橋一路","SECT":" ","MAREA":" ","LANE":" ","ALLEY":" ","HOUSE_NO":"２００號","E_COORD97":171465.29999999999,"N_COORD97":2546565.7799999998,"ADDRESS":"東橋一路２００號","OBJECTID":583344},"geometry":{"x":171465.29999999981,"y":2546565.7800000012}},{"attributes":{"ID":583372,"DIS_CODE":0,"TOWNNAME":"東區","LI":"泉南里","LIN":"12鄰","STREET":"光華街","SECT":" ","MAREA":" ","LANE":" ","ALLEY":" ","HOUSE_NO":"２２７號之２","E_COORD97":169497.89000000001,"N_COORD97":2543035.6699999999,"ADDRESS":"光華街２２７號之２","OBJECTID":583345},"geometry":{"x":169497.88999999966,"y":2543035.6699999999}},{"attributes":{"ID":583373,"DIS_CODE":0,"TOWNNAME":"永康區","LI":"東橋里","LIN":"16鄰","STREET":"東橋一路","SECT":" ","MAREA":" ","LANE":" ","ALLEY":" ","HOUSE_NO":"２０２號","E_COORD97":171462.25,"N_COORD97":2546568.8599999999,"ADDRESS":"東橋一路２０２號","OBJECTID":583346},"geometry":{"x":171462.25,"y":2546568.8600000013}},{"attributes":{"ID":583374,"DIS_CODE":0,"TOWNNAME":"中西區","LI":"西賢里","LIN":"16鄰","STREET":"西賢一街","SECT":" ","MAREA":" ","LANE":" ","ALLEY":" ","HOUSE_NO":"２９號","E_COORD97":165686.45000000001,"N_COORD97":2544499.04,"ADDRESS":"西賢一街２９號","OBJECTID":583347},"geometry":{"x":165686.45000000112,"y":2544499.040000001}},{"attributes":{"ID":583375,"DIS_CODE":0,"TOWNNAME":"中西區","LI":"西賢里","LIN":"16鄰","STREET":"西賢一街","SECT":" ","MAREA":" ","LANE":" ","ALLEY":" ","HOUSE_NO":"３１號","E_COORD97":165687.06,"N_COORD97":2544502.9100000001,"ADDRESS":"西賢一街３１號","OBJECTID":583348},"geometry":{"x":165687.06000000052,"y":2544502.9099999983}},{"attributes":{"ID":583376,"DIS_CODE":0,"TOWNNAME":"中西區","LI":"西賢里","LIN":"16鄰","STREET":"西賢一街","SECT":" ","MAREA":" ","LANE":" ","ALLEY":" ","HOUSE_NO":"３３號","E_COORD97":165688.89000000001,"N_COORD97":2544507.6000000001,"ADDRESS":"西賢一街３３號","OBJECTID":583349},"geometry":{"x":165688.88999999966,"y":2544507.5999999996}},{"attributes":{"ID":583377,"DIS_CODE":0,"TOWNNAME":"中西區","LI":"西賢里","LIN":"16鄰","STREET":"西賢一街","SECT":" ","MAREA":" ","LANE":" ","ALLEY":" ","HOUSE_NO":"３５號","E_COORD97":165690.32000000001,"N_COORD97":2544511.6800000002,"ADDRESS":"西賢一街３５號","OBJECTID":583350},"geometry":{"x":165690.3200000003,"y":2544511.6800000016}},{"attributes":{"ID":583378,"DIS_CODE":0,"TOWNNAME":"中西區","LI":"西賢里","LIN":"16鄰","STREET":"西賢一街","SECT":" ","MAREA":" ","LANE":" ","ALLEY":" ","HOUSE_NO":"３７號","E_COORD97":165688.48999999999,"N_COORD97":2544515.3500000001,"ADDRESS":"西賢一街３７號","OBJECTID":583351},"geometry":{"x":165688.49000000115,"y":2544515.3499999996}},{"attributes":{"ID":583379,"DIS_CODE":0,"TOWNNAME":"中西區","LI":"西賢里","LIN":"16鄰","STREET":"西賢一街","SECT":" ","MAREA":" ","LANE":" ","ALLEY":" ","HOUSE_NO":"３９號","E_COORD97":165689.10000000001,"N_COORD97":2544519.6299999999,"ADDRESS":"西賢一街３９號","OBJECTID":583352},"geometry":{"x":165689.09999999963,"y":2544519.629999999}},{"attributes":{"ID":583380,"DIS_CODE":0,"TOWNNAME":"中西區","LI":"西賢里","LIN":"16鄰","STREET":"西賢一街","SECT":" ","MAREA":" ","LANE":" ","ALLEY":" ","HOUSE_NO":"４１號","E_COORD97":165687.87,"N_COORD97":2544523.71,"ADDRESS":"西賢一街４１號","OBJECTID":583353},"geometry":{"x":165687.87000000011,"y":2544523.7100000028}},{"attributes":{"ID":583381,"DIS_CODE":0,"TOWNNAME":"中西區","LI":"西賢里","LIN":"16鄰","STREET":"西賢一街","SECT":" ","MAREA":" ","LANE":" ","ALLEY":" ","HOUSE_NO":"４３號","E_COORD97":165688.69,"N_COORD97":2544527.9900000002,"ADDRESS":"西賢一街４３號","OBJECTID":583354},"geometry":{"x":165688.69000000134,"y":2544527.9900000021}},{"attributes":{"ID":583382,"DIS_CODE":0,"TOWNNAME":"中西區","LI":"西賢里","LIN":"16鄰","STREET":"西賢一街","SECT":" ","MAREA":" ","LANE":" ","ALLEY":" ","HOUSE_NO":"４５號","E_COORD97":165688.28,"N_COORD97":2544532.4700000002,"ADDRESS":"西賢一街４５號","OBJECTID":583355},"geometry":{"x":165688.28000000119,"y":2544532.4700000007}},{"attributes":{"ID":583383,"DIS_CODE":0,"TOWNNAME":"中西區","LI":"西賢里","LIN":"16鄰","STREET":"西賢一街","SECT":" ","MAREA":" ","LANE":" ","ALLEY":" ","HOUSE_NO":"４７號","E_COORD97":165687.26000000001,"N_COORD97":2544536.1400000001,"ADDRESS":"西賢一街４７號","OBJECTID":583356},"geometry":{"x":165687.26000000164,"y":2544536.1400000043}},{"attributes":{"ID":583384,"DIS_CODE":0,"TOWNNAME":"中西區","LI":"西賢里","LIN":"16鄰","STREET":"西賢一街","SECT":" ","MAREA":" ","LANE":" ","ALLEY":" ","HOUSE_NO":"４９號","E_COORD97":165686.64999999999,"N_COORD97":2544545.6000000001,"ADDRESS":"西賢一街４９號","OBJECTID":583357},"geometry":{"x":165686.65000000037,"y":2544545.6000000015}},{"attributes":{"ID":583385,"DIS_CODE":0,"TOWNNAME":"中西區","LI":"西賢里","LIN":"16鄰","STREET":"西賢二街","SECT":" ","MAREA":" ","LANE":" ","ALLEY":" ","HOUSE_NO":"３８號","E_COORD97":165599.89999999999,"N_COORD97":2544539.71,"ADDRESS":"西賢二街３８號","OBJECTID":583358},"geometry":{"x":165599.90000000037,"y":2544539.7100000028}},{"attributes":{"ID":583386,"DIS_CODE":0,"TOWNNAME":"東區","LI":"東光里","LIN":"16鄰","STREET":"莊敬路","SECT":" ","MAREA":" ","LANE":" ","ALLEY":" ","HOUSE_NO":"３０號","E_COORD97":171358.89000000001,"N_COORD97":2543805.3599999999,"ADDRESS":"莊敬路３０號","OBJECTID":583359},"geometry":{"x":171358.8900000006,"y":2543805.3600000013}},{"attributes":{"ID":583387,"DIS_CODE":0,"TOWNNAME":"東區","LI":"泉南里","LIN":"12鄰","STREET":"光華街","SECT":" ","MAREA":" ","LANE":" ","ALLEY":" ","HOUSE_NO":"２２７號之１","E_COORD97":169511,"N_COORD97":2543033.6699999999,"ADDRESS":"光華街２２７號之１","OBJECTID":583360},"geometry":{"x":169511,"y":2543033.6700000018}},{"attributes":{"ID":583388,"DIS_CODE":0,"TOWNNAME":"東區","LI":"泉南里","LIN":"12鄰","STREET":"光華街","SECT":" ","MAREA":" ","LANE":" ","ALLEY":" ","HOUSE_NO":"２２７號","E_COORD97":169504.06,"N_COORD97":2543035.21,"ADDRESS":"光華街２２７號","OBJECTID":583361},"geometry":{"x":169504.05999999959,"y":2543035.2100000028}},{"attributes":{"ID":583389,"DIS_CODE":0,"TOWNNAME":"東區","LI":"泉南里","LIN":"12鄰","STREET":"光華街","SECT":" ","MAREA":" ","LANE":" ","ALLEY":" ","HOUSE_NO":"２２７號之３","E_COORD97":169494.04000000001,"N_COORD97":2543028.2799999998,"ADDRESS":"光華街２２７號之３","OBJECTID":583362},"geometry":{"x":169494.04000000004,"y":2543028.2800000031}},{"attributes":{"ID":583390,"DIS_CODE":0,"TOWNNAME":"善化區","LI":"文昌里","LIN":"16鄰","STREET":"大同路","SECT":" ","MAREA":" ","LANE":" ","ALLEY":" ","HOUSE_NO":"６６號","E_COORD97":177598.91,"N_COORD97":2558534.3999999999,"ADDRESS":"大同路６６號","OBJECTID":583363},"geometry":{"x":177598.91000000108,"y":2558534.4000000022}},{"attributes":{"ID":583391,"DIS_CODE":0,"TOWNNAME":"東區","LI":"德高里","LIN":"16鄰","STREET":"城東街","SECT":" ","MAREA":" ","LANE":" ","ALLEY":" ","HOUSE_NO":"１４號","E_COORD97":171527.57999999999,"N_COORD97":2540651.7200000002,"ADDRESS":"城東街１４號","OBJECTID":583364},"geometry":{"x":171527.58000000101,"y":2540651.7200000025}},{"attributes":{"ID":583392,"DIS_CODE":0,"TOWNNAME":"東區","LI":"東明里","LIN":"1鄰","STREET":"東興路","SECT":" ","MAREA":" ","LANE":" ","ALLEY":" ","HOUSE_NO":"１５號","E_COORD97":170905.73999999999,"N_COORD97":2543435.7200000002,"ADDRESS":"東興路１５號","OBJECTID":583365},"geometry":{"x":170905.74000000115,"y":2543435.7200000007}},{"attributes":{"ID":583393,"DIS_CODE":0,"TOWNNAME":"東區","LI":"東明里","LIN":"1鄰","STREET":"東興路","SECT":" ","MAREA":" ","LANE":" ","ALLEY":" ","HOUSE_NO":"１７號","E_COORD97":170906.70000000001,"N_COORD97":2543439.1400000001,"ADDRESS":"東興路１７號","OBJECTID":583366},"geometry":{"x":170906.70000000019,"y":2543439.1400000006}},{"attributes":{"ID":583394,"DIS_CODE":0,"TOWNNAME":"東區","LI":"忠孝里","LIN":"31鄰","STREET":"中華東路","SECT":"三段","MAREA":" ","LANE":" ","ALLEY":" ","HOUSE_NO":"４５０號","E_COORD97":169937.60999999999,"N_COORD97":2541564.5899999999,"ADDRESS":"中華東路三段４５０號","OBJECTID":583367},"geometry":{"x":169937.61000000127,"y":2541564.5899999999}},{"attributes":{"ID":583395,"DIS_CODE":0,"TOWNNAME":"東區","LI":"忠孝里","LIN":"10鄰","STREET":"崇明路","SECT":" ","MAREA":" ","LANE":" ","ALLEY":" ","HOUSE_NO":"３４４號","E_COORD97":170080.66,"N_COORD97":2541932.8199999998,"ADDRESS":"崇明路３４４號","OBJECTID":583368},"geometry":{"x":170080.66000000108,"y":2541932.8200000003}},{"attributes":{"ID":583396,"DIS_CODE":0,"TOWNNAME":"東區","LI":"圍下里","LIN":"16鄰","STREET":"新樓街","SECT":" ","MAREA":" ","LANE":" ","ALLEY":" ","HOUSE_NO":"７５號","E_COORD97":169631.39999999999,"N_COORD97":2543349.3900000001,"ADDRESS":"新樓街７５號","OBJECTID":583369},"geometry":{"x":169631.40000000037,"y":2543349.3900000006}},{"attributes":{"ID":583397,"DIS_CODE":0,"TOWNNAME":"東區","LI":"圍下里","LIN":"16鄰","STREET":"新樓街","SECT":" ","MAREA":" ","LANE":" ","ALLEY":" ","HOUSE_NO":"７７號","E_COORD97":169635.85999999999,"N_COORD97":2543349.2599999998,"ADDRESS":"新樓街７７號","OBJECTID":583370},"geometry":{"x":169635.86000000127,"y":2543349.2599999998}},{"attributes":{"ID":583398,"DIS_CODE":0,"TOWNNAME":"東區","LI":"圍下里","LIN":"16鄰","STREET":"新樓街","SECT":" ","MAREA":" ","LANE":" ","ALLEY":" ","HOUSE_NO":"７９號","E_COORD97":169639.28,"N_COORD97":2543349.1299999999,"ADDRESS":"新樓街７９號","OBJECTID":583371},"geometry":{"x":169639.28000000119,"y":2543349.1300000008}},{"attributes":{"ID":583399,"DIS_CODE":0,"TOWNNAME":"東區","LI":"圍下里","LIN":"16鄰","STREET":"新樓街","SECT":" ","MAREA":" ","LANE":" ","ALLEY":" ","HOUSE_NO":"８１號","E_COORD97":169643.35999999999,"N_COORD97":2543349.2599999998,"ADDRESS":"新樓街８１號","OBJECTID":583372},"geometry":{"x":169643.36000000034,"y":2543349.2599999998}},{"attributes":{"ID":583400,"DIS_CODE":0,"TOWNNAME":"東區","LI":"圍下里","LIN":"16鄰","STREET":"新樓街","SECT":" ","MAREA":" ","LANE":" ","ALLEY":" ","HOUSE_NO":"７３號","E_COORD97":169627.38,"N_COORD97":2543349.3999999999,"ADDRESS":"新樓街７３號","OBJECTID":583373},"geometry":{"x":169627.37999999989,"y":2543349.4000000004}},{"attributes":{"ID":583401,"DIS_CODE":0,"TOWNNAME":"東區","LI":"圍下里","LIN":"16鄰","STREET":"新樓街","SECT":" ","MAREA":" ","LANE":" ","ALLEY":" ","HOUSE_NO":"５１號","E_COORD97":169573.62,"N_COORD97":2543351.6200000001,"ADDRESS":"新樓街５１號","OBJECTID":583374},"geometry":{"x":169573.62000000011,"y":2543351.620000001}},{"attributes":{"ID":583402,"DIS_CODE":0,"TOWNNAME":"東區","LI":"圍下里","LIN":"16鄰","STREET":"新樓街","SECT":" ","MAREA":" ","LANE":" ","ALLEY":" ","HOUSE_NO":"５９號","E_COORD97":169591.54000000001,"N_COORD97":2543350.8300000001,"ADDRESS":"新樓街５９號","OBJECTID":583375},"geometry":{"x":169591.54000000097,"y":2543350.8300000038}},{"attributes":{"ID":583403,"DIS_CODE":0,"TOWNNAME":"東區","LI":"大學里","LIN":"16鄰","STREET":"長榮路","SECT":"三段","MAREA":" ","LANE":" ","ALLEY":" ","HOUSE_NO":"１２號","E_COORD97":170211.07999999999,"N_COORD97":2543662.2599999998,"ADDRESS":"長榮路三段１２號","OBJECTID":583376},"geometry":{"x":170211.08000000007,"y":2543662.2599999998}},{"attributes":{"ID":583404,"DIS_CODE":0,"TOWNNAME":"中西區","LI":"水仙里","LIN":"16鄰","STREET":"西門路","SECT":"二段","MAREA":" ","LANE":" ","ALLEY":" ","HOUSE_NO":"３２３號","E_COORD97":167945.56,"N_COORD97":2544197.4100000001,"ADDRESS":"西門路二段３２３號","OBJECTID":583377},"geometry":{"x":167945.55999999959,"y":2544197.4100000001}},{"attributes":{"ID":583405,"DIS_CODE":0,"TOWNNAME":"中西區","LI":"水仙里","LIN":"16鄰","STREET":"西門路","SECT":"二段","MAREA":" ","LANE":" ","ALLEY":" ","HOUSE_NO":"３２５號","E_COORD97":167942.78,"N_COORD97":2544201.3100000001,"ADDRESS":"西門路二段３２５號","OBJECTID":583378},"geometry":{"x":167942.78000000119,"y":2544201.3100000005}},{"attributes":{"ID":583406,"DIS_CODE":0,"TOWNNAME":"中西區","LI":"水仙里","LIN":"16鄰","STREET":"西門路","SECT":"二段","MAREA":" ","LANE":" ","ALLEY":" ","HOUSE_NO":"３２７號","E_COORD97":167940.51999999999,"N_COORD97":2544208.1400000001,"ADDRESS":"西門路二段３２７號","OBJECTID":583379},"geometry":{"x":167940.52000000048,"y":2544208.1400000025}},{"attributes":{"ID":583407,"DIS_CODE":0,"TOWNNAME":"中西區","LI":"水仙里","LIN":"16鄰","STREET":"西門路","SECT":"二段","MAREA":" ","LANE":" ","ALLEY":" ","HOUSE_NO":"３２９號","E_COORD97":167937.73000000001,"N_COORD97":2544212.4500000002,"ADDRESS":"西門路二段３２９號","OBJECTID":583380},"geometry":{"x":167937.73000000231,"y":2544212.4499999993}},{"attributes":{"ID":583408,"DIS_CODE":0,"TOWNNAME":"中西區","LI":"水仙里","LIN":"16鄰","STREET":"西門路","SECT":"二段","MAREA":" ","LANE":" ","ALLEY":" ","HOUSE_NO":"３３１號","E_COORD97":167934.95000000001,"N_COORD97":2544215.79,"ADDRESS":"西門路二段３３１號","OBJECTID":583381},"geometry":{"x":167934.95000000112,"y":2544215.790000001}},{"attributes":{"ID":583409,"DIS_CODE":0,"TOWNNAME":"東區","LI":"東明里","LIN":"26鄰","STREET":"怡東路","SECT":" ","MAREA":" ","LANE":" ","ALLEY":" ","HOUSE_NO":"１３號","E_COORD97":170799.92000000001,"N_COORD97":2543476.3300000001,"ADDRESS":"怡東路１３號","OBJECTID":583382},"geometry":{"x":170799.91999999993,"y":2543476.3300000038}},{"attributes":{"ID":583410,"DIS_CODE":0,"TOWNNAME":"安南區","LI":"淵東里","LIN":"16鄰","STREET":"功安一街","SECT":" ","MAREA":" ","LANE":" ","ALLEY":" ","HOUSE_NO":"１６９號","E_COORD97":165685.23999999999,"N_COORD97":2550073.9100000001,"ADDRESS":"功安一街１６９號","OBJECTID":583383},"geometry":{"x":165685.24000000022,"y":2550073.910000002}},{"attributes":{"ID":583411,"DIS_CODE":0,"TOWNNAME":"安南區","LI":"淵東里","LIN":"16鄰","STREET":"功安一街","SECT":" ","MAREA":" ","LANE":" ","ALLEY":" ","HOUSE_NO":"１７１號","E_COORD97":165681.20000000001,"N_COORD97":2550072.8500000001,"ADDRESS":"功安一街１７１號","OBJECTID":583384},"geometry":{"x":165681.20000000205,"y":2550072.8499999996}},{"attributes":{"ID":583412,"DIS_CODE":0,"TOWNNAME":"安南區","LI":"淵東里","LIN":"16鄰","STREET":"功安一街","SECT":" ","MAREA":" ","LANE":" ","ALLEY":" ","HOUSE_NO":"１７３號","E_COORD97":165676.10000000001,"N_COORD97":2550072,"ADDRESS":"功安一街１７３號","OBJECTID":583385},"geometry":{"x":165676.0999999987,"y":2550072}},{"attributes":{"ID":583413,"DIS_CODE":0,"TOWNNAME":"善化區","LI":"文昌里","LIN":"16鄰","STREET":"大同路","SECT":" ","MAREA":" ","LANE":" ","ALLEY":" ","HOUSE_NO":"６８號","E_COORD97":177595.17999999999,"N_COORD97":2558536.0299999998,"ADDRESS":"大同路６８號","OBJECTID":583386},"geometry":{"x":177595.18000000063,"y":2558536.0299999993}},{"attributes":{"ID":583414,"DIS_CODE":0,"TOWNNAME":"東區","LI":"東明里","LIN":"26鄰","STREET":"怡東路","SECT":" ","MAREA":" ","LANE":" ","ALLEY":" ","HOUSE_NO":"１５號","E_COORD97":170800.48000000001,"N_COORD97":2543486.6400000001,"ADDRESS":"怡東路１５號","OBJECTID":583387},"geometry":{"x":170800.48000000045,"y":2543486.6400000006}},{"attributes":{"ID":583415,"DIS_CODE":0,"TOWNNAME":"中西區","LI":"公正里","LIN":"16鄰","STREET":"西華南街","SECT":" ","MAREA":" ","LANE":" ","ALLEY":" ","HOUSE_NO":"３３號","E_COORD97":168941.59,"N_COORD97":2543809.98,"ADDRESS":"西華南街３３號","OBJECTID":583388},"geometry":{"x":168941.59000000171,"y":2543809.9800000004}},{"attributes":{"ID":583416,"DIS_CODE":0,"TOWNNAME":"中西區","LI":"萬昌里","LIN":"16鄰","STREET":"民權路","SECT":"一段","MAREA":" ","LANE":" ","ALLEY":" ","HOUSE_NO":"１１８號","E_COORD97":168912.60000000001,"N_COORD97":2543473.5800000001,"ADDRESS":"民權路一段１１８號","OBJECTID":583389},"geometry":{"x":168912.60000000056,"y":2543473.5800000001}},{"attributes":{"ID":583417,"DIS_CODE":0,"TOWNNAME":"中西區","LI":"萬昌里","LIN":"16鄰","STREET":"民權路","SECT":"一段","MAREA":" ","LANE":" ","ALLEY":" ","HOUSE_NO":"１２０號","E_COORD97":168906.10000000001,"N_COORD97":2543477.6499999999,"ADDRESS":"民權路一段１２０號","OBJECTID":583390},"geometry":{"x":168906.10000000056,"y":2543477.6500000041}},{"attributes":{"ID":583418,"DIS_CODE":0,"TOWNNAME":"中西區","LI":"萬昌里","LIN":"16鄰","STREET":"民權路","SECT":"一段","MAREA":" ","LANE":" ","ALLEY":" ","HOUSE_NO":"１２２號","E_COORD97":168903.19,"N_COORD97":2543480.1400000001,"ADDRESS":"民權路一段１２２號","OBJECTID":583391},"geometry":{"x":168903.19000000134,"y":2543480.1400000006}},{"attributes":{"ID":583419,"DIS_CODE":0,"TOWNNAME":"中西區","LI":"萬昌里","LIN":"16鄰","STREET":"民權路","SECT":"一段","MAREA":" ","LANE":" ","ALLEY":" ","HOUSE_NO":"１２４號","E_COORD97":168899.79999999999,"N_COORD97":2543484.0800000001,"ADDRESS":"民權路一段１２４號","OBJECTID":583392},"geometry":{"x":168899.80000000075,"y":2543484.0800000001}},{"attributes":{"ID":583420,"DIS_CODE":0,"TOWNNAME":"中西區","LI":"萬昌里","LIN":"16鄰","STREET":"民權路","SECT":"一段","MAREA":" ","LANE":" ","ALLEY":" ","HOUSE_NO":"１２６號","E_COORD97":168896.41,"N_COORD97":2543485.54,"ADDRESS":"民權路一段１２６號","OBJECTID":583393},"geometry":{"x":168896.41000000015,"y":2543485.540000001}},{"attributes":{"ID":583421,"DIS_CODE":0,"TOWNNAME":"中西區","LI":"萬昌里","LIN":"16鄰","STREET":"民權路","SECT":"一段","MAREA":" ","LANE":" ","ALLEY":" ","HOUSE_NO":"１２８號","E_COORD97":168894.51999999999,"N_COORD97":2543495.0099999998,"ADDRESS":"民權路一段１２８號","OBJECTID":583394},"geometry":{"x":168894.52000000048,"y":2543495.0100000035}},{"attributes":{"ID":583422,"DIS_CODE":0,"TOWNNAME":"中西區","LI":"萬昌里","LIN":"16鄰","STREET":"民權路","SECT":"一段","MAREA":" ","LANE":" ","ALLEY":" ","HOUSE_NO":"１３０號","E_COORD97":168880.85000000001,"N_COORD97":2543499.1200000001,"ADDRESS":"民權路一段１３０號","OBJECTID":583395},"geometry":{"x":168880.85000000056,"y":2543499.1200000048}},{"attributes":{"ID":583423,"DIS_CODE":0,"TOWNNAME":"中西區","LI":"萬昌里","LIN":"16鄰","STREET":"民權路","SECT":"一段","MAREA":" ","LANE":" ","ALLEY":" ","HOUSE_NO":"１３８號","E_COORD97":168879.09,"N_COORD97":2543500.6200000001,"ADDRESS":"民權路一段１３８號","OBJECTID":583396},"geometry":{"x":168879.09000000078,"y":2543500.6200000029}},{"attributes":{"ID":583424,"DIS_CODE":0,"TOWNNAME":"中西區","LI":"萬昌里","LIN":"16鄰","STREET":"民權路","SECT":"一段","MAREA":" ","LANE":" ","ALLEY":" ","HOUSE_NO":"１４０號","E_COORD97":168877.25,"N_COORD97":2543502.6200000001,"ADDRESS":"民權路一段１４０號","OBJECTID":583397},"geometry":{"x":168877.25,"y":2543502.6200000048}},{"attributes":{"ID":583425,"DIS_CODE":0,"TOWNNAME":"中西區","LI":"萬昌里","LIN":"16鄰","STREET":"民權路","SECT":"一段","MAREA":" ","LANE":" ","ALLEY":" ","HOUSE_NO":"１４２號","E_COORD97":168874.57000000001,"N_COORD97":2543505.6200000001,"ADDRESS":"民權路一段１４２號","OBJECTID":583398},"geometry":{"x":168874.57000000123,"y":2543505.6199999992}},{"attributes":{"ID":583426,"DIS_CODE":0,"TOWNNAME":"中西區","LI":"萬昌里","LIN":"16鄰","STREET":"城隍街","SECT":" ","MAREA":" ","LANE":" ","ALLEY":" ","HOUSE_NO":"９６號","E_COORD97":168899.75,"N_COORD97":2543514.1200000001,"ADDRESS":"城隍街９６號","OBJECTID":583399},"geometry":{"x":168899.74999999907,"y":2543514.1200000029}},{"attributes":{"ID":583427,"DIS_CODE":0,"TOWNNAME":"中西區","LI":"萬昌里","LIN":"16鄰","STREET":"城隍街","SECT":" ","MAREA":" ","LANE":" ","ALLEY":" ","HOUSE_NO":"９８號","E_COORD97":168899.88,"N_COORD97":2543519.0800000001,"ADDRESS":"城隍街９８號","OBJECTID":583400},"geometry":{"x":168899.87999999989,"y":2543519.0800000019}}]}