{"displayFieldName":"TOWNNAME","fieldAliases":{"ID":"ID","DIS_CODE":"DIS_CODE","TOWNNAME":"TOWNNAME","LI":"LI","LIN":"LIN","STREET":"STREET","SECT":"SECT","MAREA":"MAREA","LANE":"LANE","ALLEY":"ALLEY","HOUSE_NO":"HOUSE_NO","E_COORD97":"E_COORD97","N_COORD97":"N_COORD97","ADDRESS":"ADDRESS","OBJECTID":"OBJECTID"},"geometryType":"esriGeometryPoint","spatialReference":{"wkid":102443,"latestWkid":3826},"fields":[{"name":"ID","type":"esriFieldTypeDouble","alias":"ID"},{"name":"DIS_CODE","type":"esriFieldTypeInteger","alias":"DIS_CODE"},{"name":"TOWNNAME","type":"esriFieldTypeString","alias":"TOWNNAME","length":8},{"name":"LI","type":"esriFieldTypeString","alias":"LI","length":8},{"name":"LIN","type":"esriFieldTypeString","alias":"LIN","length":12},{"name":"STREET","type":"esriFieldTypeString","alias":"STREET","length":20},{"name":"SECT","type":"esriFieldTypeString","alias":"SECT","length":8},{"name":"MAREA","type":"esriFieldTypeString","alias":"MAREA","length":12},{"name":"LANE","type":"esriFieldTypeString","alias":"LANE","length":10},{"name":"ALLEY","type":"esriFieldTypeString","alias":"ALLEY","length":10},{"name":"HOUSE_NO","type":"esriFieldTypeString","alias":"HOUSE_NO","length":20},{"name":"E_COORD97","type":"esriFieldTypeDouble","alias":"E_COORD97"},{"name":"N_COORD97","type":"esriFieldTypeDouble","alias":"N_COORD97"},{"name":"ADDRESS","type":"esriFieldTypeString","alias":"ADDRESS","length":50},{"name":"OBJECTID","type":"esriFieldTypeOID","alias":"OBJECTID"}],"features":[{"attributes":{"ID":361811,"DIS_CODE":0,"TOWNNAME":"永康區","LI":"\u25A0洲里","LIN":"32鄰","STREET":"\u25A0行路","SECT":" ","MAREA":" ","LANE":"３３０巷","ALLEY":" ","HOUSE_NO":"６號","E_COORD97":170998.38,"N_COORD97":2548970.5800000001,"ADDRESS":"\u25A0行路３３０巷６號","OBJECTID":361801},"geometry":{"x":170998.37999999989,"y":2548970.5800000038}},{"attributes":{"ID":361812,"DIS_CODE":0,"TOWNNAME":"永康區","LI":"\u25A0洲里","LIN":"32鄰","STREET":"洲尾街","SECT":" ","MAREA":" ","LANE":"７４巷","ALLEY":" ","HOUSE_NO":"８號","E_COORD97":170959.76999999999,"N_COORD97":2548964.5099999998,"ADDRESS":"洲尾街７４巷８號","OBJECTID":361802},"geometry":{"x":170959.76999999955,"y":2548964.5100000016}},{"attributes":{"ID":361813,"DIS_CODE":0,"TOWNNAME":"安南區","LI":"\u25A0南里","LIN":"32鄰","STREET":"安昌街","SECT":" ","MAREA":" ","LANE":"１７４巷","ALLEY":" ","HOUSE_NO":"６３號","E_COORD97":170120.47,"N_COORD97":2552276.4300000002,"ADDRESS":"安昌街１７４巷６３號","OBJECTID":361803},"geometry":{"x":170120.47000000067,"y":2552276.4299999978}},{"attributes":{"ID":361814,"DIS_CODE":0,"TOWNNAME":"安南區","LI":"\u25A0南里","LIN":"32鄰","STREET":"安昌街","SECT":" ","MAREA":" ","LANE":"１７４巷","ALLEY":" ","HOUSE_NO":"６５號","E_COORD97":170120.47,"N_COORD97":2552272.1699999999,"ADDRESS":"安昌街１７４巷６５號","OBJECTID":361804},"geometry":{"x":170120.47000000067,"y":2552272.1700000018}},{"attributes":{"ID":361815,"DIS_CODE":0,"TOWNNAME":"安南區","LI":"\u25A0南里","LIN":"32鄰","STREET":"安昌街","SECT":" ","MAREA":" ","LANE":"１７４巷","ALLEY":" ","HOUSE_NO":"６７號","E_COORD97":170120.07999999999,"N_COORD97":2552268.1699999999,"ADDRESS":"安昌街１７４巷６７號","OBJECTID":361805},"geometry":{"x":170120.08000000101,"y":2552268.1699999981}},{"attributes":{"ID":361816,"DIS_CODE":0,"TOWNNAME":"安南區","LI":"\u25A0南里","LIN":"32鄰","STREET":"安昌街","SECT":" ","MAREA":" ","LANE":"１７４巷","ALLEY":" ","HOUSE_NO":"６９號","E_COORD97":170120.85999999999,"N_COORD97":2552264.1600000001,"ADDRESS":"安昌街１７４巷６９號","OBJECTID":361806},"geometry":{"x":170120.86000000034,"y":2552264.1600000001}},{"attributes":{"ID":361817,"DIS_CODE":0,"TOWNNAME":"安南區","LI":"\u25A0南里","LIN":"32鄰","STREET":"安昌街","SECT":" ","MAREA":" ","LANE":"１７４巷","ALLEY":" ","HOUSE_NO":"７１號","E_COORD97":170120.85999999999,"N_COORD97":2552259.6499999999,"ADDRESS":"安昌街１７４巷７１號","OBJECTID":361807},"geometry":{"x":170120.86000000034,"y":2552259.6500000022}},{"attributes":{"ID":361818,"DIS_CODE":0,"TOWNNAME":"安南區","LI":"\u25A0南里","LIN":"32鄰","STREET":"安昌街","SECT":" ","MAREA":" ","LANE":"１７４巷","ALLEY":" ","HOUSE_NO":"７３號","E_COORD97":170121.12,"N_COORD97":2552255.3900000001,"ADDRESS":"安昌街１７４巷７３號","OBJECTID":361808},"geometry":{"x":170121.12000000011,"y":2552255.3900000025}},{"attributes":{"ID":361819,"DIS_CODE":0,"TOWNNAME":"安南區","LI":"\u25A0南里","LIN":"32鄰","STREET":"安昌街","SECT":" ","MAREA":" ","LANE":"１７４巷","ALLEY":" ","HOUSE_NO":"７５號","E_COORD97":170121.38,"N_COORD97":2552251.3900000001,"ADDRESS":"安昌街１７４巷７５號","OBJECTID":361809},"geometry":{"x":170121.38000000082,"y":2552251.3900000025}},{"attributes":{"ID":361820,"DIS_CODE":0,"TOWNNAME":"安南區","LI":"\u25A0南里","LIN":"32鄰","STREET":"安昌街","SECT":" ","MAREA":" ","LANE":"１７４巷","ALLEY":" ","HOUSE_NO":"７７號","E_COORD97":170121.51000000001,"N_COORD97":2552246.04,"ADDRESS":"安昌街１７４巷７７號","OBJECTID":361810},"geometry":{"x":170121.50999999978,"y":2552246.040000001}},{"attributes":{"ID":361821,"DIS_CODE":0,"TOWNNAME":"南區","LI":"金華里","LIN":"19鄰","STREET":"惠南街","SECT":" ","MAREA":" ","LANE":"８４巷","ALLEY":" ","HOUSE_NO":"２５號","E_COORD97":166798.76999999999,"N_COORD97":2542342.77,"ADDRESS":"惠南街８４巷２５號","OBJECTID":361811},"geometry":{"x":166798.76999999955,"y":2542342.7699999996}},{"attributes":{"ID":361822,"DIS_CODE":0,"TOWNNAME":"南區","LI":"金華里","LIN":"19鄰","STREET":"惠南街","SECT":" ","MAREA":" ","LANE":"８４巷","ALLEY":" ","HOUSE_NO":"２７號","E_COORD97":166797.79999999999,"N_COORD97":2542348.0699999998,"ADDRESS":"惠南街８４巷２７號","OBJECTID":361812},"geometry":{"x":166797.80000000075,"y":2542348.0700000003}},{"attributes":{"ID":361823,"DIS_CODE":0,"TOWNNAME":"歸仁區","LI":"歸仁里","LIN":"13鄰","STREET":"和平北街","SECT":" ","MAREA":" ","LANE":" ","ALLEY":" ","HOUSE_NO":"１０８號","E_COORD97":177863.34,"N_COORD97":2541096.04,"ADDRESS":"和平北街１０８號","OBJECTID":361813},"geometry":{"x":177863.34000000171,"y":2541096.0399999991}},{"attributes":{"ID":361824,"DIS_CODE":0,"TOWNNAME":"歸仁區","LI":"媽廟里","LIN":"13鄰","STREET":"中正北路","SECT":"三段","MAREA":" ","LANE":" ","ALLEY":" ","HOUSE_NO":"６８號","E_COORD97":177587.41,"N_COORD97":2543678.7200000002,"ADDRESS":"中正北路三段６８號","OBJECTID":361814},"geometry":{"x":177587.41000000108,"y":2543678.7200000025}},{"attributes":{"ID":361825,"DIS_CODE":0,"TOWNNAME":"歸仁區","LI":"崙頂里","LIN":"13鄰","STREET":"崙頂街","SECT":" ","MAREA":" ","LANE":" ","ALLEY":" ","HOUSE_NO":"１５３號","E_COORD97":177901.44,"N_COORD97":2539736.25,"ADDRESS":"崙頂街１５３號","OBJECTID":361815},"geometry":{"x":177901.44000000041,"y":2539736.25}},{"attributes":{"ID":361826,"DIS_CODE":0,"TOWNNAME":"歸仁區","LI":"辜厝里","LIN":"13鄰","STREET":"大順街","SECT":" ","MAREA":" ","LANE":" ","ALLEY":" ","HOUSE_NO":"１０號","E_COORD97":177500.57000000001,"N_COORD97":2540530.5899999999,"ADDRESS":"大順街１０號","OBJECTID":361816},"geometry":{"x":177500.5700000003,"y":2540530.5899999999}},{"attributes":{"ID":361827,"DIS_CODE":0,"TOWNNAME":"歸仁區","LI":"後市里","LIN":"13鄰","STREET":"中山路","SECT":"二段","MAREA":" ","LANE":" ","ALLEY":" ","HOUSE_NO":"２６３號","E_COORD97":177012.14000000001,"N_COORD97":2540839.2799999998,"ADDRESS":"中山路二段２６３號","OBJECTID":361817},"geometry":{"x":177012.1400000006,"y":2540839.2800000012}},{"attributes":{"ID":361828,"DIS_CODE":0,"TOWNNAME":"歸仁區","LI":"辜厝里","LIN":"13鄰","STREET":"中正南路","SECT":"一段","MAREA":" ","LANE":" ","ALLEY":" ","HOUSE_NO":"１０４號","E_COORD97":177528.14999999999,"N_COORD97":2540519.5899999999,"ADDRESS":"中正南路一段１０４號","OBJECTID":361818},"geometry":{"x":177528.1500000013,"y":2540519.5899999999}},{"attributes":{"ID":361829,"DIS_CODE":0,"TOWNNAME":"歸仁區","LI":"許厝里","LIN":"13鄰","STREET":"中山路","SECT":"一段","MAREA":" ","LANE":" ","ALLEY":" ","HOUSE_NO":"４５５號","E_COORD97":178096.51000000001,"N_COORD97":2540701.25,"ADDRESS":"中山路一段４５５號","OBJECTID":361819},"geometry":{"x":178096.51000000071,"y":2540701.2500000019}},{"attributes":{"ID":361830,"DIS_CODE":0,"TOWNNAME":"歸仁區","LI":"許厝里","LIN":"13鄰","STREET":"中山路","SECT":"一段","MAREA":" ","LANE":" ","ALLEY":" ","HOUSE_NO":"４９９號","E_COORD97":178005.31,"N_COORD97":2540712.25,"ADDRESS":"中山路一段４９９號","OBJECTID":361820},"geometry":{"x":178005.30999999959,"y":2540712.25}},{"attributes":{"ID":361831,"DIS_CODE":0,"TOWNNAME":"歸仁區","LI":"許厝里","LIN":"13鄰","STREET":"中山路","SECT":"一段","MAREA":" ","LANE":" ","ALLEY":" ","HOUSE_NO":"４７３號","E_COORD97":178060.60999999999,"N_COORD97":2540706.25,"ADDRESS":"中山路一段４７３號","OBJECTID":361821},"geometry":{"x":178060.61000000127,"y":2540706.25}},{"attributes":{"ID":361832,"DIS_CODE":0,"TOWNNAME":"歸仁區","LI":"許厝里","LIN":"13鄰","STREET":"中山路","SECT":"一段","MAREA":" ","LANE":" ","ALLEY":" ","HOUSE_NO":"４５７號","E_COORD97":178092.41,"N_COORD97":2540702.25,"ADDRESS":"中山路一段４５７號","OBJECTID":361822},"geometry":{"x":178092.41000000108,"y":2540702.25}},{"attributes":{"ID":361833,"DIS_CODE":0,"TOWNNAME":"歸仁區","LI":"辜厝里","LIN":"13鄰","STREET":"大順二街","SECT":" ","MAREA":" ","LANE":" ","ALLEY":" ","HOUSE_NO":"１６號","E_COORD97":177497.92000000001,"N_COORD97":2540573.5899999999,"ADDRESS":"大順二街１６號","OBJECTID":361823},"geometry":{"x":177497.91999999993,"y":2540573.5900000017}},{"attributes":{"ID":361834,"DIS_CODE":0,"TOWNNAME":"安南區","LI":"安富里","LIN":"32鄰","STREET":"府安路","SECT":"五段","MAREA":" ","LANE":"１５７巷","ALLEY":" ","HOUSE_NO":"６９號","E_COORD97":167767.04999999999,"N_COORD97":2547247.79,"ADDRESS":"府安路五段１５７巷６９號","OBJECTID":361824},"geometry":{"x":167767.05000000168,"y":2547247.7899999991}},{"attributes":{"ID":361835,"DIS_CODE":0,"TOWNNAME":"安南區","LI":"安富里","LIN":"32鄰","STREET":"府安路","SECT":"五段","MAREA":" ","LANE":"１５７巷","ALLEY":" ","HOUSE_NO":"４７號","E_COORD97":167778.06,"N_COORD97":2547197.5899999999,"ADDRESS":"府安路五段１５７巷４７號","OBJECTID":361825},"geometry":{"x":167778.05999999959,"y":2547197.5900000017}},{"attributes":{"ID":361836,"DIS_CODE":0,"TOWNNAME":"安南區","LI":"安富里","LIN":"32鄰","STREET":"府安路","SECT":"五段","MAREA":" ","LANE":"１５７巷","ALLEY":" ","HOUSE_NO":"４３號","E_COORD97":167779.10000000001,"N_COORD97":2547188.21,"ADDRESS":"府安路五段１５７巷４３號","OBJECTID":361826},"geometry":{"x":167779.10000000056,"y":2547188.2100000028}},{"attributes":{"ID":361837,"DIS_CODE":0,"TOWNNAME":"安南區","LI":"安富里","LIN":"32鄰","STREET":"府安路","SECT":"五段","MAREA":" ","LANE":"１５７巷","ALLEY":" ","HOUSE_NO":"３９號","E_COORD97":167781.85000000001,"N_COORD97":2547177.8900000001,"ADDRESS":"府安路五段１５７巷３９號","OBJECTID":361827},"geometry":{"x":167781.85000000056,"y":2547177.8900000006}},{"attributes":{"ID":361838,"DIS_CODE":0,"TOWNNAME":"安南區","LI":"安富里","LIN":"32鄰","STREET":"府安路","SECT":"五段","MAREA":" ","LANE":"１５７巷","ALLEY":" ","HOUSE_NO":"３７號","E_COORD97":167783.57000000001,"N_COORD97":2547174.1099999999,"ADDRESS":"府安路五段１５７巷３７號","OBJECTID":361828},"geometry":{"x":167783.5700000003,"y":2547174.1100000013}},{"attributes":{"ID":361839,"DIS_CODE":0,"TOWNNAME":"安南區","LI":"安富里","LIN":"32鄰","STREET":"府安路","SECT":"五段","MAREA":" ","LANE":"１５７巷","ALLEY":" ","HOUSE_NO":"３１號","E_COORD97":167786.32999999999,"N_COORD97":2547161.0499999998,"ADDRESS":"府安路五段１５７巷３１號","OBJECTID":361829},"geometry":{"x":167786.33000000101,"y":2547161.0500000045}},{"attributes":{"ID":361840,"DIS_CODE":0,"TOWNNAME":"永康區","LI":"\u25A0行里","LIN":"32鄰","STREET":"三村一街","SECT":" ","MAREA":" ","LANE":"１３８巷","ALLEY":" ","HOUSE_NO":"７０號","E_COORD97":172098.54000000001,"N_COORD97":2549384.9900000002,"ADDRESS":"三村一街１３８巷７０號","OBJECTID":361830},"geometry":{"x":172098.5400000019,"y":2549384.9900000039}},{"attributes":{"ID":361841,"DIS_CODE":0,"TOWNNAME":"南區","LI":"金華里","LIN":"19鄰","STREET":"惠南街","SECT":" ","MAREA":" ","LANE":"８４巷","ALLEY":" ","HOUSE_NO":"２９號","E_COORD97":166798.60999999999,"N_COORD97":2542353.6899999999,"ADDRESS":"惠南街８４巷２９號","OBJECTID":361831},"geometry":{"x":166798.61000000034,"y":2542353.6899999995}},{"attributes":{"ID":361842,"DIS_CODE":0,"TOWNNAME":"南區","LI":"金華里","LIN":"19鄰","STREET":"惠南街","SECT":" ","MAREA":" ","LANE":"８４巷","ALLEY":" ","HOUSE_NO":"３１號","E_COORD97":166816.13,"N_COORD97":2542357.2200000002,"ADDRESS":"惠南街８４巷３１號","OBJECTID":361832},"geometry":{"x":166816.13000000082,"y":2542357.2200000007}},{"attributes":{"ID":361843,"DIS_CODE":0,"TOWNNAME":"南區","LI":"金華里","LIN":"19鄰","STREET":"惠南街","SECT":" ","MAREA":" ","LANE":"８４巷","ALLEY":" ","HOUSE_NO":"３號","E_COORD97":166770.72,"N_COORD97":2542308.1099999999,"ADDRESS":"惠南街８４巷３號","OBJECTID":361833},"geometry":{"x":166770.7200000016,"y":2542308.1100000013}},{"attributes":{"ID":361844,"DIS_CODE":0,"TOWNNAME":"南區","LI":"金華里","LIN":"19鄰","STREET":"惠南街","SECT":" ","MAREA":" ","LANE":"８４巷","ALLEY":" ","HOUSE_NO":"４１號","E_COORD97":166819.73999999999,"N_COORD97":2542316.1499999999,"ADDRESS":"惠南街８４巷４１號","OBJECTID":361834},"geometry":{"x":166819.74000000022,"y":2542316.1500000022}},{"attributes":{"ID":361845,"DIS_CODE":0,"TOWNNAME":"南區","LI":"金華里","LIN":"19鄰","STREET":"惠南街","SECT":" ","MAREA":" ","LANE":"８４巷","ALLEY":" ","HOUSE_NO":"４３號","E_COORD97":166824.62,"N_COORD97":2542316.6400000001,"ADDRESS":"惠南街８４巷４３號","OBJECTID":361835},"geometry":{"x":166824.62000000104,"y":2542316.6400000025}},{"attributes":{"ID":361846,"DIS_CODE":0,"TOWNNAME":"南區","LI":"金華里","LIN":"19鄰","STREET":"惠南街","SECT":" ","MAREA":" ","LANE":"８４巷","ALLEY":" ","HOUSE_NO":"４５號","E_COORD97":166829.01000000001,"N_COORD97":2542316.6400000001,"ADDRESS":"惠南街８４巷４５號","OBJECTID":361836},"geometry":{"x":166829.00999999978,"y":2542316.6400000025}},{"attributes":{"ID":361847,"DIS_CODE":0,"TOWNNAME":"南區","LI":"金華里","LIN":"19鄰","STREET":"惠南街","SECT":" ","MAREA":" ","LANE":"８４巷","ALLEY":" ","HOUSE_NO":"５號","E_COORD97":166775.35999999999,"N_COORD97":2542308.6000000001,"ADDRESS":"惠南街８４巷５號","OBJECTID":361837},"geometry":{"x":166775.3600000022,"y":2542308.6000000015}},{"attributes":{"ID":361848,"DIS_CODE":0,"TOWNNAME":"南區","LI":"金華里","LIN":"19鄰","STREET":"惠南街","SECT":" ","MAREA":" ","LANE":"８４巷","ALLEY":" ","HOUSE_NO":"７號","E_COORD97":166779.5,"N_COORD97":2542309.3300000001,"ADDRESS":"惠南街８４巷７號","OBJECTID":361838},"geometry":{"x":166779.50000000093,"y":2542309.3300000001}},{"attributes":{"ID":361849,"DIS_CODE":0,"TOWNNAME":"南區","LI":"金華里","LIN":"19鄰","STREET":"惠南街","SECT":" ","MAREA":" ","LANE":"８４巷","ALLEY":" ","HOUSE_NO":"９號","E_COORD97":166784.63,"N_COORD97":2542311.04,"ADDRESS":"惠南街８４巷９號","OBJECTID":361839},"geometry":{"x":166784.62999999989,"y":2542311.0400000028}},{"attributes":{"ID":361850,"DIS_CODE":0,"TOWNNAME":"南區","LI":"金華里","LIN":"19鄰","STREET":"惠南街","SECT":" ","MAREA":" ","LANE":"９８巷","ALLEY":" ","HOUSE_NO":"１號","E_COORD97":166774.32999999999,"N_COORD97":2542344.2200000002,"ADDRESS":"惠南街９８巷１號","OBJECTID":361840},"geometry":{"x":166774.33000000101,"y":2542344.2200000007}},{"attributes":{"ID":361851,"DIS_CODE":0,"TOWNNAME":"南區","LI":"金華里","LIN":"19鄰","STREET":"惠南街","SECT":" ","MAREA":" ","LANE":"９８巷","ALLEY":" ","HOUSE_NO":"２號","E_COORD97":166776.73999999999,"N_COORD97":2542325.1099999999,"ADDRESS":"惠南街９８巷２號","OBJECTID":361841},"geometry":{"x":166776.74000000115,"y":2542325.1100000013}},{"attributes":{"ID":361852,"DIS_CODE":0,"TOWNNAME":"新營區","LI":"民生里","LIN":"19鄰","STREET":"進修街","SECT":" ","MAREA":" ","LANE":"２９巷","ALLEY":" ","HOUSE_NO":"５號","E_COORD97":178966.97,"N_COORD97":2578445.8399999999,"ADDRESS":"進修街２９巷５號","OBJECTID":361842},"geometry":{"x":178966.96999999974,"y":2578445.8400000017}},{"attributes":{"ID":361853,"DIS_CODE":0,"TOWNNAME":"新營區","LI":"新北里","LIN":"19鄰","STREET":"民生路","SECT":" ","MAREA":" ","LANE":"２０８巷","ALLEY":" ","HOUSE_NO":"２４號","E_COORD97":179143.04999999999,"N_COORD97":2579060.75,"ADDRESS":"民生路２０８巷２４號","OBJECTID":361843},"geometry":{"x":179143.04999999981,"y":2579060.75}},{"attributes":{"ID":361854,"DIS_CODE":0,"TOWNNAME":"新營區","LI":"忠政里","LIN":"19鄰","STREET":"長榮路","SECT":"二段","MAREA":" ","LANE":"２５巷","ALLEY":" ","HOUSE_NO":"３８號","E_COORD97":179984.95999999999,"N_COORD97":2579734.5,"ADDRESS":"長榮路二段２５巷３８號","OBJECTID":361844},"geometry":{"x":179984.96000000183,"y":2579734.5}},{"attributes":{"ID":361855,"DIS_CODE":0,"TOWNNAME":"新營區","LI":"忠政里","LIN":"19鄰","STREET":"長榮路","SECT":"二段","MAREA":" ","LANE":"２５巷","ALLEY":" ","HOUSE_NO":"３０號","E_COORD97":179983.07999999999,"N_COORD97":2579768.8500000001,"ADDRESS":"長榮路二段２５巷３０號","OBJECTID":361845},"geometry":{"x":179983.08000000101,"y":2579768.8499999996}},{"attributes":{"ID":361856,"DIS_CODE":0,"TOWNNAME":"新營區","LI":"忠政里","LIN":"19鄰","STREET":"長榮路","SECT":"二段","MAREA":" ","LANE":"２５巷","ALLEY":" ","HOUSE_NO":"６號","E_COORD97":179985.07000000001,"N_COORD97":2579820.8799999999,"ADDRESS":"長榮路二段２５巷６號","OBJECTID":361846},"geometry":{"x":179985.07000000123,"y":2579820.8800000008}},{"attributes":{"ID":361857,"DIS_CODE":0,"TOWNNAME":"新營區","LI":"忠政里","LIN":"19鄰","STREET":"長榮路","SECT":"二段","MAREA":" ","LANE":"２５巷","ALLEY":" ","HOUSE_NO":"２０號","E_COORD97":179984.19,"N_COORD97":2579790.9900000002,"ADDRESS":"長榮路二段２５巷２０號","OBJECTID":361847},"geometry":{"x":179984.19000000134,"y":2579790.9900000021}},{"attributes":{"ID":361858,"DIS_CODE":0,"TOWNNAME":"新營區","LI":"忠政里","LIN":"19鄰","STREET":"長榮路","SECT":"二段","MAREA":" ","LANE":"２５巷","ALLEY":" ","HOUSE_NO":"１０號","E_COORD97":179985.25,"N_COORD97":2579813.1299999999,"ADDRESS":"長榮路二段２５巷１０號","OBJECTID":361848},"geometry":{"x":179985.25000000093,"y":2579813.129999999}},{"attributes":{"ID":361859,"DIS_CODE":0,"TOWNNAME":"歸仁區","LI":"看東里","LIN":"13鄰","STREET":"中山一街","SECT":" ","MAREA":" ","LANE":" ","ALLEY":" ","HOUSE_NO":"４０號","E_COORD97":178606.04000000001,"N_COORD97":2540517.48,"ADDRESS":"中山一街４０號","OBJECTID":361849},"geometry":{"x":178606.04000000004,"y":2540517.4800000023}},{"attributes":{"ID":361860,"DIS_CODE":0,"TOWNNAME":"歸仁區","LI":"文化里","LIN":"13鄰","STREET":"大德路","SECT":" ","MAREA":" ","LANE":" ","ALLEY":" ","HOUSE_NO":"１７３號","E_COORD97":177350.97,"N_COORD97":2541504.3300000001,"ADDRESS":"大德路１７３號","OBJECTID":361850},"geometry":{"x":177350.97000000067,"y":2541504.3300000019}},{"attributes":{"ID":361861,"DIS_CODE":0,"TOWNNAME":"歸仁區","LI":"看東里","LIN":"13鄰","STREET":"中山一街","SECT":" ","MAREA":" ","LANE":" ","ALLEY":" ","HOUSE_NO":"４２號","E_COORD97":178605.94,"N_COORD97":2540512.48,"ADDRESS":"中山一街４２號","OBJECTID":361851},"geometry":{"x":178605.94000000134,"y":2540512.4800000042}},{"attributes":{"ID":361862,"DIS_CODE":0,"TOWNNAME":"歸仁區","LI":"文化里","LIN":"13鄰","STREET":"大德路","SECT":" ","MAREA":" ","LANE":" ","ALLEY":" ","HOUSE_NO":"１７５號","E_COORD97":177343.76999999999,"N_COORD97":2541503.3300000001,"ADDRESS":"大德路１７５號","OBJECTID":361852},"geometry":{"x":177343.77000000048,"y":2541503.3300000019}},{"attributes":{"ID":361863,"DIS_CODE":0,"TOWNNAME":"歸仁區","LI":"文化里","LIN":"13鄰","STREET":"大德路","SECT":" ","MAREA":" ","LANE":" ","ALLEY":" ","HOUSE_NO":"１７９號","E_COORD97":177331.47,"N_COORD97":2541505.3300000001,"ADDRESS":"大德路１７９號","OBJECTID":361853},"geometry":{"x":177331.46999999974,"y":2541505.3300000001}},{"attributes":{"ID":361864,"DIS_CODE":0,"TOWNNAME":"歸仁區","LI":"南興里","LIN":"13鄰","STREET":"文化街","SECT":"三段","MAREA":" ","LANE":" ","ALLEY":" ","HOUSE_NO":"４８０號","E_COORD97":175937.14000000001,"N_COORD97":2541222.3300000001,"ADDRESS":"文化街三段４８０號","OBJECTID":361854},"geometry":{"x":175937.1400000006,"y":2541222.3300000019}},{"attributes":{"ID":361865,"DIS_CODE":0,"TOWNNAME":"歸仁區","LI":"八甲里","LIN":"13鄰","STREET":"大明街","SECT":" ","MAREA":" ","LANE":" ","ALLEY":" ","HOUSE_NO":"９１號","E_COORD97":177970.26999999999,"N_COORD97":2541875.6099999999,"ADDRESS":"大明街９１號","OBJECTID":361855},"geometry":{"x":177970.27000000142,"y":2541875.6099999994}},{"attributes":{"ID":361866,"DIS_CODE":0,"TOWNNAME":"歸仁區","LI":"八甲里","LIN":"13鄰","STREET":"大明二街","SECT":" ","MAREA":" ","LANE":" ","ALLEY":" ","HOUSE_NO":"１９號","E_COORD97":178009.72,"N_COORD97":2541919.6099999999,"ADDRESS":"大明二街１９號","OBJECTID":361856},"geometry":{"x":178009.7200000016,"y":2541919.6099999994}},{"attributes":{"ID":361867,"DIS_CODE":0,"TOWNNAME":"東區","LI":"虎尾里","LIN":"32鄰","STREET":"東成街","SECT":" ","MAREA":" ","LANE":"１４２巷","ALLEY":" ","HOUSE_NO":"５１號","E_COORD97":171690.75,"N_COORD97":2542146.2599999998,"ADDRESS":"東成街１４２巷５１號","OBJECTID":361857},"geometry":{"x":171690.75000000093,"y":2542146.2599999998}},{"attributes":{"ID":361868,"DIS_CODE":0,"TOWNNAME":"永康區","LI":"正強里","LIN":"32鄰","STREET":"四維街","SECT":" ","MAREA":" ","LANE":"２９巷","ALLEY":" ","HOUSE_NO":"２１號","E_COORD97":173358.39999999999,"N_COORD97":2547989,"ADDRESS":"四維街２９巷２１號","OBJECTID":361858},"geometry":{"x":173358.4000000013,"y":2547989.0000000019}},{"attributes":{"ID":361869,"DIS_CODE":0,"TOWNNAME":"永康區","LI":"永康里","LIN":"32鄰","STREET":"大同街","SECT":" ","MAREA":" ","LANE":"９７６巷","ALLEY":" ","HOUSE_NO":"３號","E_COORD97":174396.14000000001,"N_COORD97":2547124.7400000002,"ADDRESS":"大同街９７６巷３號","OBJECTID":361859},"geometry":{"x":174396.14000000153,"y":2547124.7400000002}},{"attributes":{"ID":361870,"DIS_CODE":0,"TOWNNAME":"永康區","LI":"正強里","LIN":"32鄰","STREET":"四維街","SECT":" ","MAREA":" ","LANE":"２９巷","ALLEY":" ","HOUSE_NO":"１１號","E_COORD97":173379.06,"N_COORD97":2547995.5,"ADDRESS":"四維街２９巷１１號","OBJECTID":361860},"geometry":{"x":173379.05999999959,"y":2547995.5000000019}},{"attributes":{"ID":361871,"DIS_CODE":0,"TOWNNAME":"永康區","LI":"\u25A0行里","LIN":"32鄰","STREET":"仁愛街","SECT":" ","MAREA":" ","LANE":"１０８巷","ALLEY":" ","HOUSE_NO":"２７號","E_COORD97":172209.19,"N_COORD97":2549435.21,"ADDRESS":"仁愛街１０８巷２７號","OBJECTID":361861},"geometry":{"x":172209.19000000041,"y":2549435.2100000028}},{"attributes":{"ID":361872,"DIS_CODE":0,"TOWNNAME":"永康區","LI":"崑山里","LIN":"32鄰","STREET":"崑山街","SECT":" ","MAREA":" ","LANE":"１１６巷","ALLEY":" ","HOUSE_NO":"１１號","E_COORD97":174041.72,"N_COORD97":2544788.8799999999,"ADDRESS":"崑山街１１６巷１１號","OBJECTID":361862},"geometry":{"x":174041.72000000067,"y":2544788.879999999}},{"attributes":{"ID":361873,"DIS_CODE":0,"TOWNNAME":"永康區","LI":"崑山里","LIN":"32鄰","STREET":"大灣路","SECT":" ","MAREA":" ","LANE":"７９８巷","ALLEY":" ","HOUSE_NO":"６６號","E_COORD97":174102.35000000001,"N_COORD97":2544767.8700000001,"ADDRESS":"大灣路７９８巷６６號","OBJECTID":361863},"geometry":{"x":174102.34999999963,"y":2544767.870000001}},{"attributes":{"ID":361874,"DIS_CODE":0,"TOWNNAME":"永康區","LI":"\u25A0行里","LIN":"32鄰","STREET":"三村一街","SECT":" ","MAREA":" ","LANE":"１３８巷","ALLEY":" ","HOUSE_NO":"２８號","E_COORD97":172076.73999999999,"N_COORD97":2549307.8399999999,"ADDRESS":"三村一街１３８巷２８號","OBJECTID":361864},"geometry":{"x":172076.74000000022,"y":2549307.8400000017}},{"attributes":{"ID":361875,"DIS_CODE":0,"TOWNNAME":"永康區","LI":"崑山里","LIN":"32鄰","STREET":"大灣路","SECT":" ","MAREA":" ","LANE":"７９８巷","ALLEY":" ","HOUSE_NO":"９０號","E_COORD97":174119.20000000001,"N_COORD97":2544814.6099999999,"ADDRESS":"大灣路７９８巷９０號","OBJECTID":361865},"geometry":{"x":174119.20000000019,"y":2544814.6099999994}},{"attributes":{"ID":361876,"DIS_CODE":0,"TOWNNAME":"東區","LI":"泉南里","LIN":"32鄰","STREET":"府連路","SECT":" ","MAREA":" ","LANE":"３２６巷","ALLEY":" ","HOUSE_NO":"８號","E_COORD97":169559.45999999999,"N_COORD97":2542783.3599999999,"ADDRESS":"府連路３２６巷８號","OBJECTID":361866},"geometry":{"x":169559.46000000183,"y":2542783.3599999994}},{"attributes":{"ID":361877,"DIS_CODE":0,"TOWNNAME":"安南區","LI":"安慶里","LIN":"32鄰","STREET":"怡安路","SECT":"一段","MAREA":" ","LANE":"３１６巷","ALLEY":" ","HOUSE_NO":"１１號","E_COORD97":168903.04000000001,"N_COORD97":2549146.1099999999,"ADDRESS":"怡安路一段３１６巷１１號","OBJECTID":361867},"geometry":{"x":168903.0400000019,"y":2549146.1100000013}},{"attributes":{"ID":361878,"DIS_CODE":0,"TOWNNAME":"安南區","LI":"安慶里","LIN":"32鄰","STREET":"怡安路","SECT":"一段","MAREA":" ","LANE":"３１６巷","ALLEY":" ","HOUSE_NO":"１９號","E_COORD97":168916.92000000001,"N_COORD97":2549156.9500000002,"ADDRESS":"怡安路一段３１６巷１９號","OBJECTID":361868},"geometry":{"x":168916.91999999993,"y":2549156.950000003}},{"attributes":{"ID":361879,"DIS_CODE":0,"TOWNNAME":"永康區","LI":"復國里","LIN":"32鄰","STREET":"復華一街","SECT":" ","MAREA":" ","LANE":"２８巷","ALLEY":" ","HOUSE_NO":"３５號","E_COORD97":172645.17999999999,"N_COORD97":2545188.0299999998,"ADDRESS":"復華一街２８巷３５號","OBJECTID":361869},"geometry":{"x":172645.18000000063,"y":2545188.0299999993}},{"attributes":{"ID":361880,"DIS_CODE":0,"TOWNNAME":"新營區","LI":"忠政里","LIN":"19鄰","STREET":"長榮路","SECT":"二段","MAREA":" ","LANE":"２５巷","ALLEY":" ","HOUSE_NO":"３２號","E_COORD97":179983.04000000001,"N_COORD97":2579759.9900000002,"ADDRESS":"長榮路二段２５巷３２號","OBJECTID":361870},"geometry":{"x":179983.04000000097,"y":2579759.9900000021}},{"attributes":{"ID":361881,"DIS_CODE":0,"TOWNNAME":"新營區","LI":"忠政里","LIN":"19鄰","STREET":"長榮路","SECT":"二段","MAREA":" ","LANE":"２５巷","ALLEY":" ","HOUSE_NO":"１６號","E_COORD97":179984.16,"N_COORD97":2579799.8500000001,"ADDRESS":"長榮路二段２５巷１６號","OBJECTID":361871},"geometry":{"x":179984.16000000108,"y":2579799.8499999996}},{"attributes":{"ID":361882,"DIS_CODE":0,"TOWNNAME":"新營區","LI":"民生里","LIN":"19鄰","STREET":"進修街","SECT":" ","MAREA":" ","LANE":"２９巷","ALLEY":" ","HOUSE_NO":"２９號","E_COORD97":178889.62,"N_COORD97":2578469.4700000002,"ADDRESS":"進修街２９巷２９號","OBJECTID":361872},"geometry":{"x":178889.62000000104,"y":2578469.4700000025}},{"attributes":{"ID":361883,"DIS_CODE":0,"TOWNNAME":"新營區","LI":"忠政里","LIN":"19鄰","STREET":"長榮路","SECT":"二段","MAREA":" ","LANE":"２５巷","ALLEY":" ","HOUSE_NO":"２號","E_COORD97":179985.17000000001,"N_COORD97":2579829.7400000002,"ADDRESS":"長榮路二段２５巷２號","OBJECTID":361873},"geometry":{"x":179985.17000000179,"y":2579829.7400000021}},{"attributes":{"ID":361884,"DIS_CODE":0,"TOWNNAME":"新營區","LI":"民生里","LIN":"13鄰","STREET":"復興路","SECT":" ","MAREA":" ","LANE":" ","ALLEY":" ","HOUSE_NO":"２３４號","E_COORD97":178898.22,"N_COORD97":2578084.04,"ADDRESS":"復興路２３４號","OBJECTID":361874},"geometry":{"x":178898.22000000067,"y":2578084.040000001}},{"attributes":{"ID":361885,"DIS_CODE":0,"TOWNNAME":"新營區","LI":"民生里","LIN":"13鄰","STREET":"復興路","SECT":" ","MAREA":" ","LANE":" ","ALLEY":" ","HOUSE_NO":"２６４之８號","E_COORD97":178831.64999999999,"N_COORD97":2578184.0899999999,"ADDRESS":"復興路２６４之８號","OBJECTID":361875},"geometry":{"x":178831.6500000013,"y":2578184.0899999999}},{"attributes":{"ID":361886,"DIS_CODE":0,"TOWNNAME":"新營區","LI":"民生里","LIN":"13鄰","STREET":"復興路","SECT":" ","MAREA":" ","LANE":" ","ALLEY":" ","HOUSE_NO":"２３８之１號","E_COORD97":178878.23999999999,"N_COORD97":2578088.6299999999,"ADDRESS":"復興路２３８之１號","OBJECTID":361876},"geometry":{"x":178878.24000000115,"y":2578088.6299999971}},{"attributes":{"ID":361887,"DIS_CODE":0,"TOWNNAME":"新營區","LI":"民生里","LIN":"13鄰","STREET":"復興路","SECT":" ","MAREA":" ","LANE":" ","ALLEY":" ","HOUSE_NO":"２８０之２號","E_COORD97":178713.79000000001,"N_COORD97":2578138.1499999999,"ADDRESS":"復興路２８０之２號","OBJECTID":361877},"geometry":{"x":178713.79000000097,"y":2578138.1500000022}},{"attributes":{"ID":361888,"DIS_CODE":0,"TOWNNAME":"新營區","LI":"民生里","LIN":"13鄰","STREET":"復興路","SECT":" ","MAREA":" ","LANE":" ","ALLEY":" ","HOUSE_NO":"２７０之１號","E_COORD97":178772.01000000001,"N_COORD97":2578120.1600000001,"ADDRESS":"復興路２７０之１號","OBJECTID":361878},"geometry":{"x":178772.00999999978,"y":2578120.1599999983}},{"attributes":{"ID":361889,"DIS_CODE":0,"TOWNNAME":"新營區","LI":"民生里","LIN":"13鄰","STREET":"復興路","SECT":" ","MAREA":" ","LANE":" ","ALLEY":" ","HOUSE_NO":"２６８號","E_COORD97":178778.70999999999,"N_COORD97":2578117.8500000001,"ADDRESS":"復興路２６８號","OBJECTID":361879},"geometry":{"x":178778.71000000089,"y":2578117.8499999996}},{"attributes":{"ID":361890,"DIS_CODE":0,"TOWNNAME":"新營區","LI":"三仙里","LIN":"13鄰","STREET":"中華路","SECT":" ","MAREA":" ","LANE":" ","ALLEY":" ","HOUSE_NO":"５４號之２","E_COORD97":179607.59,"N_COORD97":2578203.6400000001,"ADDRESS":"中華路５４號之２","OBJECTID":361880},"geometry":{"x":179607.59000000171,"y":2578203.6400000025}},{"attributes":{"ID":361891,"DIS_CODE":0,"TOWNNAME":"新營區","LI":"大宏里","LIN":"13鄰","STREET":"文昌街","SECT":" ","MAREA":" ","LANE":" ","ALLEY":" ","HOUSE_NO":"５２號","E_COORD97":180249.20000000001,"N_COORD97":2578306.8599999999,"ADDRESS":"文昌街５２號","OBJECTID":361881},"geometry":{"x":180249.20000000019,"y":2578306.8599999994}},{"attributes":{"ID":361892,"DIS_CODE":0,"TOWNNAME":"新營區","LI":"興安里","LIN":"13鄰","STREET":"延平路","SECT":" ","MAREA":" ","LANE":" ","ALLEY":" ","HOUSE_NO":"９５號","E_COORD97":179781.78,"N_COORD97":2577675.6000000001,"ADDRESS":"延平路９５號","OBJECTID":361882},"geometry":{"x":179781.78000000119,"y":2577675.5999999996}},{"attributes":{"ID":361893,"DIS_CODE":0,"TOWNNAME":"新營區","LI":"大宏里","LIN":"13鄰","STREET":"文昌街","SECT":" ","MAREA":" ","LANE":" ","ALLEY":" ","HOUSE_NO":"５８號","E_COORD97":180233.97,"N_COORD97":2578330.1899999999,"ADDRESS":"文昌街５８號","OBJECTID":361883},"geometry":{"x":180233.97000000067,"y":2578330.1900000013}},{"attributes":{"ID":361894,"DIS_CODE":0,"TOWNNAME":"歸仁區","LI":"許厝里","LIN":"13鄰","STREET":"中山路","SECT":"一段","MAREA":" ","LANE":" ","ALLEY":" ","HOUSE_NO":"４９７號","E_COORD97":178010.41,"N_COORD97":2540712.25,"ADDRESS":"中山路一段４９７號","OBJECTID":361884},"geometry":{"x":178010.41000000015,"y":2540712.25}},{"attributes":{"ID":361895,"DIS_CODE":0,"TOWNNAME":"歸仁區","LI":"新厝里","LIN":"13鄰","STREET":"中正南路","SECT":"一段","MAREA":" ","LANE":" ","ALLEY":" ","HOUSE_NO":"８７號","E_COORD97":177573,"N_COORD97":2540530.5899999999,"ADDRESS":"中正南路一段８７號","OBJECTID":361885},"geometry":{"x":177573.00000000093,"y":2540530.5899999999}},{"attributes":{"ID":361896,"DIS_CODE":0,"TOWNNAME":"歸仁區","LI":"七甲里","LIN":"13鄰","STREET":"南潭一街","SECT":" ","MAREA":" ","LANE":" ","ALLEY":" ","HOUSE_NO":"５９號","E_COORD97":175867.39000000001,"N_COORD97":2542987.25,"ADDRESS":"南潭一街５９號","OBJECTID":361886},"geometry":{"x":175867.38999999873,"y":2542987.25}},{"attributes":{"ID":361897,"DIS_CODE":0,"TOWNNAME":"歸仁區","LI":"南興里","LIN":"13鄰","STREET":"文化街","SECT":"三段","MAREA":" ","LANE":" ","ALLEY":" ","HOUSE_NO":"４８４號","E_COORD97":175912.44,"N_COORD97":2541213.3300000001,"ADDRESS":"文化街三段４８４號","OBJECTID":361887},"geometry":{"x":175912.44000000134,"y":2541213.3300000001}},{"attributes":{"ID":361898,"DIS_CODE":0,"TOWNNAME":"永康區","LI":"\u25A0行里","LIN":"32鄰","STREET":"三村一街","SECT":" ","MAREA":" ","LANE":"１３８巷","ALLEY":" ","HOUSE_NO":"３２號","E_COORD97":172076.85000000001,"N_COORD97":2549316.0899999999,"ADDRESS":"三村一街１３８巷３２號","OBJECTID":361888},"geometry":{"x":172076.84999999963,"y":2549316.0900000036}},{"attributes":{"ID":361899,"DIS_CODE":0,"TOWNNAME":"永康區","LI":"復華里","LIN":"32鄰","STREET":"復華十街","SECT":" ","MAREA":" ","LANE":"３９巷","ALLEY":" ","HOUSE_NO":"１９號","E_COORD97":172585.62,"N_COORD97":2546352.27,"ADDRESS":"復華十街３９巷１９號","OBJECTID":361889},"geometry":{"x":172585.62000000011,"y":2546352.2700000014}},{"attributes":{"ID":361900,"DIS_CODE":0,"TOWNNAME":"新營區","LI":"忠政里","LIN":"19鄰","STREET":"長榮路","SECT":"二段","MAREA":" ","LANE":"２５巷","ALLEY":" ","HOUSE_NO":"１８號","E_COORD97":179984.14000000001,"N_COORD97":2579795.4199999999,"ADDRESS":"長榮路二段２５巷１８號","OBJECTID":361890},"geometry":{"x":179984.1400000006,"y":2579795.4199999999}},{"attributes":{"ID":361901,"DIS_CODE":0,"TOWNNAME":"新營區","LI":"民生里","LIN":"19鄰","STREET":"進修街","SECT":" ","MAREA":" ","LANE":"２９巷","ALLEY":" ","HOUSE_NO":"３號","E_COORD97":178971.10999999999,"N_COORD97":2578442.5,"ADDRESS":"進修街２９巷３號","OBJECTID":361891},"geometry":{"x":178971.11000000127,"y":2578442.5}},{"attributes":{"ID":361902,"DIS_CODE":0,"TOWNNAME":"新營區","LI":"民生里","LIN":"19鄰","STREET":"進修街","SECT":" ","MAREA":" ","LANE":"２９巷","ALLEY":" ","HOUSE_NO":"３９號","E_COORD97":178881.35999999999,"N_COORD97":2578450.6899999999,"ADDRESS":"進修街２９巷３９號","OBJECTID":361892},"geometry":{"x":178881.36000000127,"y":2578450.6899999995}},{"attributes":{"ID":361903,"DIS_CODE":0,"TOWNNAME":"新營區","LI":"民生里","LIN":"19鄰","STREET":"進修街","SECT":" ","MAREA":" ","LANE":"２９巷","ALLEY":" ","HOUSE_NO":"３５號","E_COORD97":178884.47,"N_COORD97":2578458.4300000002,"ADDRESS":"進修街２９巷３５號","OBJECTID":361893},"geometry":{"x":178884.4700000016,"y":2578458.4300000016}},{"attributes":{"ID":361904,"DIS_CODE":0,"TOWNNAME":"新營區","LI":"民生里","LIN":"19鄰","STREET":"進修街","SECT":" ","MAREA":" ","LANE":"２９巷","ALLEY":" ","HOUSE_NO":"４１號","E_COORD97":178870.10999999999,"N_COORD97":2578452.96,"ADDRESS":"進修街２９巷４１號","OBJECTID":361894},"geometry":{"x":178870.11000000034,"y":2578452.9600000028}},{"attributes":{"ID":361905,"DIS_CODE":0,"TOWNNAME":"新營區","LI":"忠政里","LIN":"19鄰","STREET":"長榮路","SECT":"二段","MAREA":" ","LANE":"２５巷","ALLEY":" ","HOUSE_NO":"２２號","E_COORD97":179984.17000000001,"N_COORD97":2579786.5600000001,"ADDRESS":"長榮路二段２５巷２２號","OBJECTID":361895},"geometry":{"x":179984.17000000086,"y":2579786.5600000024}},{"attributes":{"ID":361906,"DIS_CODE":0,"TOWNNAME":"新營區","LI":"南紙里","LIN":"19鄰","STREET":"太子路","SECT":" ","MAREA":" ","LANE":"２３８巷","ALLEY":" ","HOUSE_NO":"５號","E_COORD97":177787.79000000001,"N_COORD97":2577855.73,"ADDRESS":"太子路２３８巷５號","OBJECTID":361896},"geometry":{"x":177787.79000000097,"y":2577855.7300000042}},{"attributes":{"ID":361907,"DIS_CODE":0,"TOWNNAME":"新營區","LI":"南紙里","LIN":"19鄰","STREET":"太子路","SECT":" ","MAREA":" ","LANE":"２３８巷","ALLEY":" ","HOUSE_NO":"７號","E_COORD97":177786.79999999999,"N_COORD97":2577860.1600000001,"ADDRESS":"太子路２３８巷７號","OBJECTID":361897},"geometry":{"x":177786.79999999981,"y":2577860.160000002}},{"attributes":{"ID":361908,"DIS_CODE":0,"TOWNNAME":"新營區","LI":"王公里","LIN":"19鄰","STREET":"民族路","SECT":" ","MAREA":" ","LANE":"１１４巷","ALLEY":" ","HOUSE_NO":"７號","E_COORD97":180386.29999999999,"N_COORD97":2579229.8199999998,"ADDRESS":"民族路１１４巷７號","OBJECTID":361898},"geometry":{"x":180386.30000000075,"y":2579229.8200000003}},{"attributes":{"ID":361909,"DIS_CODE":0,"TOWNNAME":"新營區","LI":"南紙里","LIN":"19鄰","STREET":"太子路","SECT":" ","MAREA":" ","LANE":"２５６巷","ALLEY":" ","HOUSE_NO":"１４號","E_COORD97":177754.20000000001,"N_COORD97":2577848.1499999999,"ADDRESS":"太子路２５６巷１４號","OBJECTID":361899},"geometry":{"x":177754.20000000019,"y":2577848.1500000004}},{"attributes":{"ID":361910,"DIS_CODE":0,"TOWNNAME":"鹽水區","LI":"水正里","LIN":"19鄰","STREET":"中正路","SECT":" ","MAREA":" ","LANE":"１４２巷","ALLEY":" ","HOUSE_NO":"１４號","E_COORD97":175058.95999999999,"N_COORD97":2579742.0800000001,"ADDRESS":"中正路１４２巷１４號","OBJECTID":361900},"geometry":{"x":175058.96000000089,"y":2579742.0800000019}},{"attributes":{"ID":361911,"DIS_CODE":0,"TOWNNAME":"關廟區","LI":"五甲里","LIN":"19鄰","STREET":"大仁街","SECT":" ","MAREA":" ","LANE":"１７巷","ALLEY":" ","HOUSE_NO":"１號","E_COORD97":181185.12,"N_COORD97":2539393.25,"ADDRESS":"大仁街１７巷１號","OBJECTID":361901},"geometry":{"x":181185.12000000011,"y":2539393.25}},{"attributes":{"ID":361912,"DIS_CODE":0,"TOWNNAME":"關廟區","LI":"山西里","LIN":"19鄰","STREET":"文衡路","SECT":" ","MAREA":" ","LANE":"１１９巷","ALLEY":" ","HOUSE_NO":"３５號","E_COORD97":180653.69,"N_COORD97":2540430.3300000001,"ADDRESS":"文衡路１１９巷３５號","OBJECTID":361902},"geometry":{"x":180653.69000000134,"y":2540430.3300000001}},{"attributes":{"ID":361913,"DIS_CODE":0,"TOWNNAME":"關廟區","LI":"北勢里","LIN":"19鄰","STREET":"成功路","SECT":" ","MAREA":" ","LANE":"３９２巷","ALLEY":" ","HOUSE_NO":"２１號","E_COORD97":181206.42000000001,"N_COORD97":2540611.27,"ADDRESS":"成功路３９２巷２１號","OBJECTID":361903},"geometry":{"x":181206.42000000086,"y":2540611.2700000033}},{"attributes":{"ID":361914,"DIS_CODE":0,"TOWNNAME":"關廟區","LI":"北花里","LIN":"19鄰","STREET":"花園三街","SECT":" ","MAREA":" ","LANE":"５２巷","ALLEY":" ","HOUSE_NO":"２０號","E_COORD97":181949.48999999999,"N_COORD97":2540513.25,"ADDRESS":"花園三街５２巷２０號","OBJECTID":361904},"geometry":{"x":181949.49000000022,"y":2540513.2499999981}},{"attributes":{"ID":361915,"DIS_CODE":0,"TOWNNAME":"關廟區","LI":"北花里","LIN":"19鄰","STREET":"花園三街","SECT":" ","MAREA":" ","LANE":"５２巷","ALLEY":" ","HOUSE_NO":"１號","E_COORD97":181934.84,"N_COORD97":2540490.25,"ADDRESS":"花園三街５２巷１號","OBJECTID":361905},"geometry":{"x":181934.83999999985,"y":2540490.2500000019}},{"attributes":{"ID":361916,"DIS_CODE":0,"TOWNNAME":"關廟區","LI":"北勢里","LIN":"19鄰","STREET":"成功路","SECT":" ","MAREA":" ","LANE":"３９２巷","ALLEY":" ","HOUSE_NO":"７號","E_COORD97":181194.76999999999,"N_COORD97":2540583.27,"ADDRESS":"成功路３９２巷７號","OBJECTID":361906},"geometry":{"x":181194.77000000048,"y":2540583.2699999996}},{"attributes":{"ID":361917,"DIS_CODE":0,"TOWNNAME":"關廟區","LI":"北勢里","LIN":"19鄰","STREET":"成功路","SECT":" ","MAREA":" ","LANE":"３９２巷","ALLEY":" ","HOUSE_NO":"１１號","E_COORD97":181198.72,"N_COORD97":2540591.27,"ADDRESS":"成功路３９２巷１１號","OBJECTID":361907},"geometry":{"x":181198.72000000067,"y":2540591.2700000014}},{"attributes":{"ID":361918,"DIS_CODE":0,"TOWNNAME":"歸仁區","LI":"七甲里","LIN":"13鄰","STREET":"南潭一街","SECT":" ","MAREA":" ","LANE":" ","ALLEY":" ","HOUSE_NO":"７９號","E_COORD97":175763.79000000001,"N_COORD97":2542977.25,"ADDRESS":"南潭一街７９號","OBJECTID":361908},"geometry":{"x":175763.79000000097,"y":2542977.25}},{"attributes":{"ID":361919,"DIS_CODE":0,"TOWNNAME":"歸仁區","LI":"八甲里","LIN":"13鄰","STREET":"大明二街","SECT":" ","MAREA":" ","LANE":" ","ALLEY":" ","HOUSE_NO":"５號","E_COORD97":178032.87,"N_COORD97":2541884.6099999999,"ADDRESS":"大明二街５號","OBJECTID":361909},"geometry":{"x":178032.87000000197,"y":2541884.6100000013}},{"attributes":{"ID":361920,"DIS_CODE":0,"TOWNNAME":"永康區","LI":"復華里","LIN":"32鄰","STREET":"復華十街","SECT":" ","MAREA":" ","LANE":"３９巷","ALLEY":" ","HOUSE_NO":"３號","E_COORD97":172621.41,"N_COORD97":2546351.5299999998,"ADDRESS":"復華十街３９巷３號","OBJECTID":361910},"geometry":{"x":172621.41000000015,"y":2546351.5299999993}},{"attributes":{"ID":361921,"DIS_CODE":0,"TOWNNAME":"關廟區","LI":"北花里","LIN":"19鄰","STREET":"中正路","SECT":" ","MAREA":" ","LANE":"５６２巷","ALLEY":" ","HOUSE_NO":"１５號","E_COORD97":182028.91,"N_COORD97":2540485.25,"ADDRESS":"中正路５６２巷１５號","OBJECTID":361911},"geometry":{"x":182028.91000000108,"y":2540485.25}},{"attributes":{"ID":361922,"DIS_CODE":0,"TOWNNAME":"關廟區","LI":"香洋里","LIN":"19鄰","STREET":"中山路","SECT":"一段","MAREA":" ","LANE":"５６６巷","ALLEY":" ","HOUSE_NO":"１０號","E_COORD97":181285.60999999999,"N_COORD97":2539981.2799999998,"ADDRESS":"中山路一段５６６巷１０號","OBJECTID":361912},"geometry":{"x":181285.61000000034,"y":2539981.2800000012}},{"attributes":{"ID":361923,"DIS_CODE":0,"TOWNNAME":"關廟區","LI":"北勢里","LIN":"19鄰","STREET":"成功路","SECT":" ","MAREA":" ","LANE":"３９２巷","ALLEY":" ","HOUSE_NO":"３號","E_COORD97":181192.07000000001,"N_COORD97":2540575.27,"ADDRESS":"成功路３９２巷３號","OBJECTID":361913},"geometry":{"x":181192.07000000123,"y":2540575.2700000014}},{"attributes":{"ID":361924,"DIS_CODE":0,"TOWNNAME":"關廟區","LI":"北勢里","LIN":"19鄰","STREET":"成功路","SECT":" ","MAREA":" ","LANE":"３９２巷","ALLEY":" ","HOUSE_NO":"９號","E_COORD97":181196.37,"N_COORD97":2540586.27,"ADDRESS":"成功路３９２巷９號","OBJECTID":361914},"geometry":{"x":181196.37000000104,"y":2540586.2699999996}},{"attributes":{"ID":361925,"DIS_CODE":0,"TOWNNAME":"關廟區","LI":"北勢里","LIN":"19鄰","STREET":"成功路","SECT":" ","MAREA":" ","LANE":"３９２巷","ALLEY":" ","HOUSE_NO":"１號","E_COORD97":181190.97,"N_COORD97":2540572.27,"ADDRESS":"成功路３９２巷１號","OBJECTID":361915},"geometry":{"x":181190.96999999974,"y":2540572.2699999996}},{"attributes":{"ID":361926,"DIS_CODE":0,"TOWNNAME":"關廟區","LI":"北花里","LIN":"19鄰","STREET":"中正路","SECT":" ","MAREA":" ","LANE":"５６２巷","ALLEY":" ","HOUSE_NO":"１１號","E_COORD97":182027.70999999999,"N_COORD97":2540476.25,"ADDRESS":"中正路５６２巷１１號","OBJECTID":361916},"geometry":{"x":182027.71000000183,"y":2540476.2500000037}},{"attributes":{"ID":361927,"DIS_CODE":0,"TOWNNAME":"關廟區","LI":"東勢里","LIN":"19鄰","STREET":"東仁街","SECT":" ","MAREA":" ","LANE":"７６巷","ALLEY":" ","HOUSE_NO":"６號","E_COORD97":181803.82000000001,"N_COORD97":2539267.25,"ADDRESS":"東仁街７６巷６號","OBJECTID":361917},"geometry":{"x":181803.82000000123,"y":2539267.2500000019}},{"attributes":{"ID":361928,"DIS_CODE":0,"TOWNNAME":"關廟區","LI":"北勢里","LIN":"19鄰","STREET":"成功路","SECT":" ","MAREA":" ","LANE":"３９２巷","ALLEY":" ","HOUSE_NO":"５號","E_COORD97":181193.67000000001,"N_COORD97":2540579.27,"ADDRESS":"成功路３９２巷５號","OBJECTID":361918},"geometry":{"x":181193.66999999993,"y":2540579.2699999996}},{"attributes":{"ID":361929,"DIS_CODE":0,"TOWNNAME":"關廟區","LI":"東勢里","LIN":"19鄰","STREET":"東仁街","SECT":" ","MAREA":" ","LANE":"２９巷","ALLEY":" ","HOUSE_NO":"６號","E_COORD97":181877.22,"N_COORD97":2539272.25,"ADDRESS":"東仁街２９巷６號","OBJECTID":361919},"geometry":{"x":181877.22000000067,"y":2539272.25}},{"attributes":{"ID":361930,"DIS_CODE":0,"TOWNNAME":"關廟區","LI":"北勢里","LIN":"19鄰","STREET":"成功路","SECT":" ","MAREA":" ","LANE":"３９２巷","ALLEY":" ","HOUSE_NO":"８號","E_COORD97":181203.26999999999,"N_COORD97":2540577.27,"ADDRESS":"成功路３９２巷８號","OBJECTID":361920},"geometry":{"x":181203.27000000048,"y":2540577.2700000033}},{"attributes":{"ID":361931,"DIS_CODE":0,"TOWNNAME":"關廟區","LI":"東勢里","LIN":"19鄰","STREET":"東仁街","SECT":" ","MAREA":" ","LANE":"７６巷","ALLEY":" ","HOUSE_NO":"１６號","E_COORD97":181791.26999999999,"N_COORD97":2539258.25,"ADDRESS":"東仁街７６巷１６號","OBJECTID":361921},"geometry":{"x":181791.27000000142,"y":2539258.25}},{"attributes":{"ID":361932,"DIS_CODE":0,"TOWNNAME":"北區","LI":"成功里","LIN":"19鄰","STREET":"北成路","SECT":" ","MAREA":" ","LANE":"１８６巷","ALLEY":" ","HOUSE_NO":"６０號","E_COORD97":168894.67999999999,"N_COORD97":2546896.7000000002,"ADDRESS":"北成路１８６巷６０號","OBJECTID":361922},"geometry":{"x":168894.6799999997,"y":2546896.6999999993}},{"attributes":{"ID":361933,"DIS_CODE":0,"TOWNNAME":"安平區","LI":"石門里","LIN":"19鄰","STREET":"安平路","SECT":" ","MAREA":" ","LANE":"６８０巷","ALLEY":" ","HOUSE_NO":"１１號","E_COORD97":164621.51999999999,"N_COORD97":2544496.1800000002,"ADDRESS":"安平路６８０巷１１號","OBJECTID":361923},"geometry":{"x":164621.51999999955,"y":2544496.1799999997}},{"attributes":{"ID":361934,"DIS_CODE":0,"TOWNNAME":"安平區","LI":"石門里","LIN":"19鄰","STREET":"安平路","SECT":" ","MAREA":" ","LANE":"６８０巷","ALLEY":" ","HOUSE_NO":"１３號","E_COORD97":164624.62,"N_COORD97":2544499.79,"ADDRESS":"安平路６８０巷１３號","OBJECTID":361924},"geometry":{"x":164624.62000000104,"y":2544499.790000001}},{"attributes":{"ID":361935,"DIS_CODE":0,"TOWNNAME":"安平區","LI":"石門里","LIN":"19鄰","STREET":"安平路","SECT":" ","MAREA":" ","LANE":"６８０巷","ALLEY":" ","HOUSE_NO":"１號","E_COORD97":164595.47,"N_COORD97":2544477.6400000001,"ADDRESS":"安平路６８０巷１號","OBJECTID":361925},"geometry":{"x":164595.46999999974,"y":2544477.6400000006}},{"attributes":{"ID":361936,"DIS_CODE":0,"TOWNNAME":"安平區","LI":"石門里","LIN":"19鄰","STREET":"安平路","SECT":" ","MAREA":" ","LANE":"６８０巷","ALLEY":" ","HOUSE_NO":"２號","E_COORD97":164624.60999999999,"N_COORD97":2544472.9700000002,"ADDRESS":"安平路６８０巷２號","OBJECTID":361926},"geometry":{"x":164624.61000000127,"y":2544472.9700000025}},{"attributes":{"ID":361937,"DIS_CODE":0,"TOWNNAME":"安平區","LI":"石門里","LIN":"19鄰","STREET":"安平路","SECT":" ","MAREA":" ","LANE":"６８０巷","ALLEY":" ","HOUSE_NO":"３號","E_COORD97":164600.37,"N_COORD97":2544479.9500000002,"ADDRESS":"安平路６８０巷３號","OBJECTID":361927},"geometry":{"x":164600.37000000104,"y":2544479.9499999993}},{"attributes":{"ID":361938,"DIS_CODE":0,"TOWNNAME":"安平區","LI":"石門里","LIN":"19鄰","STREET":"安平路","SECT":" ","MAREA":" ","LANE":"６８０巷","ALLEY":" ","HOUSE_NO":"４號","E_COORD97":164628.47,"N_COORD97":2544474.52,"ADDRESS":"安平路６８０巷４號","OBJECTID":361928},"geometry":{"x":164628.47000000067,"y":2544474.5200000033}},{"attributes":{"ID":361939,"DIS_CODE":0,"TOWNNAME":"安平區","LI":"石門里","LIN":"19鄰","STREET":"安平路","SECT":" ","MAREA":" ","LANE":"６８０巷","ALLEY":" ","HOUSE_NO":"５號","E_COORD97":164602.69,"N_COORD97":2544483.2999999998,"ADDRESS":"安平路６８０巷５號","OBJECTID":361929},"geometry":{"x":164602.69000000041,"y":2544483.3000000007}},{"attributes":{"ID":361940,"DIS_CODE":0,"TOWNNAME":"安平區","LI":"石門里","LIN":"19鄰","STREET":"安平路","SECT":" ","MAREA":" ","LANE":"６８０巷","ALLEY":" ","HOUSE_NO":"６號","E_COORD97":164632.60000000001,"N_COORD97":2544478.1299999999,"ADDRESS":"安平路６８０巷６號","OBJECTID":361930},"geometry":{"x":164632.60000000056,"y":2544478.1300000008}},{"attributes":{"ID":361941,"DIS_CODE":0,"TOWNNAME":"安平區","LI":"石門里","LIN":"19鄰","STREET":"安平路","SECT":" ","MAREA":" ","LANE":"６８０巷","ALLEY":" ","HOUSE_NO":"７號","E_COORD97":164610.42999999999,"N_COORD97":2544488.4500000002,"ADDRESS":"安平路６８０巷７號","OBJECTID":361931},"geometry":{"x":164610.4299999997,"y":2544488.450000003}},{"attributes":{"ID":361942,"DIS_CODE":0,"TOWNNAME":"安平區","LI":"石門里","LIN":"19鄰","STREET":"安平路","SECT":" ","MAREA":" ","LANE":"６８０巷","ALLEY":" ","HOUSE_NO":"８號","E_COORD97":164636.73000000001,"N_COORD97":2544480.4500000002,"ADDRESS":"安平路６８０巷８號","OBJECTID":361932},"geometry":{"x":164636.73000000045,"y":2544480.4499999993}},{"attributes":{"ID":361943,"DIS_CODE":0,"TOWNNAME":"安平區","LI":"石門里","LIN":"19鄰","STREET":"安平路","SECT":" ","MAREA":" ","LANE":"６８０巷","ALLEY":" ","HOUSE_NO":"９號","E_COORD97":164618.17000000001,"N_COORD97":2544493.3500000001,"ADDRESS":"安平路６８０巷９號","OBJECTID":361933},"geometry":{"x":164618.16999999899,"y":2544493.3500000015}},{"attributes":{"ID":361944,"DIS_CODE":0,"TOWNNAME":"歸仁區","LI":"許厝里","LIN":"13鄰","STREET":"信義南路","SECT":" ","MAREA":" ","LANE":" ","ALLEY":" ","HOUSE_NO":"２９號","E_COORD97":178049.39999999999,"N_COORD97":2540639.1000000001,"ADDRESS":"信義南路２９號","OBJECTID":361934},"geometry":{"x":178049.40000000037,"y":2540639.0999999996}},{"attributes":{"ID":361945,"DIS_CODE":0,"TOWNNAME":"新市區","LI":"大社里","LIN":"32鄰","STREET":" ","SECT":" ","MAREA":"大社","LANE":" ","ALLEY":" ","HOUSE_NO":"２８４之５０號","E_COORD97":180611.31,"N_COORD97":2554693.0600000001,"ADDRESS":"大社２８４之５０號","OBJECTID":361935},"geometry":{"x":180611.31000000052,"y":2554693.0600000005}},{"attributes":{"ID":361946,"DIS_CODE":0,"TOWNNAME":"永康區","LI":"復華里","LIN":"32鄰","STREET":"國華街","SECT":" ","MAREA":" ","LANE":"１２５巷","ALLEY":" ","HOUSE_NO":"１５號","E_COORD97":172567.12,"N_COORD97":2546258.4900000002,"ADDRESS":"國華街１２５巷１５號","OBJECTID":361936},"geometry":{"x":172567.12000000011,"y":2546258.4900000002}},{"attributes":{"ID":361947,"DIS_CODE":0,"TOWNNAME":"永康區","LI":"東灣里","LIN":"32鄰","STREET":"大灣一街","SECT":" ","MAREA":" ","LANE":"３３６巷","ALLEY":" ","HOUSE_NO":"１１號","E_COORD97":175106.10000000001,"N_COORD97":2544723.0299999998,"ADDRESS":"大灣一街３３６巷１１號","OBJECTID":361937},"geometry":{"x":175106.09999999963,"y":2544723.0300000012}},{"attributes":{"ID":361948,"DIS_CODE":0,"TOWNNAME":"永康區","LI":"崑山里","LIN":"32鄰","STREET":"大灣路","SECT":" ","MAREA":" ","LANE":"７９８巷","ALLEY":" ","HOUSE_NO":"８４號","E_COORD97":174115.06,"N_COORD97":2544802.8599999999,"ADDRESS":"大灣路７９８巷８４號","OBJECTID":361938},"geometry":{"x":174115.06000000145,"y":2544802.8599999994}},{"attributes":{"ID":361949,"DIS_CODE":0,"TOWNNAME":"永康區","LI":"龍潭里","LIN":"32鄰","STREET":"龍國街","SECT":" ","MAREA":" ","LANE":"２４０巷","ALLEY":" ","HOUSE_NO":"２２號","E_COORD97":174474.85999999999,"N_COORD97":2547959.8599999999,"ADDRESS":"龍國街２４０巷２２號","OBJECTID":361939},"geometry":{"x":174474.8599999994,"y":2547959.8599999994}},{"attributes":{"ID":361950,"DIS_CODE":0,"TOWNNAME":"東區","LI":"東明里","LIN":"32鄰","STREET":"東寧路","SECT":" ","MAREA":" ","LANE":"２０１巷","ALLEY":" ","HOUSE_NO":"９５號","E_COORD97":170639.12,"N_COORD97":2543719.4100000001,"ADDRESS":"東寧路２０１巷９５號","OBJECTID":361940},"geometry":{"x":170639.12000000104,"y":2543719.4100000001}},{"attributes":{"ID":361951,"DIS_CODE":0,"TOWNNAME":"東區","LI":"泉南里","LIN":"32鄰","STREET":"府連路","SECT":" ","MAREA":" ","LANE":"３２６巷","ALLEY":" ","HOUSE_NO":"６號","E_COORD97":169560.56,"N_COORD97":2542788.8500000001,"ADDRESS":"府連路３２６巷６號","OBJECTID":361941},"geometry":{"x":169560.56000000052,"y":2542788.8500000015}},{"attributes":{"ID":361952,"DIS_CODE":0,"TOWNNAME":"東區","LI":"泉南里","LIN":"32鄰","STREET":"府連路","SECT":" ","MAREA":" ","LANE":"３２６巷","ALLEY":" ","HOUSE_NO":"１０號","E_COORD97":169559.23999999999,"N_COORD97":2542776.1000000001,"ADDRESS":"府連路３２６巷１０號","OBJECTID":361942},"geometry":{"x":169559.24000000022,"y":2542776.1000000015}},{"attributes":{"ID":361953,"DIS_CODE":0,"TOWNNAME":"東區","LI":"泉南里","LIN":"32鄰","STREET":"府連路","SECT":" ","MAREA":" ","LANE":"３２６巷","ALLEY":" ","HOUSE_NO":"１２號","E_COORD97":169558.79999999999,"N_COORD97":2542771.7000000002,"ADDRESS":"府連路３２６巷１２號","OBJECTID":361943},"geometry":{"x":169558.80000000168,"y":2542771.7000000011}},{"attributes":{"ID":361954,"DIS_CODE":0,"TOWNNAME":"東區","LI":"泉南里","LIN":"32鄰","STREET":"府連路","SECT":" ","MAREA":" ","LANE":"３２６巷","ALLEY":" ","HOUSE_NO":"１４號","E_COORD97":169559.23999999999,"N_COORD97":2542766.4300000002,"ADDRESS":"府連路３２６巷１４號","OBJECTID":361944},"geometry":{"x":169559.24000000022,"y":2542766.4299999978}},{"attributes":{"ID":361955,"DIS_CODE":0,"TOWNNAME":"安平區","LI":"石門里","LIN":"19鄰","STREET":"安平路","SECT":" ","MAREA":" ","LANE":"６８６巷","ALLEY":" ","HOUSE_NO":"１號","E_COORD97":164582.06,"N_COORD97":2544484.3300000001,"ADDRESS":"安平路６８６巷１號","OBJECTID":361945},"geometry":{"x":164582.06000000052,"y":2544484.3300000019}},{"attributes":{"ID":361956,"DIS_CODE":0,"TOWNNAME":"安平區","LI":"石門里","LIN":"19鄰","STREET":"安平路","SECT":" ","MAREA":" ","LANE":"６８６巷","ALLEY":" ","HOUSE_NO":"１號之１","E_COORD97":164581.54000000001,"N_COORD97":2544493.8599999999,"ADDRESS":"安平路６８６巷１號之１","OBJECTID":361946},"geometry":{"x":164581.54000000004,"y":2544493.8600000013}},{"attributes":{"ID":361957,"DIS_CODE":0,"TOWNNAME":"安平區","LI":"石門里","LIN":"19鄰","STREET":"安平路","SECT":" ","MAREA":" ","LANE":"６８６巷","ALLEY":" ","HOUSE_NO":"２號","E_COORD97":164586.95999999999,"N_COORD97":2544487.9300000002,"ADDRESS":"安平路６８６巷２號","OBJECTID":361947},"geometry":{"x":164586.95999999996,"y":2544487.9299999997}},{"attributes":{"ID":361958,"DIS_CODE":0,"TOWNNAME":"安平區","LI":"石門里","LIN":"19鄰","STREET":"安平路","SECT":" ","MAREA":" ","LANE":"６８６巷","ALLEY":" ","HOUSE_NO":"４號","E_COORD97":164592.63,"N_COORD97":2544496.96,"ADDRESS":"安平路６８６巷４號","OBJECTID":361948},"geometry":{"x":164592.62999999989,"y":2544496.9600000046}},{"attributes":{"ID":361959,"DIS_CODE":0,"TOWNNAME":"安平區","LI":"石門里","LIN":"19鄰","STREET":"安平路","SECT":" ","MAREA":" ","LANE":"６８６巷","ALLEY":" ","HOUSE_NO":"５號","E_COORD97":164595.20999999999,"N_COORD97":2544500.0499999998,"ADDRESS":"安平路６８６巷５號","OBJECTID":361949},"geometry":{"x":164595.20999999996,"y":2544500.0500000026}},{"attributes":{"ID":361960,"DIS_CODE":0,"TOWNNAME":"歸仁區","LI":"歸仁里","LIN":"13鄰","STREET":"文化街","SECT":"一段","MAREA":" ","LANE":" ","ALLEY":" ","HOUSE_NO":"１１５號","E_COORD97":177934.39000000001,"N_COORD97":2541119.0499999998,"ADDRESS":"文化街一段１１５號","OBJECTID":361950},"geometry":{"x":177934.3900000006,"y":2541119.0500000045}},{"attributes":{"ID":361961,"DIS_CODE":0,"TOWNNAME":"歸仁區","LI":"新厝里","LIN":"13鄰","STREET":"中正南路","SECT":"一段","MAREA":" ","LANE":" ","ALLEY":" ","HOUSE_NO":"９５號","E_COORD97":177560.70000000001,"N_COORD97":2540516.5899999999,"ADDRESS":"中正南路一段９５號","OBJECTID":361951},"geometry":{"x":177560.70000000019,"y":2540516.5899999999}},{"attributes":{"ID":361962,"DIS_CODE":0,"TOWNNAME":"歸仁區","LI":"南興里","LIN":"13鄰","STREET":"文化十八街","SECT":" ","MAREA":" ","LANE":" ","ALLEY":" ","HOUSE_NO":"１０號","E_COORD97":175863.19,"N_COORD97":2541247.3300000001,"ADDRESS":"文化十八街１０號","OBJECTID":361952},"geometry":{"x":175863.19000000134,"y":2541247.3300000001}},{"attributes":{"ID":361963,"DIS_CODE":0,"TOWNNAME":"歸仁區","LI":"媽廟里","LIN":"13鄰","STREET":"中正北路","SECT":"三段","MAREA":" ","LANE":" ","ALLEY":" ","HOUSE_NO":"９２號","E_COORD97":177592.70999999999,"N_COORD97":2543728.7200000002,"ADDRESS":"中正北路三段９２號","OBJECTID":361953},"geometry":{"x":177592.70999999996,"y":2543728.7200000044}},{"attributes":{"ID":361964,"DIS_CODE":0,"TOWNNAME":"關廟區","LI":"東勢里","LIN":"13鄰","STREET":"東榮街","SECT":" ","MAREA":" ","LANE":" ","ALLEY":" ","HOUSE_NO":"１１６號","E_COORD97":182116.17000000001,"N_COORD97":2539344.25,"ADDRESS":"東榮街１１６號","OBJECTID":361954},"geometry":{"x":182116.17000000086,"y":2539344.2500000019}},{"attributes":{"ID":361965,"DIS_CODE":0,"TOWNNAME":"關廟區","LI":"北勢里","LIN":"13鄰","STREET":"仁愛路","SECT":" ","MAREA":" ","LANE":" ","ALLEY":" ","HOUSE_NO":"２０５號","E_COORD97":181422.59,"N_COORD97":2540519.2799999998,"ADDRESS":"仁愛路２０５號","OBJECTID":361955},"geometry":{"x":181422.58999999985,"y":2540519.2800000031}},{"attributes":{"ID":361966,"DIS_CODE":0,"TOWNNAME":"關廟區","LI":"山西里","LIN":"13鄰","STREET":"文衡路","SECT":" ","MAREA":" ","LANE":" ","ALLEY":" ","HOUSE_NO":"１２５號","E_COORD97":180903.82000000001,"N_COORD97":2540529.7799999998,"ADDRESS":"文衡路１２５號","OBJECTID":361956},"geometry":{"x":180903.82000000123,"y":2540529.7800000031}},{"attributes":{"ID":361967,"DIS_CODE":0,"TOWNNAME":"關廟區","LI":"北勢里","LIN":"13鄰","STREET":"仁愛路","SECT":" ","MAREA":" ","LANE":" ","ALLEY":" ","HOUSE_NO":"２７７號","E_COORD97":181476.39000000001,"N_COORD97":2540658.2799999998,"ADDRESS":"仁愛路２７７號","OBJECTID":361957},"geometry":{"x":181476.38999999966,"y":2540658.2800000031}},{"attributes":{"ID":361968,"DIS_CODE":0,"TOWNNAME":"關廟區","LI":"東勢里","LIN":"13鄰","STREET":"東榮街","SECT":" ","MAREA":" ","LANE":" ","ALLEY":" ","HOUSE_NO":"１１８號","E_COORD97":182119.67000000001,"N_COORD97":2539347.25,"ADDRESS":"東榮街１１８號","OBJECTID":361958},"geometry":{"x":182119.67000000086,"y":2539347.2500000037}},{"attributes":{"ID":361969,"DIS_CODE":0,"TOWNNAME":"關廟區","LI":"松腳里","LIN":"13鄰","STREET":"和平路","SECT":" ","MAREA":" ","LANE":" ","ALLEY":" ","HOUSE_NO":"１７０號","E_COORD97":181692.44,"N_COORD97":2539633.25,"ADDRESS":"和平路１７０號","OBJECTID":361959},"geometry":{"x":181692.44000000041,"y":2539633.2500000019}},{"attributes":{"ID":361970,"DIS_CODE":0,"TOWNNAME":"東區","LI":"泉南里","LIN":"32鄰","STREET":"府連路","SECT":" ","MAREA":" ","LANE":"３２６巷","ALLEY":" ","HOUSE_NO":"３０號","E_COORD97":169556.60000000001,"N_COORD97":2542722.4500000002,"ADDRESS":"府連路３２６巷３０號","OBJECTID":361960},"geometry":{"x":169556.60000000149,"y":2542722.4500000011}},{"attributes":{"ID":361971,"DIS_CODE":0,"TOWNNAME":"東區","LI":"泉南里","LIN":"32鄰","STREET":"府連路","SECT":" ","MAREA":" ","LANE":"３２６巷","ALLEY":" ","HOUSE_NO":"３２號","E_COORD97":169557.70000000001,"N_COORD97":2542717.8300000001,"ADDRESS":"府連路３２６巷３２號","OBJECTID":361961},"geometry":{"x":169557.70000000019,"y":2542717.8300000019}},{"attributes":{"ID":361972,"DIS_CODE":0,"TOWNNAME":"東區","LI":"泉南里","LIN":"32鄰","STREET":"府連路","SECT":" ","MAREA":" ","LANE":"３２６巷","ALLEY":" ","HOUSE_NO":"３４號","E_COORD97":169557.04000000001,"N_COORD97":2542711.8999999999,"ADDRESS":"府連路３２６巷３４號","OBJECTID":361962},"geometry":{"x":169557.04000000004,"y":2542711.9000000004}},{"attributes":{"ID":361973,"DIS_CODE":0,"TOWNNAME":"東區","LI":"泉南里","LIN":"32鄰","STREET":"府連路","SECT":" ","MAREA":" ","LANE":"３２６巷","ALLEY":" ","HOUSE_NO":"３６號","E_COORD97":169553.29999999999,"N_COORD97":2542706.3999999999,"ADDRESS":"府連路３２６巷３６號","OBJECTID":361963},"geometry":{"x":169553.29999999981,"y":2542706.4000000041}},{"attributes":{"ID":361974,"DIS_CODE":0,"TOWNNAME":"安平區","LI":"石門里","LIN":"19鄰","STREET":"安平路","SECT":" ","MAREA":" ","LANE":"６８６巷","ALLEY":" ","HOUSE_NO":"６號","E_COORD97":164599.60000000001,"N_COORD97":2544502.6200000001,"ADDRESS":"安平路６８６巷６號","OBJECTID":361964},"geometry":{"x":164599.59999999963,"y":2544502.6200000048}},{"attributes":{"ID":361975,"DIS_CODE":0,"TOWNNAME":"安平區","LI":"石門里","LIN":"19鄰","STREET":"安平路","SECT":" ","MAREA":" ","LANE":"６８６巷","ALLEY":" ","HOUSE_NO":"７號","E_COORD97":164604.76000000001,"N_COORD97":2544505.46,"ADDRESS":"安平路６８６巷７號","OBJECTID":361965},"geometry":{"x":164604.76000000071,"y":2544505.4600000009}},{"attributes":{"ID":361976,"DIS_CODE":0,"TOWNNAME":"安平區","LI":"石門里","LIN":"19鄰","STREET":"安平路","SECT":" ","MAREA":" ","LANE":"６８６巷","ALLEY":" ","HOUSE_NO":"８號","E_COORD97":164611.20000000001,"N_COORD97":2544510.3500000001,"ADDRESS":"安平路６８６巷８號","OBJECTID":361966},"geometry":{"x":164611.20000000019,"y":2544510.3500000015}},{"attributes":{"ID":361977,"DIS_CODE":0,"TOWNNAME":"安平區","LI":"石門里","LIN":"19鄰","STREET":"安平路","SECT":" ","MAREA":" ","LANE":"６８６巷","ALLEY":" ","HOUSE_NO":"９號","E_COORD97":164613.78,"N_COORD97":2544512.4100000001,"ADDRESS":"安平路６８６巷９號","OBJECTID":361967},"geometry":{"x":164613.78000000026,"y":2544512.4100000001}},{"attributes":{"ID":361978,"DIS_CODE":0,"TOWNNAME":"安平區","LI":"石門里","LIN":"19鄰","STREET":"安平路","SECT":" ","MAREA":" ","LANE":"６９６巷","ALLEY":" ","HOUSE_NO":"１０號","E_COORD97":164563.14999999999,"N_COORD97":2544507.2000000002,"ADDRESS":"安平路６９６巷１０號","OBJECTID":361968},"geometry":{"x":164563.1500000013,"y":2544507.200000003}},{"attributes":{"ID":361979,"DIS_CODE":0,"TOWNNAME":"安平區","LI":"石門里","LIN":"19鄰","STREET":"安平路","SECT":" ","MAREA":" ","LANE":"６９６巷","ALLEY":" ","HOUSE_NO":"１１號","E_COORD97":164544.57000000001,"N_COORD97":2544530.2999999998,"ADDRESS":"安平路６９６巷１１號","OBJECTID":361969},"geometry":{"x":164544.5700000003,"y":2544530.3000000007}},{"attributes":{"ID":361980,"DIS_CODE":0,"TOWNNAME":"關廟區","LI":"關廟里","LIN":"13鄰","STREET":"大富街","SECT":" ","MAREA":" ","LANE":" ","ALLEY":" ","HOUSE_NO":"１８７號","E_COORD97":181051.07000000001,"N_COORD97":2539374.25,"ADDRESS":"大富街１８７號","OBJECTID":361970},"geometry":{"x":181051.07000000123,"y":2539374.2500000037}},{"attributes":{"ID":361981,"DIS_CODE":0,"TOWNNAME":"關廟區","LI":"南花里","LIN":"13鄰","STREET":"中正路","SECT":" ","MAREA":" ","LANE":" ","ALLEY":" ","HOUSE_NO":"８２７號","E_COORD97":181608.66,"N_COORD97":2540276.25,"ADDRESS":"中正路８２７號","OBJECTID":361971},"geometry":{"x":181608.66000000015,"y":2540276.2500000037}},{"attributes":{"ID":361982,"DIS_CODE":0,"TOWNNAME":"關廟區","LI":"北花里","LIN":"13鄰","STREET":"中正路","SECT":" ","MAREA":" ","LANE":" ","ALLEY":" ","HOUSE_NO":"２４９號","E_COORD97":183286.85999999999,"N_COORD97":2540872.25,"ADDRESS":"中正路２４９號","OBJECTID":361972},"geometry":{"x":183286.86000000127,"y":2540872.25}},{"attributes":{"ID":361983,"DIS_CODE":0,"TOWNNAME":"新化區","LI":"太平里","LIN":"13鄰","STREET":"中正路","SECT":" ","MAREA":" ","LANE":" ","ALLEY":" ","HOUSE_NO":"６２７號","E_COORD97":178925.51000000001,"N_COORD97":2548900.25,"ADDRESS":"中正路６２７號","OBJECTID":361973},"geometry":{"x":178925.51000000071,"y":2548900.25}},{"attributes":{"ID":361984,"DIS_CODE":0,"TOWNNAME":"南區","LI":"文南里","LIN":"13鄰","STREET":"育南街","SECT":" ","MAREA":" ","LANE":" ","ALLEY":" ","HOUSE_NO":"４８號","E_COORD97":166879.20000000001,"N_COORD97":2542672.25,"ADDRESS":"育南街４８號","OBJECTID":361974},"geometry":{"x":166879.20000000019,"y":2542672.25}},{"attributes":{"ID":361985,"DIS_CODE":0,"TOWNNAME":"新市區","LI":"新和里","LIN":"32鄰","STREET":"華興街","SECT":" ","MAREA":" ","LANE":"１５巷","ALLEY":" ","HOUSE_NO":"６號","E_COORD97":177794.89999999999,"N_COORD97":2552929.75,"ADDRESS":"華興街１５巷６號","OBJECTID":361975},"geometry":{"x":177794.90000000037,"y":2552929.7500000019}},{"attributes":{"ID":361986,"DIS_CODE":0,"TOWNNAME":"安平區","LI":"石門里","LIN":"19鄰","STREET":"安平路","SECT":" ","MAREA":" ","LANE":"６９６巷","ALLEY":" ","HOUSE_NO":"１２號","E_COORD97":164561.60000000001,"N_COORD97":2544514.4199999999,"ADDRESS":"安平路６９６巷１２號","OBJECTID":361976},"geometry":{"x":164561.60000000056,"y":2544514.4200000018}},{"attributes":{"ID":361987,"DIS_CODE":0,"TOWNNAME":"安平區","LI":"石門里","LIN":"19鄰","STREET":"安平路","SECT":" ","MAREA":" ","LANE":"６９６巷","ALLEY":" ","HOUSE_NO":"１３號","E_COORD97":164542.25,"N_COORD97":2544534.9399999999,"ADDRESS":"安平路６９６巷１３號","OBJECTID":361977},"geometry":{"x":164542.25000000093,"y":2544534.9399999995}},{"attributes":{"ID":361988,"DIS_CODE":0,"TOWNNAME":"安平區","LI":"石門里","LIN":"19鄰","STREET":"安平路","SECT":" ","MAREA":" ","LANE":"６９６巷","ALLEY":" ","HOUSE_NO":"１４號","E_COORD97":164565.47,"N_COORD97":2544524.46,"ADDRESS":"安平路６９６巷１４號","OBJECTID":361978},"geometry":{"x":164565.47000000067,"y":2544524.4600000028}},{"attributes":{"ID":361989,"DIS_CODE":0,"TOWNNAME":"安平區","LI":"石門里","LIN":"19鄰","STREET":"安平路","SECT":" ","MAREA":" ","LANE":"６９６巷","ALLEY":" ","HOUSE_NO":"１５號","E_COORD97":164540.19,"N_COORD97":2544538.9900000002,"ADDRESS":"安平路６９６巷１５號","OBJECTID":361979},"geometry":{"x":164540.19000000041,"y":2544538.9900000002}},{"attributes":{"ID":361990,"DIS_CODE":0,"TOWNNAME":"安平區","LI":"石門里","LIN":"19鄰","STREET":"安平路","SECT":" ","MAREA":" ","LANE":"６９６巷","ALLEY":" ","HOUSE_NO":"１６號","E_COORD97":164562.63,"N_COORD97":2544532.1899999999,"ADDRESS":"安平路６９６巷１６號","OBJECTID":361980},"geometry":{"x":164562.63000000175,"y":2544532.1900000013}},{"attributes":{"ID":361991,"DIS_CODE":0,"TOWNNAME":"安平區","LI":"石門里","LIN":"19鄰","STREET":"安平路","SECT":" ","MAREA":" ","LANE":"６９６巷","ALLEY":" ","HOUSE_NO":"１７號","E_COORD97":164536.32000000001,"N_COORD97":2544546.7200000002,"ADDRESS":"安平路６９６巷１７號","OBJECTID":361981},"geometry":{"x":164536.32000000216,"y":2544546.7200000025}},{"attributes":{"ID":361992,"DIS_CODE":0,"TOWNNAME":"安平區","LI":"石門里","LIN":"19鄰","STREET":"安平路","SECT":" ","MAREA":" ","LANE":"６９６巷","ALLEY":" ","HOUSE_NO":"１８號","E_COORD97":164563.39999999999,"N_COORD97":2544536.5699999998,"ADDRESS":"安平路６９６巷１８號","OBJECTID":361982},"geometry":{"x":164563.4000000013,"y":2544536.5700000022}},{"attributes":{"ID":361993,"DIS_CODE":0,"TOWNNAME":"安平區","LI":"石門里","LIN":"19鄰","STREET":"安平路","SECT":" ","MAREA":" ","LANE":"６９６巷","ALLEY":" ","HOUSE_NO":"１９號","E_COORD97":164544.06,"N_COORD97":2544552.6499999999,"ADDRESS":"安平路６９６巷１９號","OBJECTID":361983},"geometry":{"x":164544.06000000145,"y":2544552.6500000041}},{"attributes":{"ID":361994,"DIS_CODE":0,"TOWNNAME":"安平區","LI":"石門里","LIN":"19鄰","STREET":"安平路","SECT":" ","MAREA":" ","LANE":"６９６巷","ALLEY":" ","HOUSE_NO":"１號","E_COORD97":164548.44,"N_COORD97":2544485.98,"ADDRESS":"安平路６９６巷１號","OBJECTID":361984},"geometry":{"x":164548.44000000041,"y":2544485.9800000042}},{"attributes":{"ID":361995,"DIS_CODE":0,"TOWNNAME":"安平區","LI":"石門里","LIN":"19鄰","STREET":"安平路","SECT":" ","MAREA":" ","LANE":"６９６巷","ALLEY":" ","HOUSE_NO":"２０號","E_COORD97":164563.39999999999,"N_COORD97":2544540.4399999999,"ADDRESS":"安平路６９６巷２０號","OBJECTID":361985},"geometry":{"x":164563.4000000013,"y":2544540.4400000013}},{"attributes":{"ID":361996,"DIS_CODE":0,"TOWNNAME":"安平區","LI":"石門里","LIN":"19鄰","STREET":"安平路","SECT":" ","MAREA":" ","LANE":"６９６巷","ALLEY":" ","HOUSE_NO":"２１號","E_COORD97":164541.98999999999,"N_COORD97":2544557.54,"ADDRESS":"安平路６９６巷２１號","OBJECTID":361986},"geometry":{"x":164541.99000000115,"y":2544557.5399999991}},{"attributes":{"ID":361997,"DIS_CODE":0,"TOWNNAME":"安平區","LI":"石門里","LIN":"19鄰","STREET":"安平路","SECT":" ","MAREA":" ","LANE":"６９６巷","ALLEY":" ","HOUSE_NO":"２２號","E_COORD97":164563.14999999999,"N_COORD97":2544544.2999999998,"ADDRESS":"安平路６９６巷２２號","OBJECTID":361987},"geometry":{"x":164563.1500000013,"y":2544544.3000000007}},{"attributes":{"ID":361998,"DIS_CODE":0,"TOWNNAME":"安平區","LI":"石門里","LIN":"19鄰","STREET":"安平路","SECT":" ","MAREA":" ","LANE":"６９６巷","ALLEY":" ","HOUSE_NO":"２４號","E_COORD97":164562.89000000001,"N_COORD97":2544548.1600000001,"ADDRESS":"安平路６９６巷２４號","OBJECTID":361988},"geometry":{"x":164562.8900000006,"y":2544548.1600000001}},{"attributes":{"ID":361999,"DIS_CODE":0,"TOWNNAME":"安平區","LI":"石門里","LIN":"19鄰","STREET":"安平路","SECT":" ","MAREA":" ","LANE":"６９６巷","ALLEY":" ","HOUSE_NO":"２號","E_COORD97":164566.23999999999,"N_COORD97":2544484.6000000001,"ADDRESS":"安平路６９６巷２號","OBJECTID":361989},"geometry":{"x":164566.24000000115,"y":2544484.6000000015}},{"attributes":{"ID":362000,"DIS_CODE":0,"TOWNNAME":"安平區","LI":"石門里","LIN":"19鄰","STREET":"安平路","SECT":" ","MAREA":" ","LANE":"６９６巷","ALLEY":" ","HOUSE_NO":"３號","E_COORD97":164548.17999999999,"N_COORD97":2544501.1800000002,"ADDRESS":"安平路６９６巷３號","OBJECTID":361990},"geometry":{"x":164548.1799999997,"y":2544501.1800000016}},{"attributes":{"ID":362001,"DIS_CODE":0,"TOWNNAME":"安平區","LI":"石門里","LIN":"19鄰","STREET":"安平路","SECT":" ","MAREA":" ","LANE":"６９６巷","ALLEY":" ","HOUSE_NO":"４號","E_COORD97":164567.01000000001,"N_COORD97":2544491.4900000002,"ADDRESS":"安平路６９６巷４號","OBJECTID":361991},"geometry":{"x":164567.01000000071,"y":2544491.4900000002}},{"attributes":{"ID":362002,"DIS_CODE":0,"TOWNNAME":"安平區","LI":"石門里","LIN":"19鄰","STREET":"安平路","SECT":" ","MAREA":" ","LANE":"６９６巷","ALLEY":" ","HOUSE_NO":"５號","E_COORD97":164546.38,"N_COORD97":2544508.3999999999,"ADDRESS":"安平路６９６巷５號","OBJECTID":361992},"geometry":{"x":164546.38000000082,"y":2544508.4000000022}},{"attributes":{"ID":362003,"DIS_CODE":0,"TOWNNAME":"安平區","LI":"石門里","LIN":"19鄰","STREET":"安平路","SECT":" ","MAREA":" ","LANE":"６９６巷","ALLEY":" ","HOUSE_NO":"６號","E_COORD97":164566.76000000001,"N_COORD97":2544497.1600000001,"ADDRESS":"安平路６９６巷６號","OBJECTID":361993},"geometry":{"x":164566.76000000164,"y":2544497.1600000001}},{"attributes":{"ID":362004,"DIS_CODE":0,"TOWNNAME":"安平區","LI":"石門里","LIN":"19鄰","STREET":"安平路","SECT":" ","MAREA":" ","LANE":"６９６巷","ALLEY":" ","HOUSE_NO":"７號","E_COORD97":164545.35000000001,"N_COORD97":2544514.5899999999,"ADDRESS":"安平路６９６巷７號","OBJECTID":361994},"geometry":{"x":164545.34999999963,"y":2544514.5899999999}},{"attributes":{"ID":362005,"DIS_CODE":0,"TOWNNAME":"安平區","LI":"石門里","LIN":"19鄰","STREET":"安平路","SECT":" ","MAREA":" ","LANE":"６９６巷","ALLEY":" ","HOUSE_NO":"８號","E_COORD97":164563.66,"N_COORD97":2544502.5699999998,"ADDRESS":"安平路６９６巷８號","OBJECTID":361995},"geometry":{"x":164563.66000000015,"y":2544502.5700000022}},{"attributes":{"ID":362006,"DIS_CODE":0,"TOWNNAME":"安平區","LI":"石門里","LIN":"19鄰","STREET":"安平路","SECT":" ","MAREA":" ","LANE":"６９６巷","ALLEY":" ","HOUSE_NO":"９號","E_COORD97":164544.82999999999,"N_COORD97":2544521.54,"ADDRESS":"安平路６９６巷９號","OBJECTID":361996},"geometry":{"x":164544.83000000101,"y":2544521.5400000028}},{"attributes":{"ID":362007,"DIS_CODE":0,"TOWNNAME":"麻豆區","LI":"油車里","LIN":"19鄰","STREET":"新生北路","SECT":" ","MAREA":" ","LANE":"８２巷","ALLEY":" ","HOUSE_NO":"５３號","E_COORD97":172347.78,"N_COORD97":2565264.77,"ADDRESS":"新生北路８２巷５３號","OBJECTID":361997},"geometry":{"x":172347.78000000026,"y":2565264.7699999996}},{"attributes":{"ID":362008,"DIS_CODE":0,"TOWNNAME":"南區","LI":"同安里","LIN":"13鄰","STREET":"明興路","SECT":" ","MAREA":" ","LANE":" ","ALLEY":" ","HOUSE_NO":"１３２１號","E_COORD97":166397.01999999999,"N_COORD97":2535993.46,"ADDRESS":"明興路１３２１號","OBJECTID":361998},"geometry":{"x":166397.01999999862,"y":2535993.459999999}},{"attributes":{"ID":362009,"DIS_CODE":0,"TOWNNAME":"中西區","LI":"西賢里","LIN":"32鄰","STREET":"西賢六街","SECT":" ","MAREA":" ","LANE":"１３巷","ALLEY":" ","HOUSE_NO":"４２號","E_COORD97":165050.38,"N_COORD97":2544693.3199999998,"ADDRESS":"西賢六街１３巷４２號","OBJECTID":361999},"geometry":{"x":165050.37999999989,"y":2544693.3200000003}},{"attributes":{"ID":362010,"DIS_CODE":0,"TOWNNAME":"中西區","LI":"西賢里","LIN":"32鄰","STREET":"西賢六街","SECT":" ","MAREA":" ","LANE":"１３巷","ALLEY":" ","HOUSE_NO":"４３號","E_COORD97":165002.10999999999,"N_COORD97":2544714.8599999999,"ADDRESS":"西賢六街１３巷４３號","OBJECTID":362000},"geometry":{"x":165002.1099999994,"y":2544714.8599999994}}]}