{"displayFieldName":"TOWNNAME","fieldAliases":{"ID":"ID","DIS_CODE":"DIS_CODE","TOWNNAME":"TOWNNAME","LI":"LI","LIN":"LIN","STREET":"STREET","SECT":"SECT","MAREA":"MAREA","LANE":"LANE","ALLEY":"ALLEY","HOUSE_NO":"HOUSE_NO","E_COORD97":"E_COORD97","N_COORD97":"N_COORD97","ADDRESS":"ADDRESS","OBJECTID":"OBJECTID"},"geometryType":"esriGeometryPoint","spatialReference":{"wkid":102443,"latestWkid":3826},"fields":[{"name":"ID","type":"esriFieldTypeDouble","alias":"ID"},{"name":"DIS_CODE","type":"esriFieldTypeInteger","alias":"DIS_CODE"},{"name":"TOWNNAME","type":"esriFieldTypeString","alias":"TOWNNAME","length":8},{"name":"LI","type":"esriFieldTypeString","alias":"LI","length":8},{"name":"LIN","type":"esriFieldTypeString","alias":"LIN","length":12},{"name":"STREET","type":"esriFieldTypeString","alias":"STREET","length":20},{"name":"SECT","type":"esriFieldTypeString","alias":"SECT","length":8},{"name":"MAREA","type":"esriFieldTypeString","alias":"MAREA","length":12},{"name":"LANE","type":"esriFieldTypeString","alias":"LANE","length":10},{"name":"ALLEY","type":"esriFieldTypeString","alias":"ALLEY","length":10},{"name":"HOUSE_NO","type":"esriFieldTypeString","alias":"HOUSE_NO","length":20},{"name":"E_COORD97","type":"esriFieldTypeDouble","alias":"E_COORD97"},{"name":"N_COORD97","type":"esriFieldTypeDouble","alias":"N_COORD97"},{"name":"ADDRESS","type":"esriFieldTypeString","alias":"ADDRESS","length":50},{"name":"OBJECTID","type":"esriFieldTypeOID","alias":"OBJECTID"}],"features":[{"attributes":{"ID":20601,"DIS_CODE":0,"TOWNNAME":"佳里區","LI":"海澄里","LIN":"17鄰","STREET":" ","SECT":" ","MAREA":"番子寮","LANE":" ","ALLEY":" ","HOUSE_NO":"１３６號之５８","E_COORD97":163876.72,"N_COORD97":2564478.5800000001,"ADDRESS":"番子寮１３６號之５８","OBJECTID":20601},"geometry":{"x":163876.71999999974,"y":2564478.5800000019}},{"attributes":{"ID":20602,"DIS_CODE":0,"TOWNNAME":"佳里區","LI":"海澄里","LIN":"17鄰","STREET":" ","SECT":" ","MAREA":"番子寮","LANE":" ","ALLEY":" ","HOUSE_NO":"１３６號之５９","E_COORD97":163877,"N_COORD97":2564471.7599999998,"ADDRESS":"番子寮１３６號之５９","OBJECTID":20602},"geometry":{"x":163877.00000000186,"y":2564471.7599999998}},{"attributes":{"ID":20603,"DIS_CODE":0,"TOWNNAME":"佳里區","LI":"海澄里","LIN":"17鄰","STREET":" ","SECT":" ","MAREA":"番子寮","LANE":" ","ALLEY":" ","HOUSE_NO":"１３６號之５","E_COORD97":163839.89000000001,"N_COORD97":2564515.77,"ADDRESS":"番子寮１３６號之５","OBJECTID":20603},"geometry":{"x":163839.88999999966,"y":2564515.7699999996}},{"attributes":{"ID":20604,"DIS_CODE":0,"TOWNNAME":"佳里區","LI":"海澄里","LIN":"17鄰","STREET":" ","SECT":" ","MAREA":"番子寮","LANE":" ","ALLEY":" ","HOUSE_NO":"１３６號之６０","E_COORD97":163877.04999999999,"N_COORD97":2564465.5800000001,"ADDRESS":"番子寮１３６號之６０","OBJECTID":20604},"geometry":{"x":163877.05000000075,"y":2564465.5800000019}},{"attributes":{"ID":20605,"DIS_CODE":0,"TOWNNAME":"佳里區","LI":"海澄里","LIN":"17鄰","STREET":" ","SECT":" ","MAREA":"番子寮","LANE":" ","ALLEY":" ","HOUSE_NO":"１３６號之６１","E_COORD97":163877.32000000001,"N_COORD97":2564458.9500000002,"ADDRESS":"番子寮１３６號之６１","OBJECTID":20605},"geometry":{"x":163877.32000000123,"y":2564458.9500000011}},{"attributes":{"ID":20606,"DIS_CODE":0,"TOWNNAME":"佳里區","LI":"海澄里","LIN":"17鄰","STREET":" ","SECT":" ","MAREA":"番子寮","LANE":" ","ALLEY":" ","HOUSE_NO":"１３６號之６２","E_COORD97":163877.39999999999,"N_COORD97":2564452.6400000001,"ADDRESS":"番子寮１３６號之６２","OBJECTID":20606},"geometry":{"x":163877.40000000037,"y":2564452.6400000025}},{"attributes":{"ID":20607,"DIS_CODE":0,"TOWNNAME":"佳里區","LI":"海澄里","LIN":"17鄰","STREET":" ","SECT":" ","MAREA":"番子寮","LANE":" ","ALLEY":" ","HOUSE_NO":"１３６號之６３","E_COORD97":163878.01000000001,"N_COORD97":2564445.8100000001,"ADDRESS":"番子寮１３６號之６３","OBJECTID":20607},"geometry":{"x":163878.00999999978,"y":2564445.8100000005}},{"attributes":{"ID":20608,"DIS_CODE":0,"TOWNNAME":"佳里區","LI":"海澄里","LIN":"17鄰","STREET":" ","SECT":" ","MAREA":"番子寮","LANE":" ","ALLEY":" ","HOUSE_NO":"１３６號之６４","E_COORD97":163877.54999999999,"N_COORD97":2564438.9500000002,"ADDRESS":"番子寮１３６號之６４","OBJECTID":20608},"geometry":{"x":163877.54999999981,"y":2564438.9500000011}},{"attributes":{"ID":20609,"DIS_CODE":0,"TOWNNAME":"佳里區","LI":"海澄里","LIN":"17鄰","STREET":" ","SECT":" ","MAREA":"番子寮","LANE":" ","ALLEY":" ","HOUSE_NO":"１３６號之６５","E_COORD97":163877.92000000001,"N_COORD97":2564432.5600000001,"ADDRESS":"番子寮１３６號之６５","OBJECTID":20609},"geometry":{"x":163877.92000000086,"y":2564432.5600000024}},{"attributes":{"ID":20610,"DIS_CODE":0,"TOWNNAME":"佳里區","LI":"海澄里","LIN":"17鄰","STREET":" ","SECT":" ","MAREA":"番子寮","LANE":" ","ALLEY":" ","HOUSE_NO":"１３６號之６６","E_COORD97":163877.81,"N_COORD97":2564426.1200000001,"ADDRESS":"番子寮１３６號之６６","OBJECTID":20610},"geometry":{"x":163877.81000000145,"y":2564426.1200000029}},{"attributes":{"ID":20611,"DIS_CODE":0,"TOWNNAME":"佳里區","LI":"海澄里","LIN":"17鄰","STREET":" ","SECT":" ","MAREA":"番子寮","LANE":" ","ALLEY":" ","HOUSE_NO":"１３６號之６７","E_COORD97":163878.14999999999,"N_COORD97":2564419.9399999999,"ADDRESS":"番子寮１３６號之６７","OBJECTID":20611},"geometry":{"x":163878.15000000224,"y":2564419.9399999995}},{"attributes":{"ID":20612,"DIS_CODE":0,"TOWNNAME":"佳里區","LI":"海澄里","LIN":"17鄰","STREET":" ","SECT":" ","MAREA":"番子寮","LANE":" ","ALLEY":" ","HOUSE_NO":"１３６號之６８","E_COORD97":163878.57000000001,"N_COORD97":2564413.3599999999,"ADDRESS":"番子寮１３６號之６８","OBJECTID":20612},"geometry":{"x":163878.57000000216,"y":2564413.3599999994}},{"attributes":{"ID":20613,"DIS_CODE":0,"TOWNNAME":"鹽水區","LI":"岸內里","LIN":"24鄰","STREET":"和平路","SECT":" ","MAREA":" ","LANE":" ","ALLEY":" ","HOUSE_NO":"１６３號","E_COORD97":175446.97,"N_COORD97":2580561.6099999999,"ADDRESS":"和平路１６３號","OBJECTID":20613},"geometry":{"x":175446.97000000067,"y":2580561.6100000013}},{"attributes":{"ID":20614,"DIS_CODE":0,"TOWNNAME":"鹽水區","LI":"岸內里","LIN":"24鄰","STREET":"和平路","SECT":" ","MAREA":" ","LANE":" ","ALLEY":" ","HOUSE_NO":"１６５號","E_COORD97":175442.53,"N_COORD97":2580561.23,"ADDRESS":"和平路１６５號","OBJECTID":20614},"geometry":{"x":175442.53000000026,"y":2580561.2300000042}},{"attributes":{"ID":20615,"DIS_CODE":0,"TOWNNAME":"鹽水區","LI":"岸內里","LIN":"24鄰","STREET":"和平路","SECT":" ","MAREA":" ","LANE":" ","ALLEY":" ","HOUSE_NO":"１６７號","E_COORD97":175438.03,"N_COORD97":2580560.7999999998,"ADDRESS":"和平路１６７號","OBJECTID":20615},"geometry":{"x":175438.03000000026,"y":2580560.8000000007}},{"attributes":{"ID":20616,"DIS_CODE":0,"TOWNNAME":"鹽水區","LI":"岸內里","LIN":"24鄰","STREET":"和平路","SECT":" ","MAREA":" ","LANE":" ","ALLEY":" ","HOUSE_NO":"１６９號","E_COORD97":175433.01999999999,"N_COORD97":2580560.0800000001,"ADDRESS":"和平路１６９號","OBJECTID":20616},"geometry":{"x":175433.02000000048,"y":2580560.0800000019}},{"attributes":{"ID":20617,"DIS_CODE":0,"TOWNNAME":"北區","LI":"大港里","LIN":" ","STREET":"中華北路","SECT":"一段","MAREA":" ","LANE":" ","ALLEY":" ","HOUSE_NO":"１６６號","E_COORD97":166595.10000000001,"N_COORD97":2546018.73,"ADDRESS":"中華北路一段１６６號","OBJECTID":20617},"geometry":{"x":166595.10000000149,"y":2546018.7300000004}},{"attributes":{"ID":20618,"DIS_CODE":0,"TOWNNAME":"北區","LI":"大港里","LIN":" ","STREET":"中華北路","SECT":"一段","MAREA":" ","LANE":" ","ALLEY":" ","HOUSE_NO":"１６２之１號","E_COORD97":166480.45000000001,"N_COORD97":2545732.5299999998,"ADDRESS":"中華北路一段１６２之１號","OBJECTID":20618},"geometry":{"x":166480.45000000112,"y":2545732.5300000012}},{"attributes":{"ID":20619,"DIS_CODE":0,"TOWNNAME":"北區","LI":"大港里","LIN":" ","STREET":"中華北路","SECT":"一段","MAREA":" ","LANE":" ","ALLEY":" ","HOUSE_NO":"１６２之２號","E_COORD97":166479.12,"N_COORD97":2545739.9500000002,"ADDRESS":"中華北路一段１６２之２號","OBJECTID":20619},"geometry":{"x":166479.12000000104,"y":2545739.9500000011}},{"attributes":{"ID":20620,"DIS_CODE":0,"TOWNNAME":"北區","LI":"大港里","LIN":" ","STREET":"中華北路","SECT":"一段","MAREA":" ","LANE":" ","ALLEY":" ","HOUSE_NO":"１６２之６號","E_COORD97":166475.66,"N_COORD97":2545755.1499999999,"ADDRESS":"中華北路一段１６２之６號","OBJECTID":20620},"geometry":{"x":166475.66000000015,"y":2545755.1500000004}},{"attributes":{"ID":20621,"DIS_CODE":0,"TOWNNAME":"北區","LI":"賢北里","LIN":"14鄰","STREET":"大興街","SECT":" ","MAREA":" ","LANE":"５１５巷","ALLEY":"１弄","HOUSE_NO":"１３號","E_COORD97":166152.35999999999,"N_COORD97":2545477.3300000001,"ADDRESS":"大興街５１５巷１弄１３號","OBJECTID":20621},"geometry":{"x":166152.36000000127,"y":2545477.3300000019}},{"attributes":{"ID":20622,"DIS_CODE":0,"TOWNNAME":"北區","LI":"賢北里","LIN":"14鄰","STREET":"大興街","SECT":" ","MAREA":" ","LANE":"５１５巷","ALLEY":"１弄","HOUSE_NO":"１４號","E_COORD97":166159.35999999999,"N_COORD97":2545461.2599999998,"ADDRESS":"大興街５１５巷１弄１４號","OBJECTID":20622},"geometry":{"x":166159.36000000034,"y":2545461.2600000016}},{"attributes":{"ID":20623,"DIS_CODE":0,"TOWNNAME":"北區","LI":"賢北里","LIN":"14鄰","STREET":"大興街","SECT":" ","MAREA":" ","LANE":"５１５巷","ALLEY":"１弄","HOUSE_NO":"１５號","E_COORD97":166156.26999999999,"N_COORD97":2545479.0800000001,"ADDRESS":"大興街５１５巷１弄１５號","OBJECTID":20623},"geometry":{"x":166156.26999999955,"y":2545479.0800000019}},{"attributes":{"ID":20624,"DIS_CODE":0,"TOWNNAME":"北區","LI":"賢北里","LIN":"14鄰","STREET":"大興街","SECT":" ","MAREA":" ","LANE":"５１５巷","ALLEY":"１弄","HOUSE_NO":"１６號","E_COORD97":166163.26000000001,"N_COORD97":2545463.0099999998,"ADDRESS":"大興街５１５巷１弄１６號","OBJECTID":20624},"geometry":{"x":166163.25999999978,"y":2545463.0100000016}},{"attributes":{"ID":20625,"DIS_CODE":0,"TOWNNAME":"北區","LI":"賢北里","LIN":"14鄰","STREET":"大興街","SECT":" ","MAREA":" ","LANE":"５１５巷","ALLEY":"１弄","HOUSE_NO":"１７號","E_COORD97":166160.84,"N_COORD97":2545481.5,"ADDRESS":"大興街５１５巷１弄１７號","OBJECTID":20625},"geometry":{"x":166160.83999999985,"y":2545481.5}},{"attributes":{"ID":20626,"DIS_CODE":0,"TOWNNAME":"北區","LI":"賢北里","LIN":"14鄰","STREET":"大興街","SECT":" ","MAREA":" ","LANE":"５１５巷","ALLEY":"１弄","HOUSE_NO":"１８號","E_COORD97":166167.84,"N_COORD97":2545465.4300000002,"ADDRESS":"大興街５１５巷１弄１８號","OBJECTID":20626},"geometry":{"x":166167.83999999985,"y":2545465.4300000034}},{"attributes":{"ID":20627,"DIS_CODE":0,"TOWNNAME":"北區","LI":"賢北里","LIN":"14鄰","STREET":"大興街","SECT":" ","MAREA":" ","LANE":"５１５巷","ALLEY":"１弄","HOUSE_NO":"１９號","E_COORD97":166165.42000000001,"N_COORD97":2545483.25,"ADDRESS":"大興街５１５巷１弄１９號","OBJECTID":20627},"geometry":{"x":166165.41999999993,"y":2545483.25}},{"attributes":{"ID":20628,"DIS_CODE":0,"TOWNNAME":"北區","LI":"賢北里","LIN":"14鄰","STREET":"大興街","SECT":" ","MAREA":" ","LANE":"５１５巷","ALLEY":"１弄","HOUSE_NO":"１號","E_COORD97":166129.22,"N_COORD97":2545467.1200000001,"ADDRESS":"大興街５１５巷１弄１號","OBJECTID":20628},"geometry":{"x":166129.21999999974,"y":2545467.1200000029}},{"attributes":{"ID":20629,"DIS_CODE":0,"TOWNNAME":"北區","LI":"賢北里","LIN":"14鄰","STREET":"大興街","SECT":" ","MAREA":" ","LANE":"５１５巷","ALLEY":"１弄","HOUSE_NO":"２０號","E_COORD97":166172.41,"N_COORD97":2545467.1800000002,"ADDRESS":"大興街５１５巷１弄２０號","OBJECTID":20629},"geometry":{"x":166172.41000000015,"y":2545467.1800000034}},{"attributes":{"ID":20630,"DIS_CODE":0,"TOWNNAME":"北區","LI":"賢北里","LIN":"14鄰","STREET":"大興街","SECT":" ","MAREA":" ","LANE":"５１５巷","ALLEY":"１弄","HOUSE_NO":"２號","E_COORD97":166136.20999999999,"N_COORD97":2545451.0499999998,"ADDRESS":"大興街５１５巷１弄２號","OBJECTID":20630},"geometry":{"x":166136.20999999996,"y":2545451.0500000007}},{"attributes":{"ID":20631,"DIS_CODE":0,"TOWNNAME":"北區","LI":"賢北里","LIN":"14鄰","STREET":"大興街","SECT":" ","MAREA":" ","LANE":"５１５巷","ALLEY":"１弄","HOUSE_NO":"３號","E_COORD97":166132.45000000001,"N_COORD97":2545468.73,"ADDRESS":"大興街５１５巷１弄３號","OBJECTID":20631},"geometry":{"x":166132.45000000112,"y":2545468.7300000023}},{"attributes":{"ID":20632,"DIS_CODE":0,"TOWNNAME":"北區","LI":"賢北里","LIN":"14鄰","STREET":"大興街","SECT":" ","MAREA":" ","LANE":"５１５巷","ALLEY":"１弄","HOUSE_NO":"４號","E_COORD97":166139.44,"N_COORD97":2545452.6600000001,"ADDRESS":"大興街５１５巷１弄４號","OBJECTID":20632},"geometry":{"x":166139.44000000134,"y":2545452.6600000001}},{"attributes":{"ID":20633,"DIS_CODE":0,"TOWNNAME":"北區","LI":"賢北里","LIN":"14鄰","STREET":"大興街","SECT":" ","MAREA":" ","LANE":"５１５巷","ALLEY":"１弄","HOUSE_NO":"５號","E_COORD97":166136.35000000001,"N_COORD97":2545470.48,"ADDRESS":"大興街５１５巷１弄５號","OBJECTID":20633},"geometry":{"x":166136.35000000056,"y":2545470.4800000023}},{"attributes":{"ID":20634,"DIS_CODE":0,"TOWNNAME":"北區","LI":"賢北里","LIN":"14鄰","STREET":"大興街","SECT":" ","MAREA":" ","LANE":"５１５巷","ALLEY":"１弄","HOUSE_NO":"６號","E_COORD97":166143.34,"N_COORD97":2545454.4100000001,"ADDRESS":"大興街５１５巷１弄６號","OBJECTID":20634},"geometry":{"x":166143.34000000078,"y":2545454.4100000001}},{"attributes":{"ID":20635,"DIS_CODE":0,"TOWNNAME":"北區","LI":"賢北里","LIN":"14鄰","STREET":"大興街","SECT":" ","MAREA":" ","LANE":"５１５巷","ALLEY":"１弄","HOUSE_NO":"７號","E_COORD97":166140.39000000001,"N_COORD97":2545472.0899999999,"ADDRESS":"大興街５１５巷１弄７號","OBJECTID":20635},"geometry":{"x":166140.38999999873,"y":2545472.0900000017}},{"attributes":{"ID":20636,"DIS_CODE":0,"TOWNNAME":"北區","LI":"賢北里","LIN":"14鄰","STREET":"大興街","SECT":" ","MAREA":" ","LANE":"５１５巷","ALLEY":"１弄","HOUSE_NO":"８號","E_COORD97":166147.38,"N_COORD97":2545456.02,"ADDRESS":"大興街５１５巷１弄８號","OBJECTID":20636},"geometry":{"x":166147.37999999989,"y":2545456.0200000014}},{"attributes":{"ID":20637,"DIS_CODE":0,"TOWNNAME":"北區","LI":"賢北里","LIN":"14鄰","STREET":"大興街","SECT":" ","MAREA":" ","LANE":"５１５巷","ALLEY":"１弄","HOUSE_NO":"９號","E_COORD97":166144.95999999999,"N_COORD97":2545474.2400000002,"ADDRESS":"大興街５１５巷１弄９號","OBJECTID":20637},"geometry":{"x":166144.95999999996,"y":2545474.2400000021}},{"attributes":{"ID":20638,"DIS_CODE":0,"TOWNNAME":"北區","LI":"永祥里","LIN":"14鄰","STREET":"實踐街","SECT":" ","MAREA":" ","LANE":"１０３巷","ALLEY":"２５弄","HOUSE_NO":"１０號","E_COORD97":170153.45999999999,"N_COORD97":2546209.1200000001,"ADDRESS":"實踐街１０３巷２５弄１０號","OBJECTID":20638},"geometry":{"x":170153.46000000089,"y":2546209.1200000029}},{"attributes":{"ID":20639,"DIS_CODE":0,"TOWNNAME":"北區","LI":"永祥里","LIN":"14鄰","STREET":"實踐街","SECT":" ","MAREA":" ","LANE":"１０３巷","ALLEY":"２５弄","HOUSE_NO":"１２號","E_COORD97":170147.14999999999,"N_COORD97":2546208.7400000002,"ADDRESS":"實踐街１０３巷２５弄１２號","OBJECTID":20639},"geometry":{"x":170147.1500000013,"y":2546208.7400000002}},{"attributes":{"ID":20640,"DIS_CODE":0,"TOWNNAME":"北區","LI":"永祥里","LIN":"14鄰","STREET":"實踐街","SECT":" ","MAREA":" ","LANE":"１０３巷","ALLEY":"２５弄","HOUSE_NO":"１３號","E_COORD97":170129.85000000001,"N_COORD97":2546197.6600000001,"ADDRESS":"實踐街１０３巷２５弄１３號","OBJECTID":20640},"geometry":{"x":170129.85000000056,"y":2546197.660000002}},{"attributes":{"ID":20641,"DIS_CODE":0,"TOWNNAME":"北區","LI":"永祥里","LIN":"14鄰","STREET":"實踐街","SECT":" ","MAREA":" ","LANE":"１０３巷","ALLEY":"２５弄","HOUSE_NO":"１４號","E_COORD97":170141.79000000001,"N_COORD97":2546208.8399999999,"ADDRESS":"實踐街１０３巷２５弄１４號","OBJECTID":20641},"geometry":{"x":170141.79000000004,"y":2546208.8400000036}},{"attributes":{"ID":20642,"DIS_CODE":0,"TOWNNAME":"北區","LI":"永祥里","LIN":"14鄰","STREET":"實踐街","SECT":" ","MAREA":" ","LANE":"１０３巷","ALLEY":"２５弄","HOUSE_NO":"１５號","E_COORD97":170124.10999999999,"N_COORD97":2546197.3700000001,"ADDRESS":"實踐街１０３巷２５弄１５號","OBJECTID":20642},"geometry":{"x":170124.11000000127,"y":2546197.3700000029}},{"attributes":{"ID":20643,"DIS_CODE":0,"TOWNNAME":"安平區","LI":"文平里","LIN":"24鄰","STREET":"永華二街","SECT":" ","MAREA":" ","LANE":" ","ALLEY":" ","HOUSE_NO":"１７號","E_COORD97":166329.89999999999,"N_COORD97":2542874.3399999999,"ADDRESS":"永華二街１７號","OBJECTID":20643},"geometry":{"x":166329.9000000013,"y":2542874.3399999999}},{"attributes":{"ID":20644,"DIS_CODE":0,"TOWNNAME":"安平區","LI":"怡平里","LIN":"24鄰","STREET":"文平路","SECT":" ","MAREA":" ","LANE":" ","ALLEY":" ","HOUSE_NO":"３４９號","E_COORD97":165764.47,"N_COORD97":2543560.4199999999,"ADDRESS":"文平路３４９號","OBJECTID":20644},"geometry":{"x":165764.47000000067,"y":2543560.4200000037}},{"attributes":{"ID":20645,"DIS_CODE":0,"TOWNNAME":"安平區","LI":"怡平里","LIN":"24鄰","STREET":"文平路","SECT":" ","MAREA":" ","LANE":" ","ALLEY":" ","HOUSE_NO":"３５１號","E_COORD97":165765.92999999999,"N_COORD97":2543565.96,"ADDRESS":"文平路３５１號","OBJECTID":20645},"geometry":{"x":165765.93000000063,"y":2543565.9600000028}},{"attributes":{"ID":20646,"DIS_CODE":0,"TOWNNAME":"佳里區","LI":"海澄里","LIN":"17鄰","STREET":" ","SECT":" ","MAREA":"番子寮","LANE":" ","ALLEY":" ","HOUSE_NO":"１３６號之６９","E_COORD97":163878.70999999999,"N_COORD97":2564406.77,"ADDRESS":"番子寮１３６號之６９","OBJECTID":20646},"geometry":{"x":163878.70999999996,"y":2564406.7699999996}},{"attributes":{"ID":20647,"DIS_CODE":0,"TOWNNAME":"佳里區","LI":"海澄里","LIN":"17鄰","STREET":" ","SECT":" ","MAREA":"番子寮","LANE":" ","ALLEY":" ","HOUSE_NO":"１３６號之６","E_COORD97":163840.14999999999,"N_COORD97":2564510.6400000001,"ADDRESS":"番子寮１３６號之６","OBJECTID":20647},"geometry":{"x":163840.15000000037,"y":2564510.6400000006}},{"attributes":{"ID":20648,"DIS_CODE":0,"TOWNNAME":"北區","LI":"永祥里","LIN":"14鄰","STREET":"實踐街","SECT":" ","MAREA":" ","LANE":"１０３巷","ALLEY":"２５弄","HOUSE_NO":"１６號","E_COORD97":170135.76999999999,"N_COORD97":2546208.6499999999,"ADDRESS":"實踐街１０３巷２５弄１６號","OBJECTID":20648},"geometry":{"x":170135.77000000048,"y":2546208.6500000022}},{"attributes":{"ID":20649,"DIS_CODE":0,"TOWNNAME":"北區","LI":"永祥里","LIN":"14鄰","STREET":"實踐街","SECT":" ","MAREA":" ","LANE":"１０３巷","ALLEY":"２５弄","HOUSE_NO":"１７號","E_COORD97":170118.09,"N_COORD97":2546197.8399999999,"ADDRESS":"實踐街１０３巷２５弄１７號","OBJECTID":20649},"geometry":{"x":170118.09000000078,"y":2546197.8399999999}},{"attributes":{"ID":20650,"DIS_CODE":0,"TOWNNAME":"北區","LI":"永祥里","LIN":"14鄰","STREET":"實踐街","SECT":" ","MAREA":" ","LANE":"１０３巷","ALLEY":"２５弄","HOUSE_NO":"１８號","E_COORD97":170130.32000000001,"N_COORD97":2546208.5600000001,"ADDRESS":"實踐街１０３巷２５弄１８號","OBJECTID":20650},"geometry":{"x":170130.31999999937,"y":2546208.5600000024}},{"attributes":{"ID":20651,"DIS_CODE":0,"TOWNNAME":"北區","LI":"永祥里","LIN":"14鄰","STREET":"實踐街","SECT":" ","MAREA":" ","LANE":"１０３巷","ALLEY":"２５弄","HOUSE_NO":"１９號","E_COORD97":170112.54000000001,"N_COORD97":2546198.0299999998,"ADDRESS":"實踐街１０３巷２５弄１９號","OBJECTID":20651},"geometry":{"x":170112.54000000004,"y":2546198.0300000012}},{"attributes":{"ID":20652,"DIS_CODE":0,"TOWNNAME":"北區","LI":"永祥里","LIN":"14鄰","STREET":"實踐街","SECT":" ","MAREA":" ","LANE":"１０３巷","ALLEY":"２５弄","HOUSE_NO":"１號","E_COORD97":170166.25,"N_COORD97":2546197.8599999999,"ADDRESS":"實踐街１０３巷２５弄１號","OBJECTID":20652},"geometry":{"x":170166.25000000186,"y":2546197.8600000031}},{"attributes":{"ID":20653,"DIS_CODE":0,"TOWNNAME":"北區","LI":"永祥里","LIN":"14鄰","STREET":"實踐街","SECT":" ","MAREA":" ","LANE":"１０３巷","ALLEY":"２５弄","HOUSE_NO":"２０號","E_COORD97":170124.29999999999,"N_COORD97":2546208.46,"ADDRESS":"實踐街１０３巷２５弄２０號","OBJECTID":20653},"geometry":{"x":170124.29999999981,"y":2546208.4600000009}},{"attributes":{"ID":20654,"DIS_CODE":0,"TOWNNAME":"北區","LI":"永祥里","LIN":"14鄰","STREET":"實踐街","SECT":" ","MAREA":" ","LANE":"１０３巷","ALLEY":"２５弄","HOUSE_NO":"２１號","E_COORD97":170106.14999999999,"N_COORD97":2546197.9399999999,"ADDRESS":"實踐街１０３巷２５弄２１號","OBJECTID":20654},"geometry":{"x":170106.15000000224,"y":2546197.9400000013}},{"attributes":{"ID":20655,"DIS_CODE":0,"TOWNNAME":"北區","LI":"永祥里","LIN":"14鄰","STREET":"實踐街","SECT":" ","MAREA":" ","LANE":"１０３巷","ALLEY":"２５弄","HOUSE_NO":"２２號","E_COORD97":170118.84,"N_COORD97":2546208.3700000001,"ADDRESS":"實踐街１０３巷２５弄２２號","OBJECTID":20655},"geometry":{"x":170118.83999999985,"y":2546208.370000001}},{"attributes":{"ID":20656,"DIS_CODE":0,"TOWNNAME":"北區","LI":"永祥里","LIN":"14鄰","STREET":"實踐街","SECT":" ","MAREA":" ","LANE":"１０３巷","ALLEY":"２５弄","HOUSE_NO":"２４號","E_COORD97":170112.35000000001,"N_COORD97":2546208.6499999999,"ADDRESS":"實踐街１０３巷２５弄２４號","OBJECTID":20656},"geometry":{"x":170112.34999999963,"y":2546208.6500000022}},{"attributes":{"ID":20657,"DIS_CODE":0,"TOWNNAME":"北區","LI":"永祥里","LIN":"14鄰","STREET":"實踐街","SECT":" ","MAREA":" ","LANE":"１０３巷","ALLEY":"２５弄","HOUSE_NO":"２６號","E_COORD97":170106.42999999999,"N_COORD97":2546208.6499999999,"ADDRESS":"實踐街１０３巷２５弄２６號","OBJECTID":20657},"geometry":{"x":170106.4299999997,"y":2546208.6500000022}},{"attributes":{"ID":20658,"DIS_CODE":0,"TOWNNAME":"北區","LI":"永祥里","LIN":"14鄰","STREET":"實踐街","SECT":" ","MAREA":" ","LANE":"１０３巷","ALLEY":"２５弄","HOUSE_NO":"２８號","E_COORD97":170101.44,"N_COORD97":2546208.8399999999,"ADDRESS":"實踐街１０３巷２５弄２８號","OBJECTID":20658},"geometry":{"x":170101.44000000134,"y":2546208.8400000036}},{"attributes":{"ID":20659,"DIS_CODE":0,"TOWNNAME":"學甲區","LI":"大灣里","LIN":"17鄰","STREET":" ","SECT":" ","MAREA":"大灣","LANE":" ","ALLEY":" ","HOUSE_NO":"１７４號之１","E_COORD97":166552.19,"N_COORD97":2567553.4100000001,"ADDRESS":"大灣１７４號之１","OBJECTID":20659},"geometry":{"x":166552.19000000041,"y":2567553.4100000001}},{"attributes":{"ID":20660,"DIS_CODE":0,"TOWNNAME":"北區","LI":"永祥里","LIN":"14鄰","STREET":"實踐街","SECT":" ","MAREA":" ","LANE":"１０３巷","ALLEY":"２５弄","HOUSE_NO":"２號","E_COORD97":170175.84,"N_COORD97":2546209.7799999998,"ADDRESS":"實踐街１０３巷２５弄２號","OBJECTID":20660},"geometry":{"x":170175.84000000078,"y":2546209.7800000012}},{"attributes":{"ID":20661,"DIS_CODE":0,"TOWNNAME":"北區","LI":"永祥里","LIN":"14鄰","STREET":"實踐街","SECT":" ","MAREA":" ","LANE":"１０３巷","ALLEY":"２５弄","HOUSE_NO":"３號","E_COORD97":170158.53,"N_COORD97":2546197.4700000002,"ADDRESS":"實踐街１０３巷２５弄３號","OBJECTID":20661},"geometry":{"x":170158.53000000119,"y":2546197.4700000007}},{"attributes":{"ID":20662,"DIS_CODE":0,"TOWNNAME":"北區","LI":"永祥里","LIN":"14鄰","STREET":"實踐街","SECT":" ","MAREA":" ","LANE":"１０３巷","ALLEY":"２５弄","HOUSE_NO":"４號","E_COORD97":170171.14000000001,"N_COORD97":2546209.3999999999,"ADDRESS":"實踐街１０３巷２５弄４號","OBJECTID":20662},"geometry":{"x":170171.13999999966,"y":2546209.4000000022}},{"attributes":{"ID":20663,"DIS_CODE":0,"TOWNNAME":"北區","LI":"永祥里","LIN":"14鄰","STREET":"實踐街","SECT":" ","MAREA":" ","LANE":"１０３巷","ALLEY":"２５弄","HOUSE_NO":"５號","E_COORD97":170152.70000000001,"N_COORD97":2546197.4700000002,"ADDRESS":"實踐街１０３巷２５弄５號","OBJECTID":20663},"geometry":{"x":170152.70000000019,"y":2546197.4700000007}},{"attributes":{"ID":20664,"DIS_CODE":0,"TOWNNAME":"歸仁區","LI":"南保里","LIN":"59鄰","STREET":"中山路","SECT":"三段","MAREA":" ","LANE":"８１巷","ALLEY":"２３弄","HOUSE_NO":"３４號","E_COORD97":176806.44,"N_COORD97":2540769.0299999998,"ADDRESS":"中山路三段８１巷２３弄３４號","OBJECTID":20664},"geometry":{"x":176806.44000000041,"y":2540769.0300000012}},{"attributes":{"ID":20665,"DIS_CODE":0,"TOWNNAME":"北區","LI":"永祥里","LIN":"14鄰","STREET":"實踐街","SECT":" ","MAREA":" ","LANE":"１０３巷","ALLEY":"２５弄","HOUSE_NO":"６號","E_COORD97":170165.12,"N_COORD97":2546209.3100000001,"ADDRESS":"實踐街１０３巷２５弄６號","OBJECTID":20665},"geometry":{"x":170165.12000000011,"y":2546209.3099999987}},{"attributes":{"ID":20666,"DIS_CODE":0,"TOWNNAME":"北區","LI":"永祥里","LIN":"14鄰","STREET":"實踐街","SECT":" ","MAREA":" ","LANE":"１０３巷","ALLEY":"２５弄","HOUSE_NO":"７號","E_COORD97":170146.78,"N_COORD97":2546197.8399999999,"ADDRESS":"實踐街１０３巷２５弄７號","OBJECTID":20666},"geometry":{"x":170146.78000000026,"y":2546197.8399999999}},{"attributes":{"ID":20667,"DIS_CODE":0,"TOWNNAME":"北區","LI":"永祥里","LIN":"14鄰","STREET":"實踐街","SECT":" ","MAREA":" ","LANE":"１０３巷","ALLEY":"２５弄","HOUSE_NO":"８號","E_COORD97":170158.72,"N_COORD97":2546209.1200000001,"ADDRESS":"實踐街１０３巷２５弄８號","OBJECTID":20667},"geometry":{"x":170158.71999999974,"y":2546209.1200000029}},{"attributes":{"ID":20668,"DIS_CODE":0,"TOWNNAME":"北區","LI":"永祥里","LIN":"14鄰","STREET":"實踐街","SECT":" ","MAREA":" ","LANE":"１０３巷","ALLEY":"２５弄","HOUSE_NO":"９號","E_COORD97":170141.42000000001,"N_COORD97":2546197.9399999999,"ADDRESS":"實踐街１０３巷２５弄９號","OBJECTID":20668},"geometry":{"x":170141.42000000086,"y":2546197.9400000013}},{"attributes":{"ID":20669,"DIS_CODE":0,"TOWNNAME":"北區","LI":"永祥里","LIN":"14鄰","STREET":"實踐街","SECT":" ","MAREA":" ","LANE":"１０３巷","ALLEY":"２７弄","HOUSE_NO":"１１號","E_COORD97":170153.66,"N_COORD97":2546227.3900000001,"ADDRESS":"實踐街１０３巷２７弄１１號","OBJECTID":20669},"geometry":{"x":170153.66000000108,"y":2546227.3900000025}},{"attributes":{"ID":20670,"DIS_CODE":0,"TOWNNAME":"北區","LI":"永祥里","LIN":"14鄰","STREET":"實踐街","SECT":" ","MAREA":" ","LANE":"１０３巷","ALLEY":"２７弄","HOUSE_NO":"１３號","E_COORD97":170147.54000000001,"N_COORD97":2546227.1000000001,"ADDRESS":"實踐街１０３巷２７弄１３號","OBJECTID":20670},"geometry":{"x":170147.54000000097,"y":2546227.1000000034}},{"attributes":{"ID":20671,"DIS_CODE":0,"TOWNNAME":"北區","LI":"永祥里","LIN":"14鄰","STREET":"實踐街","SECT":" ","MAREA":" ","LANE":"１０３巷","ALLEY":"２７弄","HOUSE_NO":"１５號","E_COORD97":170141.23999999999,"N_COORD97":2546226.8199999998,"ADDRESS":"實踐街１０３巷２７弄１５號","OBJECTID":20671},"geometry":{"x":170141.24000000115,"y":2546226.8200000022}},{"attributes":{"ID":20672,"DIS_CODE":0,"TOWNNAME":"北區","LI":"永祥里","LIN":"14鄰","STREET":"實踐街","SECT":" ","MAREA":" ","LANE":"１０３巷","ALLEY":"２７弄","HOUSE_NO":"１７號","E_COORD97":170135.5,"N_COORD97":2546227.48,"ADDRESS":"實踐街１０３巷２７弄１７號","OBJECTID":20672},"geometry":{"x":170135.5,"y":2546227.4800000004}},{"attributes":{"ID":20673,"DIS_CODE":0,"TOWNNAME":"北區","LI":"永祥里","LIN":"14鄰","STREET":"實踐街","SECT":" ","MAREA":" ","LANE":"１０３巷","ALLEY":"２７弄","HOUSE_NO":"１９號","E_COORD97":170130.42999999999,"N_COORD97":2546227.48,"ADDRESS":"實踐街１０３巷２７弄１９號","OBJECTID":20673},"geometry":{"x":170130.4299999997,"y":2546227.4800000004}},{"attributes":{"ID":20674,"DIS_CODE":0,"TOWNNAME":"北區","LI":"永祥里","LIN":"14鄰","STREET":"實踐街","SECT":" ","MAREA":" ","LANE":"１０３巷","ALLEY":"２７弄","HOUSE_NO":"１號","E_COORD97":170182.72,"N_COORD97":2546227.9500000002,"ADDRESS":"實踐街１０３巷２７弄１號","OBJECTID":20674},"geometry":{"x":170182.71999999974,"y":2546227.9500000011}},{"attributes":{"ID":20675,"DIS_CODE":0,"TOWNNAME":"北區","LI":"永祥里","LIN":"14鄰","STREET":"實踐街","SECT":" ","MAREA":" ","LANE":"１０３巷","ALLEY":"２７弄","HOUSE_NO":"２１號","E_COORD97":170124.41,"N_COORD97":2546227.48,"ADDRESS":"實踐街１０３巷２７弄２１號","OBJECTID":20675},"geometry":{"x":170124.41000000015,"y":2546227.4800000004}},{"attributes":{"ID":20676,"DIS_CODE":0,"TOWNNAME":"北區","LI":"永祥里","LIN":"14鄰","STREET":"實踐街","SECT":" ","MAREA":" ","LANE":"１０３巷","ALLEY":"２７弄","HOUSE_NO":"２３號","E_COORD97":170118.39000000001,"N_COORD97":2546227.1000000001,"ADDRESS":"實踐街１０３巷２７弄２３號","OBJECTID":20676},"geometry":{"x":170118.38999999966,"y":2546227.1000000034}},{"attributes":{"ID":20677,"DIS_CODE":0,"TOWNNAME":"北區","LI":"永祥里","LIN":"14鄰","STREET":"實踐街","SECT":" ","MAREA":" ","LANE":"１０３巷","ALLEY":"２７弄","HOUSE_NO":"２５號","E_COORD97":170112.60000000001,"N_COORD97":2546227.8199999998,"ADDRESS":"實踐街１０３巷２７弄２５號","OBJECTID":20677},"geometry":{"x":170112.60000000149,"y":2546227.8200000022}},{"attributes":{"ID":20678,"DIS_CODE":0,"TOWNNAME":"東山區","LI":"青山里","LIN":"8鄰","STREET":" ","SECT":" ","MAREA":"青山","LANE":" ","ALLEY":" ","HOUSE_NO":"７３號","E_COORD97":197889.95999999999,"N_COORD97":2574943.7400000002,"ADDRESS":"青山７３號","OBJECTID":20678},"geometry":{"x":197889.96000000089,"y":2574943.7400000021}},{"attributes":{"ID":20679,"DIS_CODE":0,"TOWNNAME":"北區","LI":"永祥里","LIN":"14鄰","STREET":"實踐街","SECT":" ","MAREA":" ","LANE":"１０３巷","ALLEY":"２７弄","HOUSE_NO":"２７號","E_COORD97":170105.60000000001,"N_COORD97":2546227.4300000002,"ADDRESS":"實踐街１０３巷２７弄２７號","OBJECTID":20679},"geometry":{"x":170105.59999999963,"y":2546227.4299999997}},{"attributes":{"ID":20680,"DIS_CODE":0,"TOWNNAME":"佳里區","LI":"海澄里","LIN":"17鄰","STREET":" ","SECT":" ","MAREA":"番子寮","LANE":" ","ALLEY":" ","HOUSE_NO":"１３６號之７０","E_COORD97":163878.82999999999,"N_COORD97":2564400.79,"ADDRESS":"番子寮１３６號之７０","OBJECTID":20680},"geometry":{"x":163878.83000000101,"y":2564400.7900000028}},{"attributes":{"ID":20681,"DIS_CODE":0,"TOWNNAME":"北區","LI":"永祥里","LIN":"14鄰","STREET":"實踐街","SECT":" ","MAREA":" ","LANE":"１０３巷","ALLEY":"２７弄","HOUSE_NO":"２９號","E_COORD97":170098.10999999999,"N_COORD97":2546226.0499999998,"ADDRESS":"實踐街１０３巷２７弄２９號","OBJECTID":20681},"geometry":{"x":170098.11000000127,"y":2546226.0500000026}},{"attributes":{"ID":20682,"DIS_CODE":0,"TOWNNAME":"北區","LI":"永祥里","LIN":"14鄰","STREET":"實踐街","SECT":" ","MAREA":" ","LANE":"１０３巷","ALLEY":"２７弄","HOUSE_NO":"３號","E_COORD97":170176.04000000001,"N_COORD97":2546227.7599999998,"ADDRESS":"實踐街１０３巷２７弄３號","OBJECTID":20682},"geometry":{"x":170176.0400000019,"y":2546227.7599999998}},{"attributes":{"ID":20683,"DIS_CODE":0,"TOWNNAME":"北區","LI":"永祥里","LIN":"14鄰","STREET":"實踐街","SECT":" ","MAREA":" ","LANE":"１０３巷","ALLEY":"２７弄","HOUSE_NO":"５號","E_COORD97":170170.29999999999,"N_COORD97":2546227.7599999998,"ADDRESS":"實踐街１０３巷２７弄５號","OBJECTID":20683},"geometry":{"x":170170.29999999981,"y":2546227.7599999998}},{"attributes":{"ID":20684,"DIS_CODE":0,"TOWNNAME":"北區","LI":"永祥里","LIN":"14鄰","STREET":"實踐街","SECT":" ","MAREA":" ","LANE":"１０３巷","ALLEY":"２７弄","HOUSE_NO":"７號","E_COORD97":170164.57000000001,"N_COORD97":2546227.48,"ADDRESS":"實踐街１０３巷２７弄７號","OBJECTID":20684},"geometry":{"x":170164.57000000123,"y":2546227.4800000004}},{"attributes":{"ID":20685,"DIS_CODE":0,"TOWNNAME":"北區","LI":"永祥里","LIN":"14鄰","STREET":"實踐街","SECT":" ","MAREA":" ","LANE":"１０３巷","ALLEY":"２７弄","HOUSE_NO":"９號","E_COORD97":170158.64000000001,"N_COORD97":2546227.3900000001,"ADDRESS":"實踐街１０３巷２７弄９號","OBJECTID":20685},"geometry":{"x":170158.6400000006,"y":2546227.3900000025}},{"attributes":{"ID":20686,"DIS_CODE":0,"TOWNNAME":"北區","LI":"小康里","LIN":"14鄰","STREET":"大武街","SECT":" ","MAREA":" ","LANE":"３３７巷","ALLEY":"２弄","HOUSE_NO":"１０號","E_COORD97":169756.48000000001,"N_COORD97":2546396.9199999999,"ADDRESS":"大武街３３７巷２弄１０號","OBJECTID":20686},"geometry":{"x":169756.48000000231,"y":2546396.9199999999}},{"attributes":{"ID":20687,"DIS_CODE":0,"TOWNNAME":"北區","LI":"小康里","LIN":"14鄰","STREET":"大武街","SECT":" ","MAREA":" ","LANE":"３３７巷","ALLEY":"２弄","HOUSE_NO":"１２號","E_COORD97":169761.23999999999,"N_COORD97":2546397.75,"ADDRESS":"大武街３３７巷２弄１２號","OBJECTID":20687},"geometry":{"x":169761.23999999929,"y":2546397.75}},{"attributes":{"ID":20688,"DIS_CODE":0,"TOWNNAME":"北區","LI":"小康里","LIN":"14鄰","STREET":"大武街","SECT":" ","MAREA":" ","LANE":"３３７巷","ALLEY":"２弄","HOUSE_NO":"１４號","E_COORD97":169765.82000000001,"N_COORD97":2546398.75,"ADDRESS":"大武街３３７巷２弄１４號","OBJECTID":20688},"geometry":{"x":169765.81999999937,"y":2546398.75}},{"attributes":{"ID":20689,"DIS_CODE":0,"TOWNNAME":"北區","LI":"小康里","LIN":"14鄰","STREET":"大武街","SECT":" ","MAREA":" ","LANE":"３３７巷","ALLEY":"２弄","HOUSE_NO":"１６號","E_COORD97":169770.57999999999,"N_COORD97":2546399.48,"ADDRESS":"大武街３３７巷２弄１６號","OBJECTID":20689},"geometry":{"x":169770.58000000007,"y":2546399.4800000023}},{"attributes":{"ID":20690,"DIS_CODE":0,"TOWNNAME":"北區","LI":"小康里","LIN":"14鄰","STREET":"大武街","SECT":" ","MAREA":" ","LANE":"３３７巷","ALLEY":"２弄","HOUSE_NO":"２０號","E_COORD97":169780.84,"N_COORD97":2546401.1299999999,"ADDRESS":"大武街３３７巷２弄２０號","OBJECTID":20690},"geometry":{"x":169780.84000000078,"y":2546401.129999999}},{"attributes":{"ID":20691,"DIS_CODE":0,"TOWNNAME":"學甲區","LI":"中洲里","LIN":"17鄰","STREET":" ","SECT":" ","MAREA":"中洲","LANE":" ","ALLEY":" ","HOUSE_NO":"１７９號","E_COORD97":163578.04999999999,"N_COORD97":2570871.7999999998,"ADDRESS":"中洲１７９號","OBJECTID":20691},"geometry":{"x":163578.04999999888,"y":2570871.8000000026}},{"attributes":{"ID":20692,"DIS_CODE":0,"TOWNNAME":"北區","LI":"小康里","LIN":"14鄰","STREET":"大武街","SECT":" ","MAREA":" ","LANE":"３３７巷","ALLEY":"２弄","HOUSE_NO":"２２號","E_COORD97":169785.87,"N_COORD97":2546402.23,"ADDRESS":"大武街３３７巷２弄２２號","OBJECTID":20692},"geometry":{"x":169785.87000000197,"y":2546402.2300000004}},{"attributes":{"ID":20693,"DIS_CODE":0,"TOWNNAME":"北區","LI":"小康里","LIN":"14鄰","STREET":"大武街","SECT":" ","MAREA":" ","LANE":"３３７巷","ALLEY":"２弄","HOUSE_NO":"２４號","E_COORD97":169791.25,"N_COORD97":2546403.4199999999,"ADDRESS":"大武街３３７巷２弄２４號","OBJECTID":20693},"geometry":{"x":169791.25,"y":2546403.4199999999}},{"attributes":{"ID":20694,"DIS_CODE":0,"TOWNNAME":"北區","LI":"小康里","LIN":"14鄰","STREET":"大武街","SECT":" ","MAREA":" ","LANE":"３３７巷","ALLEY":"２弄","HOUSE_NO":"２６號","E_COORD97":169796.29000000001,"N_COORD97":2546404.6099999999,"ADDRESS":"大武街３３７巷２弄２６號","OBJECTID":20694},"geometry":{"x":169796.28999999911,"y":2546404.6100000013}},{"attributes":{"ID":20695,"DIS_CODE":0,"TOWNNAME":"北區","LI":"小康里","LIN":"14鄰","STREET":"大武街","SECT":" ","MAREA":" ","LANE":"３３７巷","ALLEY":"２弄","HOUSE_NO":"２８號","E_COORD97":169801.60000000001,"N_COORD97":2546405.3399999999,"ADDRESS":"大武街３３７巷２弄２８號","OBJECTID":20695},"geometry":{"x":169801.59999999963,"y":2546405.3400000036}},{"attributes":{"ID":20696,"DIS_CODE":0,"TOWNNAME":"北區","LI":"小康里","LIN":"14鄰","STREET":"大武街","SECT":" ","MAREA":" ","LANE":"３３７巷","ALLEY":"２弄","HOUSE_NO":"２號","E_COORD97":169738.54000000001,"N_COORD97":2546392.9900000002,"ADDRESS":"大武街３３７巷２弄２號","OBJECTID":20696},"geometry":{"x":169738.54000000004,"y":2546392.9900000002}},{"attributes":{"ID":20697,"DIS_CODE":0,"TOWNNAME":"北區","LI":"小康里","LIN":"14鄰","STREET":"大武街","SECT":" ","MAREA":" ","LANE":"３３７巷","ALLEY":"２弄","HOUSE_NO":"３０號","E_COORD97":169807.54999999999,"N_COORD97":2546406.5299999998,"ADDRESS":"大武街３３７巷２弄３０號","OBJECTID":20697},"geometry":{"x":169807.54999999981,"y":2546406.5299999975}},{"attributes":{"ID":20698,"DIS_CODE":0,"TOWNNAME":"北區","LI":"小康里","LIN":"14鄰","STREET":"大武街","SECT":" ","MAREA":" ","LANE":"３３７巷","ALLEY":"２弄","HOUSE_NO":"３２號","E_COORD97":169813.32000000001,"N_COORD97":2546407.6299999999,"ADDRESS":"大武街３３７巷２弄３２號","OBJECTID":20698},"geometry":{"x":169813.31999999937,"y":2546407.629999999}},{"attributes":{"ID":20699,"DIS_CODE":0,"TOWNNAME":"北區","LI":"小康里","LIN":"14鄰","STREET":"大武街","SECT":" ","MAREA":" ","LANE":"３３７巷","ALLEY":"２弄","HOUSE_NO":"４號","E_COORD97":169742.57000000001,"N_COORD97":2546393.9900000002,"ADDRESS":"大武街３３７巷２弄４號","OBJECTID":20699},"geometry":{"x":169742.57000000123,"y":2546393.9900000002}},{"attributes":{"ID":20700,"DIS_CODE":0,"TOWNNAME":"北區","LI":"小康里","LIN":"14鄰","STREET":"大武街","SECT":" ","MAREA":" ","LANE":"３３７巷","ALLEY":"２弄","HOUSE_NO":"６號","E_COORD97":169746.41,"N_COORD97":2546394.73,"ADDRESS":"大武街３３７巷２弄６號","OBJECTID":20700},"geometry":{"x":169746.40999999922,"y":2546394.7300000023}},{"attributes":{"ID":20701,"DIS_CODE":0,"TOWNNAME":"北區","LI":"小康里","LIN":"14鄰","STREET":"大武街","SECT":" ","MAREA":" ","LANE":"３３７巷","ALLEY":"２弄","HOUSE_NO":"８號","E_COORD97":169751.72,"N_COORD97":2546395.8199999998,"ADDRESS":"大武街３３７巷２弄８號","OBJECTID":20701},"geometry":{"x":169751.71999999974,"y":2546395.820000004}},{"attributes":{"ID":20702,"DIS_CODE":0,"TOWNNAME":"安平區","LI":"文平里","LIN":"14鄰","STREET":"建平五街","SECT":" ","MAREA":" ","LANE":"２２巷","ALLEY":"１５弄","HOUSE_NO":"１３之１號","E_COORD97":166039.64000000001,"N_COORD97":2543160,"ADDRESS":"建平五街２２巷１５弄１３之１號","OBJECTID":20702},"geometry":{"x":166039.63999999966,"y":2543160.0000000019}},{"attributes":{"ID":20703,"DIS_CODE":0,"TOWNNAME":"安平區","LI":"文平里","LIN":"14鄰","STREET":"建平五街","SECT":" ","MAREA":" ","LANE":"２２巷","ALLEY":"１５弄","HOUSE_NO":"１３號","E_COORD97":166047.42000000001,"N_COORD97":2543158.2599999998,"ADDRESS":"建平五街２２巷１５弄１３號","OBJECTID":20703},"geometry":{"x":166047.42000000179,"y":2543158.2600000016}},{"attributes":{"ID":20704,"DIS_CODE":0,"TOWNNAME":"安平區","LI":"億載里","LIN":"14鄰","STREET":"平豐路","SECT":" ","MAREA":" ","LANE":"１０１巷","ALLEY":"１３弄","HOUSE_NO":"３號","E_COORD97":164271.38,"N_COORD97":2543244.5899999999,"ADDRESS":"平豐路１０１巷１３弄３號","OBJECTID":20704},"geometry":{"x":164271.38000000082,"y":2543244.5900000017}},{"attributes":{"ID":20705,"DIS_CODE":0,"TOWNNAME":"新營區","LI":"忠政里","LIN":"14鄰","STREET":"中正路","SECT":" ","MAREA":" ","LANE":"５９巷","ALLEY":"１９弄","HOUSE_NO":"１２號","E_COORD97":180001.60999999999,"N_COORD97":2579595.9900000002,"ADDRESS":"中正路５９巷１９弄１２號","OBJECTID":20705},"geometry":{"x":180001.61000000127,"y":2579595.9900000002}},{"attributes":{"ID":20706,"DIS_CODE":0,"TOWNNAME":"新營區","LI":"忠政里","LIN":"14鄰","STREET":"中正路","SECT":" ","MAREA":" ","LANE":"５９巷","ALLEY":"１９弄","HOUSE_NO":"３４號","E_COORD97":179988.57999999999,"N_COORD97":2579632.6000000001,"ADDRESS":"中正路５９巷１９弄３４號","OBJECTID":20706},"geometry":{"x":179988.58000000007,"y":2579632.6000000015}},{"attributes":{"ID":20707,"DIS_CODE":0,"TOWNNAME":"北區","LI":"大港里","LIN":"24鄰","STREET":"中華北路","SECT":"一段","MAREA":" ","LANE":" ","ALLEY":" ","HOUSE_NO":"２０１號","E_COORD97":166443.76999999999,"N_COORD97":2545711.8599999999,"ADDRESS":"中華北路一段２０１號","OBJECTID":20707},"geometry":{"x":166443.76999999955,"y":2545711.8599999994}},{"attributes":{"ID":20708,"DIS_CODE":0,"TOWNNAME":"東區","LI":"關聖里","LIN":"20鄰","STREET":"裕孝路","SECT":" ","MAREA":" ","LANE":" ","ALLEY":" ","HOUSE_NO":"１６５號","E_COORD97":172449.35000000001,"N_COORD97":2542862.02,"ADDRESS":"裕孝路１６５號","OBJECTID":20708},"geometry":{"x":172449.35000000056,"y":2542862.0200000014}},{"attributes":{"ID":20709,"DIS_CODE":0,"TOWNNAME":"東區","LI":"文聖里","LIN":"20鄰","STREET":"裕信二街","SECT":" ","MAREA":" ","LANE":" ","ALLEY":" ","HOUSE_NO":"１５０號","E_COORD97":172803.44,"N_COORD97":2542612.9300000002,"ADDRESS":"裕信二街１５０號","OBJECTID":20709},"geometry":{"x":172803.44000000134,"y":2542612.9299999997}},{"attributes":{"ID":20710,"DIS_CODE":0,"TOWNNAME":"東區","LI":"文聖里","LIN":"20鄰","STREET":"裕信二街","SECT":" ","MAREA":" ","LANE":" ","ALLEY":" ","HOUSE_NO":"１５２號","E_COORD97":172792.57999999999,"N_COORD97":2542613.5099999998,"ADDRESS":"裕信二街１５２號","OBJECTID":20710},"geometry":{"x":172792.58000000007,"y":2542613.5100000035}},{"attributes":{"ID":20711,"DIS_CODE":0,"TOWNNAME":"東區","LI":"文聖里","LIN":"20鄰","STREET":"裕信二街","SECT":" ","MAREA":" ","LANE":" ","ALLEY":" ","HOUSE_NO":"１５６號","E_COORD97":172786.45000000001,"N_COORD97":2542613.9700000002,"ADDRESS":"裕信二街１５６號","OBJECTID":20711},"geometry":{"x":172786.45000000112,"y":2542613.9700000007}},{"attributes":{"ID":20712,"DIS_CODE":0,"TOWNNAME":"佳里區","LI":"海澄里","LIN":"17鄰","STREET":" ","SECT":" ","MAREA":"番子寮","LANE":" ","ALLEY":" ","HOUSE_NO":"１３６號之７１","E_COORD97":163878.26999999999,"N_COORD97":2564393.7999999998,"ADDRESS":"番子寮１３６號之７１","OBJECTID":20712},"geometry":{"x":163878.27000000048,"y":2564393.8000000026}},{"attributes":{"ID":20713,"DIS_CODE":0,"TOWNNAME":"佳里區","LI":"海澄里","LIN":"17鄰","STREET":" ","SECT":" ","MAREA":"番子寮","LANE":" ","ALLEY":" ","HOUSE_NO":"１３６號之７","E_COORD97":163839.23999999999,"N_COORD97":2564504.8700000001,"ADDRESS":"番子寮１３６號之７","OBJECTID":20713},"geometry":{"x":163839.24000000022,"y":2564504.8700000029}},{"attributes":{"ID":20714,"DIS_CODE":0,"TOWNNAME":"新營區","LI":"忠政里","LIN":"14鄰","STREET":"中正路","SECT":" ","MAREA":" ","LANE":"５９巷","ALLEY":"１９弄","HOUSE_NO":"４８號","E_COORD97":179988.66,"N_COORD97":2579652.5299999998,"ADDRESS":"中正路５９巷１９弄４８號","OBJECTID":20714},"geometry":{"x":179988.66000000015,"y":2579652.5299999993}},{"attributes":{"ID":20715,"DIS_CODE":0,"TOWNNAME":"新營區","LI":"忠政里","LIN":"14鄰","STREET":"府西路","SECT":" ","MAREA":" ","LANE":"２３０巷","ALLEY":"１１弄","HOUSE_NO":"１號","E_COORD97":179844.04000000001,"N_COORD97":2579632.1699999999,"ADDRESS":"府西路２３０巷１１弄１號","OBJECTID":20715},"geometry":{"x":179844.04000000097,"y":2579632.1700000037}},{"attributes":{"ID":20716,"DIS_CODE":0,"TOWNNAME":"新營區","LI":"忠政里","LIN":"14鄰","STREET":"府西路","SECT":" ","MAREA":" ","LANE":"２３０巷","ALLEY":"１１弄","HOUSE_NO":"３號","E_COORD97":179844.14999999999,"N_COORD97":2579636.6000000001,"ADDRESS":"府西路２３０巷１１弄３號","OBJECTID":20716},"geometry":{"x":179844.1500000013,"y":2579636.6000000015}},{"attributes":{"ID":20717,"DIS_CODE":0,"TOWNNAME":"南區","LI":"興農里","LIN":"14鄰","STREET":"明興路","SECT":" ","MAREA":" ","LANE":"１０５５巷","ALLEY":"１７弄","HOUSE_NO":"１０號","E_COORD97":166353.39000000001,"N_COORD97":2536884.2999999998,"ADDRESS":"明興路１０５５巷１７弄１０號","OBJECTID":20717},"geometry":{"x":166353.38999999966,"y":2536884.3000000026}},{"attributes":{"ID":20718,"DIS_CODE":0,"TOWNNAME":"南區","LI":"興農里","LIN":"14鄰","STREET":"明興路","SECT":" ","MAREA":" ","LANE":"１０５５巷","ALLEY":"１７弄","HOUSE_NO":"１１號","E_COORD97":166302.57000000001,"N_COORD97":2536837.5299999998,"ADDRESS":"明興路１０５５巷１７弄１１號","OBJECTID":20718},"geometry":{"x":166302.56999999937,"y":2536837.5299999993}},{"attributes":{"ID":20719,"DIS_CODE":0,"TOWNNAME":"南區","LI":"興農里","LIN":"14鄰","STREET":"明興路","SECT":" ","MAREA":" ","LANE":"１０５５巷","ALLEY":"１７弄","HOUSE_NO":"１２號","E_COORD97":166357.60000000001,"N_COORD97":2536888.27,"ADDRESS":"明興路１０５５巷１７弄１２號","OBJECTID":20719},"geometry":{"x":166357.5999999987,"y":2536888.2699999996}},{"attributes":{"ID":20720,"DIS_CODE":0,"TOWNNAME":"南區","LI":"興農里","LIN":"14鄰","STREET":"明興路","SECT":" ","MAREA":" ","LANE":"１０５５巷","ALLEY":"１７弄","HOUSE_NO":"１３號","E_COORD97":166291.87,"N_COORD97":2536849.9700000002,"ADDRESS":"明興路１０５５巷１７弄１３號","OBJECTID":20720},"geometry":{"x":166291.86999999918,"y":2536849.9700000007}},{"attributes":{"ID":20721,"DIS_CODE":0,"TOWNNAME":"南區","LI":"興農里","LIN":"14鄰","STREET":"明興路","SECT":" ","MAREA":" ","LANE":"１０５５巷","ALLEY":"１７弄","HOUSE_NO":"１４號","E_COORD97":166345.10999999999,"N_COORD97":2536901.7999999998,"ADDRESS":"明興路１０５５巷１７弄１４號","OBJECTID":20721},"geometry":{"x":166345.11000000127,"y":2536901.8000000007}},{"attributes":{"ID":20722,"DIS_CODE":0,"TOWNNAME":"南區","LI":"興農里","LIN":"14鄰","STREET":"明興路","SECT":" ","MAREA":" ","LANE":"１０５５巷","ALLEY":"１７弄","HOUSE_NO":"１５號","E_COORD97":166295.32999999999,"N_COORD97":2536854.1099999999,"ADDRESS":"明興路１０５５巷１７弄１５號","OBJECTID":20722},"geometry":{"x":166295.33000000007,"y":2536854.1099999994}},{"attributes":{"ID":20723,"DIS_CODE":0,"TOWNNAME":"南區","LI":"興農里","LIN":"14鄰","STREET":"明興路","SECT":" ","MAREA":" ","LANE":"１０５５巷","ALLEY":"１７弄","HOUSE_NO":"１６號","E_COORD97":166340.81,"N_COORD97":2536897.7000000002,"ADDRESS":"明興路１０５５巷１７弄１６號","OBJECTID":20723},"geometry":{"x":166340.80999999959,"y":2536897.6999999993}},{"attributes":{"ID":20724,"DIS_CODE":0,"TOWNNAME":"南區","LI":"興農里","LIN":"14鄰","STREET":"明興路","SECT":" ","MAREA":" ","LANE":"１０５５巷","ALLEY":"１７弄","HOUSE_NO":"１７號","E_COORD97":166298.56,"N_COORD97":2536859.6400000001,"ADDRESS":"明興路１０５５巷１７弄１７號","OBJECTID":20724},"geometry":{"x":166298.56000000145,"y":2536859.6400000006}},{"attributes":{"ID":20725,"DIS_CODE":0,"TOWNNAME":"南區","LI":"興農里","LIN":"14鄰","STREET":"明興路","SECT":" ","MAREA":" ","LANE":"１０５５巷","ALLEY":"１７弄","HOUSE_NO":"１８號","E_COORD97":166337.10000000001,"N_COORD97":2536893.7999999998,"ADDRESS":"明興路１０５５巷１７弄１８號","OBJECTID":20725},"geometry":{"x":166337.09999999963,"y":2536893.8000000026}},{"attributes":{"ID":20726,"DIS_CODE":0,"TOWNNAME":"南區","LI":"興農里","LIN":"14鄰","STREET":"明興路","SECT":" ","MAREA":" ","LANE":"１０５５巷","ALLEY":"１７弄","HOUSE_NO":"１９號","E_COORD97":166303.63,"N_COORD97":2536864.4700000002,"ADDRESS":"明興路１０５５巷１７弄１９號","OBJECTID":20726},"geometry":{"x":166303.63000000175,"y":2536864.4699999988}},{"attributes":{"ID":20727,"DIS_CODE":0,"TOWNNAME":"南區","LI":"興農里","LIN":"14鄰","STREET":"明興路","SECT":" ","MAREA":" ","LANE":"１０５５巷","ALLEY":"１７弄","HOUSE_NO":"１號","E_COORD97":166328.56,"N_COORD97":2536854.3700000001,"ADDRESS":"明興路１０５５巷１７弄１號","OBJECTID":20727},"geometry":{"x":166328.55999999959,"y":2536854.370000001}},{"attributes":{"ID":20728,"DIS_CODE":0,"TOWNNAME":"佳里區","LI":"海澄里","LIN":"17鄰","STREET":" ","SECT":" ","MAREA":"番子寮","LANE":" ","ALLEY":" ","HOUSE_NO":"１３６號之８","E_COORD97":163839.56,"N_COORD97":2564499.5699999998,"ADDRESS":"番子寮１３６號之８","OBJECTID":20728},"geometry":{"x":163839.56000000052,"y":2564499.5700000022}},{"attributes":{"ID":20729,"DIS_CODE":0,"TOWNNAME":"佳里區","LI":"海澄里","LIN":"17鄰","STREET":" ","SECT":" ","MAREA":"番子寮","LANE":" ","ALLEY":" ","HOUSE_NO":"１３６號之９","E_COORD97":163839.84,"N_COORD97":2564493.8900000001,"ADDRESS":"番子寮１３６號之９","OBJECTID":20729},"geometry":{"x":163839.83999999985,"y":2564493.8900000025}},{"attributes":{"ID":20730,"DIS_CODE":0,"TOWNNAME":"南區","LI":"興農里","LIN":"14鄰","STREET":"明興路","SECT":" ","MAREA":" ","LANE":"１０５５巷","ALLEY":"１７弄","HOUSE_NO":"２０號","E_COORD97":166333.19,"N_COORD97":2536890.8700000001,"ADDRESS":"明興路１０５５巷１７弄２０號","OBJECTID":20730},"geometry":{"x":166333.19000000134,"y":2536890.8700000029}},{"attributes":{"ID":20731,"DIS_CODE":0,"TOWNNAME":"佳里區","LI":"海澄里","LIN":"17鄰","STREET":" ","SECT":" ","MAREA":"番子寮","LANE":" ","ALLEY":" ","HOUSE_NO":"１３６號","E_COORD97":163812.98999999999,"N_COORD97":2564529.2400000002,"ADDRESS":"番子寮１３６號","OBJECTID":20731},"geometry":{"x":163812.99000000209,"y":2564529.2400000021}},{"attributes":{"ID":20732,"DIS_CODE":0,"TOWNNAME":"南區","LI":"興農里","LIN":"14鄰","STREET":"明興路","SECT":" ","MAREA":" ","LANE":"１０５５巷","ALLEY":"１７弄","HOUSE_NO":"２１號","E_COORD97":166311.47,"N_COORD97":2536868.8500000001,"ADDRESS":"明興路１０５５巷１７弄２１號","OBJECTID":20732},"geometry":{"x":166311.47000000067,"y":2536868.8500000015}},{"attributes":{"ID":20733,"DIS_CODE":0,"TOWNNAME":"佳里區","LI":"海澄里","LIN":"17鄰","STREET":" ","SECT":" ","MAREA":"番子寮","LANE":" ","ALLEY":" ","HOUSE_NO":"１３７號之１","E_COORD97":163716.57999999999,"N_COORD97":2564500.9100000001,"ADDRESS":"番子寮１３７號之１","OBJECTID":20733},"geometry":{"x":163716.58000000007,"y":2564500.910000002}},{"attributes":{"ID":20734,"DIS_CODE":0,"TOWNNAME":"南區","LI":"興農里","LIN":"14鄰","STREET":"明興路","SECT":" ","MAREA":" ","LANE":"１０５５巷","ALLEY":"１７弄","HOUSE_NO":"２２號","E_COORD97":166330.06,"N_COORD97":2536885.7999999998,"ADDRESS":"明興路１０５５巷１７弄２２號","OBJECTID":20734},"geometry":{"x":166330.05999999959,"y":2536885.8000000007}},{"attributes":{"ID":20735,"DIS_CODE":0,"TOWNNAME":"南區","LI":"興農里","LIN":"14鄰","STREET":"明興路","SECT":" ","MAREA":" ","LANE":"１０５５巷","ALLEY":"１７弄","HOUSE_NO":"２３號","E_COORD97":166307.32000000001,"N_COORD97":2536875.29,"ADDRESS":"明興路１０５５巷１７弄２３號","OBJECTID":20735},"geometry":{"x":166307.3200000003,"y":2536875.290000001}},{"attributes":{"ID":20736,"DIS_CODE":0,"TOWNNAME":"佳里區","LI":"海澄里","LIN":"17鄰","STREET":" ","SECT":" ","MAREA":"番子寮","LANE":" ","ALLEY":" ","HOUSE_NO":"１３７號","E_COORD97":163776.10000000001,"N_COORD97":2564512.3500000001,"ADDRESS":"番子寮１３７號","OBJECTID":20736},"geometry":{"x":163776.10000000056,"y":2564512.3499999996}},{"attributes":{"ID":20737,"DIS_CODE":0,"TOWNNAME":"南區","LI":"興農里","LIN":"14鄰","STREET":"明興路","SECT":" ","MAREA":" ","LANE":"１０５５巷","ALLEY":"１７弄","HOUSE_NO":"２４號","E_COORD97":166326.35000000001,"N_COORD97":2536881.7000000002,"ADDRESS":"明興路１０５５巷１７弄２４號","OBJECTID":20737},"geometry":{"x":166326.34999999963,"y":2536881.6999999974}},{"attributes":{"ID":20738,"DIS_CODE":0,"TOWNNAME":"南區","LI":"興農里","LIN":"14鄰","STREET":"明興路","SECT":" ","MAREA":" ","LANE":"１０５５巷","ALLEY":"１７弄","HOUSE_NO":"２５號","E_COORD97":166302.25,"N_COORD97":2536879.8999999999,"ADDRESS":"明興路１０５５巷１７弄２５號","OBJECTID":20738},"geometry":{"x":166302.25,"y":2536879.9000000022}},{"attributes":{"ID":20739,"DIS_CODE":0,"TOWNNAME":"關廟區","LI":"東勢里","LIN":"24鄰","STREET":"東安街","SECT":" ","MAREA":" ","LANE":" ","ALLEY":" ","HOUSE_NO":"２２６號","E_COORD97":181567.26999999999,"N_COORD97":2539365.3199999998,"ADDRESS":"東安街２２６號","OBJECTID":20739},"geometry":{"x":181567.26999999862,"y":2539365.3200000022}},{"attributes":{"ID":20740,"DIS_CODE":0,"TOWNNAME":"關廟區","LI":"香洋里","LIN":"24鄰","STREET":"民族街","SECT":" ","MAREA":" ","LANE":" ","ALLEY":" ","HOUSE_NO":"１６５號","E_COORD97":181214.48999999999,"N_COORD97":2539886.29,"ADDRESS":"民族街１６５號","OBJECTID":20740},"geometry":{"x":181214.49000000115,"y":2539886.290000001}},{"attributes":{"ID":20741,"DIS_CODE":0,"TOWNNAME":"東山區","LI":"青山里","LIN":"16鄰","STREET":" ","SECT":" ","MAREA":"青山","LANE":" ","ALLEY":" ","HOUSE_NO":"４６號之３２","E_COORD97":195634.04000000001,"N_COORD97":2575235.04,"ADDRESS":"青山４６號之３２","OBJECTID":20741},"geometry":{"x":195634.04000000004,"y":2575235.0400000028}},{"attributes":{"ID":20742,"DIS_CODE":0,"TOWNNAME":"佳里區","LI":"海澄里","LIN":"17鄰","STREET":" ","SECT":" ","MAREA":"番子寮","LANE":" ","ALLEY":" ","HOUSE_NO":"１３９號之１","E_COORD97":163729.53,"N_COORD97":2564529.9700000002,"ADDRESS":"番子寮１３９號之１","OBJECTID":20742},"geometry":{"x":163729.52999999933,"y":2564529.9699999988}},{"attributes":{"ID":20743,"DIS_CODE":0,"TOWNNAME":"南區","LI":"興農里","LIN":"14鄰","STREET":"明興路","SECT":" ","MAREA":" ","LANE":"１０５５巷","ALLEY":"１７弄","HOUSE_NO":"２６號","E_COORD97":166315.98999999999,"N_COORD97":2536894.7799999998,"ADDRESS":"明興路１０５５巷１７弄２６號","OBJECTID":20743},"geometry":{"x":166315.99000000022,"y":2536894.7799999993}},{"attributes":{"ID":20744,"DIS_CODE":0,"TOWNNAME":"南區","LI":"興農里","LIN":"14鄰","STREET":"明興路","SECT":" ","MAREA":" ","LANE":"１０５５巷","ALLEY":"１７弄","HOUSE_NO":"２７號","E_COORD97":166298.56,"N_COORD97":2536885.6499999999,"ADDRESS":"明興路１０５５巷１７弄２７號","OBJECTID":20744},"geometry":{"x":166298.56000000145,"y":2536885.6500000004}},{"attributes":{"ID":20745,"DIS_CODE":0,"TOWNNAME":"南區","LI":"興農里","LIN":"14鄰","STREET":"明興路","SECT":" ","MAREA":" ","LANE":"１０５５巷","ALLEY":"１７弄","HOUSE_NO":"２９號","E_COORD97":166292.10000000001,"N_COORD97":2536877.3599999999,"ADDRESS":"明興路１０５５巷１７弄２９號","OBJECTID":20745},"geometry":{"x":166292.10000000056,"y":2536877.3599999994}},{"attributes":{"ID":20746,"DIS_CODE":0,"TOWNNAME":"南區","LI":"興農里","LIN":"14鄰","STREET":"明興路","SECT":" ","MAREA":" ","LANE":"１０５５巷","ALLEY":"１７弄","HOUSE_NO":"２號","E_COORD97":166339.10000000001,"N_COORD97":2536870.04,"ADDRESS":"明興路１０５５巷１７弄２號","OBJECTID":20746},"geometry":{"x":166339.10000000149,"y":2536870.040000001}},{"attributes":{"ID":20747,"DIS_CODE":0,"TOWNNAME":"佳里區","LI":"海澄里","LIN":"17鄰","STREET":" ","SECT":" ","MAREA":"番子寮","LANE":" ","ALLEY":" ","HOUSE_NO":"１３９號之２","E_COORD97":163745.37,"N_COORD97":2564561.1499999999,"ADDRESS":"番子寮１３９號之２","OBJECTID":20747},"geometry":{"x":163745.37000000011,"y":2564561.1500000004}},{"attributes":{"ID":20748,"DIS_CODE":0,"TOWNNAME":"佳里區","LI":"海澄里","LIN":"17鄰","STREET":" ","SECT":" ","MAREA":"番子寮","LANE":" ","ALLEY":" ","HOUSE_NO":"１３９號","E_COORD97":163751.03,"N_COORD97":2564535.48,"ADDRESS":"番子寮１３９號","OBJECTID":20748},"geometry":{"x":163751.03000000026,"y":2564535.4800000004}},{"attributes":{"ID":20749,"DIS_CODE":0,"TOWNNAME":"南區","LI":"興農里","LIN":"14鄰","STREET":"明興路","SECT":" ","MAREA":" ","LANE":"１０５５巷","ALLEY":"１７弄","HOUSE_NO":"３０號","E_COORD97":166322.44,"N_COORD97":2536901.6099999999,"ADDRESS":"明興路１０５５巷１７弄３０號","OBJECTID":20749},"geometry":{"x":166322.44000000227,"y":2536901.6099999994}},{"attributes":{"ID":20750,"DIS_CODE":0,"TOWNNAME":"新營區","LI":"新北里","LIN":"24鄰","STREET":"民生路","SECT":" ","MAREA":" ","LANE":"４２０巷","ALLEY":" ","HOUSE_NO":"４４號","E_COORD97":178920.53,"N_COORD97":2579367.48,"ADDRESS":"民生路４２０巷４４號","OBJECTID":20750},"geometry":{"x":178920.53000000119,"y":2579367.4800000023}},{"attributes":{"ID":20751,"DIS_CODE":0,"TOWNNAME":"學甲區","LI":"大灣里","LIN":"17鄰","STREET":" ","SECT":" ","MAREA":"大灣","LANE":" ","ALLEY":" ","HOUSE_NO":"１７０號","E_COORD97":166535.63,"N_COORD97":2567604.5099999998,"ADDRESS":"大灣１７０號","OBJECTID":20751},"geometry":{"x":166535.62999999896,"y":2567604.5100000016}},{"attributes":{"ID":20752,"DIS_CODE":0,"TOWNNAME":"學甲區","LI":"大灣里","LIN":"17鄰","STREET":" ","SECT":" ","MAREA":"大灣","LANE":" ","ALLEY":" ","HOUSE_NO":"１７１號","E_COORD97":166527.31,"N_COORD97":2567597.5699999998,"ADDRESS":"大灣１７１號","OBJECTID":20752},"geometry":{"x":166527.30999999866,"y":2567597.570000004}},{"attributes":{"ID":20753,"DIS_CODE":0,"TOWNNAME":"學甲區","LI":"大灣里","LIN":"17鄰","STREET":" ","SECT":" ","MAREA":"大灣","LANE":" ","ALLEY":" ","HOUSE_NO":"１７２號","E_COORD97":166535.57999999999,"N_COORD97":2567576.5800000001,"ADDRESS":"大灣１７２號","OBJECTID":20753},"geometry":{"x":166535.58000000007,"y":2567576.5799999982}},{"attributes":{"ID":20754,"DIS_CODE":0,"TOWNNAME":"學甲區","LI":"中洲里","LIN":"17鄰","STREET":" ","SECT":" ","MAREA":"中洲","LANE":" ","ALLEY":" ","HOUSE_NO":"１８１號","E_COORD97":163561.06,"N_COORD97":2570870.1000000001,"ADDRESS":"中洲１８１號","OBJECTID":20754},"geometry":{"x":163561.06000000052,"y":2570870.0999999996}},{"attributes":{"ID":20755,"DIS_CODE":0,"TOWNNAME":"學甲區","LI":"中洲里","LIN":"17鄰","STREET":" ","SECT":" ","MAREA":"中洲","LANE":" ","ALLEY":" ","HOUSE_NO":"１８２號","E_COORD97":163534.95000000001,"N_COORD97":2570932.2599999998,"ADDRESS":"中洲１８２號","OBJECTID":20755},"geometry":{"x":163534.95000000019,"y":2570932.2600000016}},{"attributes":{"ID":20756,"DIS_CODE":0,"TOWNNAME":"學甲區","LI":"中洲里","LIN":"17鄰","STREET":" ","SECT":" ","MAREA":"中洲","LANE":" ","ALLEY":" ","HOUSE_NO":"１８３號之１","E_COORD97":163533.87,"N_COORD97":2570898.2599999998,"ADDRESS":"中洲１８３號之１","OBJECTID":20756},"geometry":{"x":163533.87000000197,"y":2570898.2600000016}},{"attributes":{"ID":20757,"DIS_CODE":0,"TOWNNAME":"學甲區","LI":"中洲里","LIN":"17鄰","STREET":" ","SECT":" ","MAREA":"中洲","LANE":" ","ALLEY":" ","HOUSE_NO":"１８３號","E_COORD97":163541.48999999999,"N_COORD97":2570912.8900000001,"ADDRESS":"中洲１８３號","OBJECTID":20757},"geometry":{"x":163541.49000000022,"y":2570912.8900000025}},{"attributes":{"ID":20758,"DIS_CODE":0,"TOWNNAME":"學甲區","LI":"中洲里","LIN":"17鄰","STREET":" ","SECT":" ","MAREA":"中洲","LANE":" ","ALLEY":" ","HOUSE_NO":"１８４號","E_COORD97":163517.01999999999,"N_COORD97":2570910.5800000001,"ADDRESS":"中洲１８４號","OBJECTID":20758},"geometry":{"x":163517.02000000142,"y":2570910.5800000019}},{"attributes":{"ID":20759,"DIS_CODE":0,"TOWNNAME":"學甲區","LI":"中洲里","LIN":"17鄰","STREET":" ","SECT":" ","MAREA":"中洲","LANE":" ","ALLEY":" ","HOUSE_NO":"１８５號","E_COORD97":163520.54999999999,"N_COORD97":2570897.1800000002,"ADDRESS":"中洲１８５號","OBJECTID":20759},"geometry":{"x":163520.55000000168,"y":2570897.1799999997}},{"attributes":{"ID":20760,"DIS_CODE":0,"TOWNNAME":"學甲區","LI":"中洲里","LIN":"17鄰","STREET":" ","SECT":" ","MAREA":"中洲","LANE":" ","ALLEY":" ","HOUSE_NO":"１８６號之１８","E_COORD97":163393.48000000001,"N_COORD97":2570895.6699999999,"ADDRESS":"中洲１８６號之１８","OBJECTID":20760},"geometry":{"x":163393.48000000138,"y":2570895.6700000018}},{"attributes":{"ID":20761,"DIS_CODE":0,"TOWNNAME":"學甲區","LI":"中洲里","LIN":"17鄰","STREET":" ","SECT":" ","MAREA":"中洲","LANE":" ","ALLEY":" ","HOUSE_NO":"１８６號之１","E_COORD97":163493.73999999999,"N_COORD97":2570922.7200000002,"ADDRESS":"中洲１８６號之１","OBJECTID":20761},"geometry":{"x":163493.74000000022,"y":2570922.7200000044}},{"attributes":{"ID":20762,"DIS_CODE":0,"TOWNNAME":"學甲區","LI":"中洲里","LIN":"17鄰","STREET":" ","SECT":" ","MAREA":"中洲","LANE":" ","ALLEY":" ","HOUSE_NO":"１８６號之２","E_COORD97":163497.70000000001,"N_COORD97":2570950.7000000002,"ADDRESS":"中洲１８６號之２","OBJECTID":20762},"geometry":{"x":163497.69999999925,"y":2570950.6999999993}},{"attributes":{"ID":20763,"DIS_CODE":0,"TOWNNAME":"學甲區","LI":"中洲里","LIN":"17鄰","STREET":" ","SECT":" ","MAREA":"中洲","LANE":" ","ALLEY":" ","HOUSE_NO":"１８６號之３","E_COORD97":163512.13,"N_COORD97":2570962.9300000002,"ADDRESS":"中洲１８６號之３","OBJECTID":20763},"geometry":{"x":163512.13000000082,"y":2570962.9299999997}},{"attributes":{"ID":20764,"DIS_CODE":0,"TOWNNAME":"學甲區","LI":"中洲里","LIN":"17鄰","STREET":" ","SECT":" ","MAREA":"中洲","LANE":" ","ALLEY":" ","HOUSE_NO":"１８６號之４","E_COORD97":163526.20000000001,"N_COORD97":2570958.0600000001,"ADDRESS":"中洲１８６號之４","OBJECTID":20764},"geometry":{"x":163526.20000000019,"y":2570958.0600000024}},{"attributes":{"ID":20765,"DIS_CODE":0,"TOWNNAME":"新營區","LI":"忠政里","LIN":"24鄰","STREET":"健康路","SECT":" ","MAREA":" ","LANE":" ","ALLEY":" ","HOUSE_NO":"３６號","E_COORD97":179682.69,"N_COORD97":2578971.7999999998,"ADDRESS":"健康路３６號","OBJECTID":20765},"geometry":{"x":179682.69000000134,"y":2578971.8000000026}},{"attributes":{"ID":20766,"DIS_CODE":0,"TOWNNAME":"新營區","LI":"忠政里","LIN":"24鄰","STREET":"健康路","SECT":" ","MAREA":" ","LANE":" ","ALLEY":" ","HOUSE_NO":"８０號","E_COORD97":179679.22,"N_COORD97":2579106.9199999999,"ADDRESS":"健康路８０號","OBJECTID":20766},"geometry":{"x":179679.21999999974,"y":2579106.9199999999}},{"attributes":{"ID":20767,"DIS_CODE":0,"TOWNNAME":"新營區","LI":"忠政里","LIN":"24鄰","STREET":"健康路","SECT":" ","MAREA":" ","LANE":" ","ALLEY":" ","HOUSE_NO":"３１４號","E_COORD97":179668.84,"N_COORD97":2579668.46,"ADDRESS":"健康路３１４號","OBJECTID":20767},"geometry":{"x":179668.84000000078,"y":2579668.4600000046}},{"attributes":{"ID":20768,"DIS_CODE":0,"TOWNNAME":"新營區","LI":"忠政里","LIN":"24鄰","STREET":"健康路","SECT":" ","MAREA":" ","LANE":" ","ALLEY":" ","HOUSE_NO":"１２８號","E_COORD97":179673.73999999999,"N_COORD97":2579211.0499999998,"ADDRESS":"健康路１２８號","OBJECTID":20768},"geometry":{"x":179673.74000000115,"y":2579211.0500000026}},{"attributes":{"ID":20769,"DIS_CODE":0,"TOWNNAME":"新營區","LI":"忠政里","LIN":"24鄰","STREET":"健康路","SECT":" ","MAREA":" ","LANE":" ","ALLEY":" ","HOUSE_NO":"３１８號","E_COORD97":179676.06,"N_COORD97":2579681.71,"ADDRESS":"健康路３１８號","OBJECTID":20769},"geometry":{"x":179676.06000000052,"y":2579681.7100000028}},{"attributes":{"ID":20770,"DIS_CODE":0,"TOWNNAME":"新營區","LI":"忠政里","LIN":"24鄰","STREET":"健康路","SECT":" ","MAREA":" ","LANE":" ","ALLEY":" ","HOUSE_NO":"２７６號","E_COORD97":179670.41,"N_COORD97":2579572.1000000001,"ADDRESS":"健康路２７６號","OBJECTID":20770},"geometry":{"x":179670.41000000108,"y":2579572.1000000015}},{"attributes":{"ID":20771,"DIS_CODE":0,"TOWNNAME":"新營區","LI":"忠政里","LIN":"24鄰","STREET":"健康路","SECT":" ","MAREA":" ","LANE":" ","ALLEY":" ","HOUSE_NO":"２９６號","E_COORD97":179670.70000000001,"N_COORD97":2579633,"ADDRESS":"健康路２９６號","OBJECTID":20771},"geometry":{"x":179670.70000000112,"y":2579633}},{"attributes":{"ID":20772,"DIS_CODE":0,"TOWNNAME":"學甲區","LI":"中洲里","LIN":"17鄰","STREET":" ","SECT":" ","MAREA":"中洲","LANE":" ","ALLEY":" ","HOUSE_NO":"１８６號","E_COORD97":163478.19,"N_COORD97":2570916.2200000002,"ADDRESS":"中洲１８６號","OBJECTID":20772},"geometry":{"x":163478.19000000134,"y":2570916.2200000044}},{"attributes":{"ID":20773,"DIS_CODE":0,"TOWNNAME":"學甲區","LI":"光華里","LIN":"17鄰","STREET":" ","SECT":" ","MAREA":"中洲","LANE":" ","ALLEY":" ","HOUSE_NO":"６３１號之１０","E_COORD97":164233.92999999999,"N_COORD97":2571676.6699999999,"ADDRESS":"中洲６３１號之１０","OBJECTID":20773},"geometry":{"x":164233.93000000063,"y":2571676.6699999999}},{"attributes":{"ID":20774,"DIS_CODE":0,"TOWNNAME":"學甲區","LI":"光華里","LIN":"17鄰","STREET":" ","SECT":" ","MAREA":"中洲","LANE":" ","ALLEY":" ","HOUSE_NO":"６３１號之１１","E_COORD97":164234.42000000001,"N_COORD97":2571681.27,"ADDRESS":"中洲６３１號之１１","OBJECTID":20774},"geometry":{"x":164234.41999999993,"y":2571681.2700000014}},{"attributes":{"ID":20775,"DIS_CODE":0,"TOWNNAME":"學甲區","LI":"光華里","LIN":"17鄰","STREET":" ","SECT":" ","MAREA":"中洲","LANE":" ","ALLEY":" ","HOUSE_NO":"６３１號之１２","E_COORD97":164234.38,"N_COORD97":2571685.6000000001,"ADDRESS":"中洲６３１號之１２","OBJECTID":20775},"geometry":{"x":164234.38000000082,"y":2571685.6000000015}},{"attributes":{"ID":20776,"DIS_CODE":0,"TOWNNAME":"學甲區","LI":"光華里","LIN":"17鄰","STREET":" ","SECT":" ","MAREA":"中洲","LANE":" ","ALLEY":" ","HOUSE_NO":"６３１號之１３","E_COORD97":164235.10000000001,"N_COORD97":2571689.6699999999,"ADDRESS":"中洲６３１號之１３","OBJECTID":20776},"geometry":{"x":164235.09999999963,"y":2571689.6700000018}},{"attributes":{"ID":20777,"DIS_CODE":0,"TOWNNAME":"學甲區","LI":"光華里","LIN":"17鄰","STREET":" ","SECT":" ","MAREA":"中洲","LANE":" ","ALLEY":" ","HOUSE_NO":"６３１號之１４","E_COORD97":164235.22,"N_COORD97":2571693.25,"ADDRESS":"中洲６３１號之１４","OBJECTID":20777},"geometry":{"x":164235.22000000067,"y":2571693.25}},{"attributes":{"ID":20778,"DIS_CODE":0,"TOWNNAME":"學甲區","LI":"光華里","LIN":"17鄰","STREET":" ","SECT":" ","MAREA":"中洲","LANE":" ","ALLEY":" ","HOUSE_NO":"６３１號之１","E_COORD97":164193.28,"N_COORD97":2571672.1899999999,"ADDRESS":"中洲６３１號之１","OBJECTID":20778},"geometry":{"x":164193.28000000026,"y":2571672.1900000013}},{"attributes":{"ID":20779,"DIS_CODE":0,"TOWNNAME":"學甲區","LI":"光華里","LIN":"17鄰","STREET":" ","SECT":" ","MAREA":"中洲","LANE":" ","ALLEY":" ","HOUSE_NO":"６３１號之２","E_COORD97":164185.19,"N_COORD97":2571662.7400000002,"ADDRESS":"中洲６３１號之２","OBJECTID":20779},"geometry":{"x":164185.19000000134,"y":2571662.7400000021}},{"attributes":{"ID":20780,"DIS_CODE":0,"TOWNNAME":"學甲區","LI":"光華里","LIN":"17鄰","STREET":" ","SECT":" ","MAREA":"中洲","LANE":" ","ALLEY":" ","HOUSE_NO":"６３１號之３","E_COORD97":164215.82999999999,"N_COORD97":2571664.9100000001,"ADDRESS":"中洲６３１號之３","OBJECTID":20780},"geometry":{"x":164215.83000000101,"y":2571664.910000002}},{"attributes":{"ID":20781,"DIS_CODE":0,"TOWNNAME":"學甲區","LI":"光華里","LIN":"17鄰","STREET":" ","SECT":" ","MAREA":"中洲","LANE":" ","ALLEY":" ","HOUSE_NO":"６３１號之４","E_COORD97":164223.29999999999,"N_COORD97":2571664.48,"ADDRESS":"中洲６３１號之４","OBJECTID":20781},"geometry":{"x":164223.29999999981,"y":2571664.4800000023}},{"attributes":{"ID":20782,"DIS_CODE":0,"TOWNNAME":"南區","LI":"興農里","LIN":"14鄰","STREET":"明興路","SECT":" ","MAREA":" ","LANE":"１０５５巷","ALLEY":"１７弄","HOUSE_NO":"３１號","E_COORD97":166286.79999999999,"N_COORD97":2536872.9900000002,"ADDRESS":"明興路１０５５巷１７弄３１號","OBJECTID":20782},"geometry":{"x":166286.79999999981,"y":2536872.9900000002}},{"attributes":{"ID":20783,"DIS_CODE":0,"TOWNNAME":"南區","LI":"興農里","LIN":"14鄰","STREET":"明興路","SECT":" ","MAREA":" ","LANE":"１０５５巷","ALLEY":"１７弄","HOUSE_NO":"３２號","E_COORD97":166325.76000000001,"N_COORD97":2536904.1400000001,"ADDRESS":"明興路１０５５巷１７弄３２號","OBJECTID":20783},"geometry":{"x":166325.75999999978,"y":2536904.1400000043}},{"attributes":{"ID":20784,"DIS_CODE":0,"TOWNNAME":"南區","LI":"興農里","LIN":"14鄰","STREET":"明興路","SECT":" ","MAREA":" ","LANE":"１０５５巷","ALLEY":"１７弄","HOUSE_NO":"３３號","E_COORD97":166281.26999999999,"N_COORD97":2536870.6899999999,"ADDRESS":"明興路１０５５巷１７弄３３號","OBJECTID":20784},"geometry":{"x":166281.26999999955,"y":2536870.6899999995}},{"attributes":{"ID":20785,"DIS_CODE":0,"TOWNNAME":"南區","LI":"興農里","LIN":"14鄰","STREET":"明興路","SECT":" ","MAREA":" ","LANE":"１０５５巷","ALLEY":"１７弄","HOUSE_NO":"３４號","E_COORD97":166329.48000000001,"N_COORD97":2536907.46,"ADDRESS":"明興路１０５５巷１７弄３４號","OBJECTID":20785},"geometry":{"x":166329.48000000138,"y":2536907.4600000009}},{"attributes":{"ID":20786,"DIS_CODE":0,"TOWNNAME":"南區","LI":"興農里","LIN":"14鄰","STREET":"明興路","SECT":" ","MAREA":" ","LANE":"１０５５巷","ALLEY":"１７弄","HOUSE_NO":"３５號","E_COORD97":166277.35000000001,"N_COORD97":2536867.6899999999,"ADDRESS":"明興路１０５５巷１７弄３５號","OBJECTID":20786},"geometry":{"x":166277.34999999963,"y":2536867.6899999995}},{"attributes":{"ID":20787,"DIS_CODE":0,"TOWNNAME":"南區","LI":"興農里","LIN":"14鄰","STREET":"明興路","SECT":" ","MAREA":" ","LANE":"１０５５巷","ALLEY":"１７弄","HOUSE_NO":"３６號","E_COORD97":166333.57999999999,"N_COORD97":2536910.7799999998,"ADDRESS":"明興路１０５５巷１７弄３６號","OBJECTID":20787},"geometry":{"x":166333.58000000101,"y":2536910.7799999993}},{"attributes":{"ID":20788,"DIS_CODE":0,"TOWNNAME":"南區","LI":"興農里","LIN":"14鄰","STREET":"明興路","SECT":" ","MAREA":" ","LANE":"１０５５巷","ALLEY":"１７弄","HOUSE_NO":"３７號","E_COORD97":166266.97,"N_COORD97":2536881.0499999998,"ADDRESS":"明興路１０５５巷１７弄３７號","OBJECTID":20788},"geometry":{"x":166266.96999999974,"y":2536881.0500000045}},{"attributes":{"ID":20789,"DIS_CODE":0,"TOWNNAME":"南區","LI":"興農里","LIN":"14鄰","STREET":"明興路","SECT":" ","MAREA":" ","LANE":"１０５５巷","ALLEY":"１７弄","HOUSE_NO":"３８號","E_COORD97":166320.29000000001,"N_COORD97":2536935.1699999999,"ADDRESS":"明興路１０５５巷１７弄３８號","OBJECTID":20789},"geometry":{"x":166320.29000000097,"y":2536935.1700000018}},{"attributes":{"ID":20790,"DIS_CODE":0,"TOWNNAME":"南區","LI":"興農里","LIN":"14鄰","STREET":"明興路","SECT":" ","MAREA":" ","LANE":"１０５５巷","ALLEY":"１７弄","HOUSE_NO":"３９號","E_COORD97":166271.35000000001,"N_COORD97":2536884.73,"ADDRESS":"明興路１０５５巷１７弄３９號","OBJECTID":20790},"geometry":{"x":166271.35000000149,"y":2536884.7300000004}},{"attributes":{"ID":20791,"DIS_CODE":0,"TOWNNAME":"南區","LI":"興農里","LIN":"14鄰","STREET":"明興路","SECT":" ","MAREA":" ","LANE":"１０５５巷","ALLEY":"１７弄","HOUSE_NO":"３號","E_COORD97":166323.41,"N_COORD97":2536860.6800000002,"ADDRESS":"明興路１０５５巷１７弄３號","OBJECTID":20791},"geometry":{"x":166323.41000000015,"y":2536860.6799999997}},{"attributes":{"ID":20792,"DIS_CODE":0,"TOWNNAME":"南區","LI":"興農里","LIN":"14鄰","STREET":"明興路","SECT":" ","MAREA":" ","LANE":"１０５５巷","ALLEY":"１７弄","HOUSE_NO":"４０號","E_COORD97":166317.17000000001,"N_COORD97":2536932.2400000002,"ADDRESS":"明興路１０５５巷１７弄４０號","OBJECTID":20792},"geometry":{"x":166317.17000000086,"y":2536932.2400000002}},{"attributes":{"ID":20793,"DIS_CODE":0,"TOWNNAME":"南區","LI":"興農里","LIN":"14鄰","STREET":"明興路","SECT":" ","MAREA":" ","LANE":"１０５５巷","ALLEY":"１７弄","HOUSE_NO":"４１號","E_COORD97":166275.26999999999,"N_COORD97":2536888.4199999999,"ADDRESS":"明興路１０５５巷１７弄４１號","OBJECTID":20793},"geometry":{"x":166275.27000000048,"y":2536888.4200000018}},{"attributes":{"ID":20794,"DIS_CODE":0,"TOWNNAME":"南區","LI":"興農里","LIN":"14鄰","STREET":"明興路","SECT":" ","MAREA":" ","LANE":"１０５５巷","ALLEY":"１７弄","HOUSE_NO":"４２號","E_COORD97":166313.45000000001,"N_COORD97":2536929.3100000001,"ADDRESS":"明興路１０５５巷１７弄４２號","OBJECTID":20794},"geometry":{"x":166313.44999999925,"y":2536929.3100000005}},{"attributes":{"ID":20795,"DIS_CODE":0,"TOWNNAME":"南區","LI":"興農里","LIN":"14鄰","STREET":"明興路","SECT":" ","MAREA":" ","LANE":"１０５５巷","ALLEY":"１７弄","HOUSE_NO":"４２號之１","E_COORD97":166310.13,"N_COORD97":2536925.2200000002,"ADDRESS":"明興路１０５５巷１７弄４２號之１","OBJECTID":20795},"geometry":{"x":166310.12999999989,"y":2536925.2200000025}},{"attributes":{"ID":20796,"DIS_CODE":0,"TOWNNAME":"南區","LI":"興農里","LIN":"14鄰","STREET":"明興路","SECT":" ","MAREA":" ","LANE":"１０５５巷","ALLEY":"１７弄","HOUSE_NO":"４３號","E_COORD97":166281.5,"N_COORD97":2536892.3300000001,"ADDRESS":"明興路１０５５巷１７弄４３號","OBJECTID":20796},"geometry":{"x":166281.50000000093,"y":2536892.3300000038}},{"attributes":{"ID":20797,"DIS_CODE":0,"TOWNNAME":"南區","LI":"興農里","LIN":"14鄰","STREET":"明興路","SECT":" ","MAREA":" ","LANE":"１０５５巷","ALLEY":"１７弄","HOUSE_NO":"４５號","E_COORD97":166292.09,"N_COORD97":2536898.2000000002,"ADDRESS":"明興路１０５５巷１７弄４５號","OBJECTID":20797},"geometry":{"x":166292.09000000078,"y":2536898.1999999993}},{"attributes":{"ID":20798,"DIS_CODE":0,"TOWNNAME":"南區","LI":"興農里","LIN":"14鄰","STREET":"明興路","SECT":" ","MAREA":" ","LANE":"１０５５巷","ALLEY":"１７弄","HOUSE_NO":"４６號","E_COORD97":166306.81,"N_COORD97":2536921.1200000001,"ADDRESS":"明興路１０５５巷１７弄４６號","OBJECTID":20798},"geometry":{"x":166306.80999999959,"y":2536921.120000001}},{"attributes":{"ID":20799,"DIS_CODE":0,"TOWNNAME":"南區","LI":"興農里","LIN":"14鄰","STREET":"明興路","SECT":" ","MAREA":" ","LANE":"１０５５巷","ALLEY":"１７弄","HOUSE_NO":"４７號","E_COORD97":166286.95999999999,"N_COORD97":2536905.2400000002,"ADDRESS":"明興路１０５５巷１７弄４７號","OBJECTID":20799},"geometry":{"x":166286.95999999996,"y":2536905.2400000002}},{"attributes":{"ID":20800,"DIS_CODE":0,"TOWNNAME":"南區","LI":"興農里","LIN":"14鄰","STREET":"明興路","SECT":" ","MAREA":" ","LANE":"１０５５巷","ALLEY":"１７弄","HOUSE_NO":"４８號","E_COORD97":166304.26999999999,"N_COORD97":2536917.4100000001,"ADDRESS":"明興路１０５５巷１７弄４８號","OBJECTID":20800},"geometry":{"x":166304.27000000048,"y":2536917.4100000001}}]}