{"displayFieldName":"TOWNNAME","fieldAliases":{"ID":"ID","DIS_CODE":"DIS_CODE","TOWNNAME":"TOWNNAME","LI":"LI","LIN":"LIN","STREET":"STREET","SECT":"SECT","MAREA":"MAREA","LANE":"LANE","ALLEY":"ALLEY","HOUSE_NO":"HOUSE_NO","E_COORD97":"E_COORD97","N_COORD97":"N_COORD97","ADDRESS":"ADDRESS","OBJECTID":"OBJECTID"},"geometryType":"esriGeometryPoint","spatialReference":{"wkid":102443,"latestWkid":3826},"fields":[{"name":"ID","type":"esriFieldTypeDouble","alias":"ID"},{"name":"DIS_CODE","type":"esriFieldTypeInteger","alias":"DIS_CODE"},{"name":"TOWNNAME","type":"esriFieldTypeString","alias":"TOWNNAME","length":8},{"name":"LI","type":"esriFieldTypeString","alias":"LI","length":8},{"name":"LIN","type":"esriFieldTypeString","alias":"LIN","length":12},{"name":"STREET","type":"esriFieldTypeString","alias":"STREET","length":20},{"name":"SECT","type":"esriFieldTypeString","alias":"SECT","length":8},{"name":"MAREA","type":"esriFieldTypeString","alias":"MAREA","length":12},{"name":"LANE","type":"esriFieldTypeString","alias":"LANE","length":10},{"name":"ALLEY","type":"esriFieldTypeString","alias":"ALLEY","length":10},{"name":"HOUSE_NO","type":"esriFieldTypeString","alias":"HOUSE_NO","length":20},{"name":"E_COORD97","type":"esriFieldTypeDouble","alias":"E_COORD97"},{"name":"N_COORD97","type":"esriFieldTypeDouble","alias":"N_COORD97"},{"name":"ADDRESS","type":"esriFieldTypeString","alias":"ADDRESS","length":50},{"name":"OBJECTID","type":"esriFieldTypeOID","alias":"OBJECTID"}],"features":[{"attributes":{"ID":521228,"DIS_CODE":0,"TOWNNAME":"東區","LI":"富強里","LIN":"31鄰","STREET":"裕農路","SECT":" ","MAREA":" ","LANE":" ","ALLEY":" ","HOUSE_NO":"３７０號十五樓","E_COORD97":171080.64999999999,"N_COORD97":2543068.4100000001,"ADDRESS":"裕農路３７０號十五樓","OBJECTID":521201},"geometry":{"x":171080.65000000037,"y":2543068.4100000001}},{"attributes":{"ID":521229,"DIS_CODE":0,"TOWNNAME":"東區","LI":"富強里","LIN":"31鄰","STREET":"裕農路","SECT":" ","MAREA":" ","LANE":" ","ALLEY":" ","HOUSE_NO":"３７０號十五樓之１","E_COORD97":171080.64999999999,"N_COORD97":2543068.4100000001,"ADDRESS":"裕農路３７０號十五樓之１","OBJECTID":521202},"geometry":{"x":171080.65000000037,"y":2543068.4100000001}},{"attributes":{"ID":521230,"DIS_CODE":0,"TOWNNAME":"東區","LI":"富強里","LIN":"31鄰","STREET":"裕農路","SECT":" ","MAREA":" ","LANE":" ","ALLEY":" ","HOUSE_NO":"３７０號十四樓","E_COORD97":171080.64999999999,"N_COORD97":2543068.4100000001,"ADDRESS":"裕農路３７０號十四樓","OBJECTID":521203},"geometry":{"x":171080.65000000037,"y":2543068.4100000001}},{"attributes":{"ID":521231,"DIS_CODE":0,"TOWNNAME":"東區","LI":"富強里","LIN":"31鄰","STREET":"裕農路","SECT":" ","MAREA":" ","LANE":" ","ALLEY":" ","HOUSE_NO":"３７０號十四樓之１","E_COORD97":171080.64999999999,"N_COORD97":2543068.4100000001,"ADDRESS":"裕農路３７０號十四樓之１","OBJECTID":521204},"geometry":{"x":171080.65000000037,"y":2543068.4100000001}},{"attributes":{"ID":521232,"DIS_CODE":0,"TOWNNAME":"東區","LI":"富強里","LIN":"31鄰","STREET":"裕農路","SECT":" ","MAREA":" ","LANE":" ","ALLEY":" ","HOUSE_NO":"３７０號十樓","E_COORD97":171080.64999999999,"N_COORD97":2543068.4100000001,"ADDRESS":"裕農路３７０號十樓","OBJECTID":521205},"geometry":{"x":171080.65000000037,"y":2543068.4100000001}},{"attributes":{"ID":521233,"DIS_CODE":0,"TOWNNAME":"東區","LI":"富強里","LIN":"31鄰","STREET":"裕農路","SECT":" ","MAREA":" ","LANE":" ","ALLEY":" ","HOUSE_NO":"３７０號十樓之１","E_COORD97":171080.64999999999,"N_COORD97":2543068.4100000001,"ADDRESS":"裕農路３７０號十樓之１","OBJECTID":521206},"geometry":{"x":171080.65000000037,"y":2543068.4100000001}},{"attributes":{"ID":521234,"DIS_CODE":0,"TOWNNAME":"東區","LI":"崇文里","LIN":"31鄰","STREET":"生產路","SECT":" ","MAREA":" ","LANE":" ","ALLEY":" ","HOUSE_NO":"３０７號","E_COORD97":171007.98000000001,"N_COORD97":2540644.9300000002,"ADDRESS":"生產路３０７號","OBJECTID":521207},"geometry":{"x":171007.98000000138,"y":2540644.9300000016}},{"attributes":{"ID":521235,"DIS_CODE":0,"TOWNNAME":"東區","LI":"富強里","LIN":"31鄰","STREET":"裕農路","SECT":" ","MAREA":" ","LANE":" ","ALLEY":" ","HOUSE_NO":"３７０號五樓之１","E_COORD97":171080.64999999999,"N_COORD97":2543068.4100000001,"ADDRESS":"裕農路３７０號五樓之１","OBJECTID":521208},"geometry":{"x":171080.65000000037,"y":2543068.4100000001}},{"attributes":{"ID":521236,"DIS_CODE":0,"TOWNNAME":"東區","LI":"富強里","LIN":"31鄰","STREET":"裕農路","SECT":" ","MAREA":" ","LANE":" ","ALLEY":" ","HOUSE_NO":"３７０號六樓","E_COORD97":171080.64999999999,"N_COORD97":2543068.4100000001,"ADDRESS":"裕農路３７０號六樓","OBJECTID":521209},"geometry":{"x":171080.65000000037,"y":2543068.4100000001}},{"attributes":{"ID":521237,"DIS_CODE":0,"TOWNNAME":"東區","LI":"富強里","LIN":"31鄰","STREET":"裕農路","SECT":" ","MAREA":" ","LANE":" ","ALLEY":" ","HOUSE_NO":"３７０號六樓之１","E_COORD97":171080.64999999999,"N_COORD97":2543068.4100000001,"ADDRESS":"裕農路３７０號六樓之１","OBJECTID":521210},"geometry":{"x":171080.65000000037,"y":2543068.4100000001}},{"attributes":{"ID":521238,"DIS_CODE":0,"TOWNNAME":"東區","LI":"富強里","LIN":"31鄰","STREET":"裕農路","SECT":" ","MAREA":" ","LANE":" ","ALLEY":" ","HOUSE_NO":"３７０號四樓","E_COORD97":171080.64999999999,"N_COORD97":2543068.4100000001,"ADDRESS":"裕農路３７０號四樓","OBJECTID":521211},"geometry":{"x":171080.65000000037,"y":2543068.4100000001}},{"attributes":{"ID":521239,"DIS_CODE":0,"TOWNNAME":"東區","LI":"富強里","LIN":"31鄰","STREET":"裕農路","SECT":" ","MAREA":" ","LANE":" ","ALLEY":" ","HOUSE_NO":"３７０號四樓之１","E_COORD97":171080.64999999999,"N_COORD97":2543068.4100000001,"ADDRESS":"裕農路３７０號四樓之１","OBJECTID":521212},"geometry":{"x":171080.65000000037,"y":2543068.4100000001}},{"attributes":{"ID":521240,"DIS_CODE":0,"TOWNNAME":"東區","LI":"富強里","LIN":"31鄰","STREET":"裕農路","SECT":" ","MAREA":" ","LANE":" ","ALLEY":" ","HOUSE_NO":"３７２號之３七樓","E_COORD97":171102.47,"N_COORD97":2543075.52,"ADDRESS":"裕農路３７２號之３七樓","OBJECTID":521213},"geometry":{"x":171102.47000000067,"y":2543075.5200000014}},{"attributes":{"ID":521241,"DIS_CODE":0,"TOWNNAME":"東區","LI":"富強里","LIN":"31鄰","STREET":"裕農路","SECT":" ","MAREA":" ","LANE":" ","ALLEY":" ","HOUSE_NO":"３７２號之３七樓之１","E_COORD97":171102.47,"N_COORD97":2543075.52,"ADDRESS":"裕農路３７２號之３七樓之１","OBJECTID":521214},"geometry":{"x":171102.47000000067,"y":2543075.5200000014}},{"attributes":{"ID":521242,"DIS_CODE":0,"TOWNNAME":"東區","LI":"富強里","LIN":"31鄰","STREET":"裕農路","SECT":" ","MAREA":" ","LANE":" ","ALLEY":" ","HOUSE_NO":"３７２號之３九樓","E_COORD97":171102.47,"N_COORD97":2543075.52,"ADDRESS":"裕農路３７２號之３九樓","OBJECTID":521215},"geometry":{"x":171102.47000000067,"y":2543075.5200000014}},{"attributes":{"ID":521243,"DIS_CODE":0,"TOWNNAME":"東區","LI":"富強里","LIN":"31鄰","STREET":"裕農路","SECT":" ","MAREA":" ","LANE":" ","ALLEY":" ","HOUSE_NO":"３７２號之３九樓之１","E_COORD97":171102.47,"N_COORD97":2543075.52,"ADDRESS":"裕農路３７２號之３九樓之１","OBJECTID":521216},"geometry":{"x":171102.47000000067,"y":2543075.5200000014}},{"attributes":{"ID":521244,"DIS_CODE":0,"TOWNNAME":"東區","LI":"富強里","LIN":"31鄰","STREET":"裕農路","SECT":" ","MAREA":" ","LANE":" ","ALLEY":" ","HOUSE_NO":"３７２號之３八樓","E_COORD97":171102.47,"N_COORD97":2543075.52,"ADDRESS":"裕農路３７２號之３八樓","OBJECTID":521217},"geometry":{"x":171102.47000000067,"y":2543075.5200000014}},{"attributes":{"ID":521245,"DIS_CODE":0,"TOWNNAME":"東區","LI":"富強里","LIN":"31鄰","STREET":"裕農路","SECT":" ","MAREA":" ","LANE":" ","ALLEY":" ","HOUSE_NO":"３７２號之３八樓之１","E_COORD97":171102.47,"N_COORD97":2543075.52,"ADDRESS":"裕農路３７２號之３八樓之１","OBJECTID":521218},"geometry":{"x":171102.47000000067,"y":2543075.5200000014}},{"attributes":{"ID":521246,"DIS_CODE":0,"TOWNNAME":"東區","LI":"富強里","LIN":"31鄰","STREET":"裕農路","SECT":" ","MAREA":" ","LANE":" ","ALLEY":" ","HOUSE_NO":"３７２號之３十一樓","E_COORD97":171102.47,"N_COORD97":2543075.52,"ADDRESS":"裕農路３７２號之３十一樓","OBJECTID":521219},"geometry":{"x":171102.47000000067,"y":2543075.5200000014}},{"attributes":{"ID":521247,"DIS_CODE":0,"TOWNNAME":"東區","LI":"富強里","LIN":"31鄰","STREET":"裕農路","SECT":" ","MAREA":" ","LANE":" ","ALLEY":" ","HOUSE_NO":"３７２號之３十一樓之","E_COORD97":171102.47,"N_COORD97":2543075.52,"ADDRESS":"裕農路３７２號之３十一樓之１","OBJECTID":521220},"geometry":{"x":171102.47000000067,"y":2543075.5200000014}},{"attributes":{"ID":521248,"DIS_CODE":0,"TOWNNAME":"東區","LI":"富強里","LIN":"31鄰","STREET":"裕農路","SECT":" ","MAREA":" ","LANE":" ","ALLEY":" ","HOUSE_NO":"３７２號之３十二樓","E_COORD97":171102.47,"N_COORD97":2543075.52,"ADDRESS":"裕農路３７２號之３十二樓","OBJECTID":521221},"geometry":{"x":171102.47000000067,"y":2543075.5200000014}},{"attributes":{"ID":521249,"DIS_CODE":0,"TOWNNAME":"東區","LI":"富強里","LIN":"31鄰","STREET":"裕農路","SECT":" ","MAREA":" ","LANE":" ","ALLEY":" ","HOUSE_NO":"３７２號之３十二樓之","E_COORD97":171102.47,"N_COORD97":2543075.52,"ADDRESS":"裕農路３７２號之３十二樓之１","OBJECTID":521222},"geometry":{"x":171102.47000000067,"y":2543075.5200000014}},{"attributes":{"ID":521250,"DIS_CODE":0,"TOWNNAME":"東區","LI":"富強里","LIN":"31鄰","STREET":"裕農路","SECT":" ","MAREA":" ","LANE":" ","ALLEY":" ","HOUSE_NO":"３７２號之３十三樓","E_COORD97":171102.47,"N_COORD97":2543075.52,"ADDRESS":"裕農路３７２號之３十三樓","OBJECTID":521223},"geometry":{"x":171102.47000000067,"y":2543075.5200000014}},{"attributes":{"ID":521251,"DIS_CODE":0,"TOWNNAME":"東區","LI":"富強里","LIN":"31鄰","STREET":"裕農路","SECT":" ","MAREA":" ","LANE":" ","ALLEY":" ","HOUSE_NO":"３７２號之３十三樓之","E_COORD97":171102.47,"N_COORD97":2543075.52,"ADDRESS":"裕農路３７２號之３十三樓之１","OBJECTID":521224},"geometry":{"x":171102.47000000067,"y":2543075.5200000014}},{"attributes":{"ID":521252,"DIS_CODE":0,"TOWNNAME":"東區","LI":"富強里","LIN":"31鄰","STREET":"裕農路","SECT":" ","MAREA":" ","LANE":" ","ALLEY":" ","HOUSE_NO":"３７２號之３十四樓","E_COORD97":171102.47,"N_COORD97":2543075.52,"ADDRESS":"裕農路３７２號之３十四樓","OBJECTID":521225},"geometry":{"x":171102.47000000067,"y":2543075.5200000014}},{"attributes":{"ID":521253,"DIS_CODE":0,"TOWNNAME":"東區","LI":"富強里","LIN":"31鄰","STREET":"裕農路","SECT":" ","MAREA":" ","LANE":" ","ALLEY":" ","HOUSE_NO":"３７２號之３十樓","E_COORD97":171102.47,"N_COORD97":2543075.52,"ADDRESS":"裕農路３７２號之３十樓","OBJECTID":521226},"geometry":{"x":171102.47000000067,"y":2543075.5200000014}},{"attributes":{"ID":521254,"DIS_CODE":0,"TOWNNAME":"東區","LI":"富強里","LIN":"31鄰","STREET":"裕農路","SECT":" ","MAREA":" ","LANE":" ","ALLEY":" ","HOUSE_NO":"３７２號之３十樓之１","E_COORD97":171102.47,"N_COORD97":2543075.52,"ADDRESS":"裕農路３７２號之３十樓之１","OBJECTID":521227},"geometry":{"x":171102.47000000067,"y":2543075.5200000014}},{"attributes":{"ID":521255,"DIS_CODE":0,"TOWNNAME":"東區","LI":"富強里","LIN":"31鄰","STREET":"裕農路","SECT":" ","MAREA":" ","LANE":" ","ALLEY":" ","HOUSE_NO":"３７２號之３三樓","E_COORD97":171102.47,"N_COORD97":2543075.52,"ADDRESS":"裕農路３７２號之３三樓","OBJECTID":521228},"geometry":{"x":171102.47000000067,"y":2543075.5200000014}},{"attributes":{"ID":521256,"DIS_CODE":0,"TOWNNAME":"東區","LI":"富強里","LIN":"31鄰","STREET":"裕農路","SECT":" ","MAREA":" ","LANE":" ","ALLEY":" ","HOUSE_NO":"３７２號之３五樓","E_COORD97":171102.47,"N_COORD97":2543075.52,"ADDRESS":"裕農路３７２號之３五樓","OBJECTID":521229},"geometry":{"x":171102.47000000067,"y":2543075.5200000014}},{"attributes":{"ID":521257,"DIS_CODE":0,"TOWNNAME":"東區","LI":"富強里","LIN":"31鄰","STREET":"裕農路","SECT":" ","MAREA":" ","LANE":" ","ALLEY":" ","HOUSE_NO":"３７２號之３五樓之１","E_COORD97":171102.47,"N_COORD97":2543075.52,"ADDRESS":"裕農路３７２號之３五樓之１","OBJECTID":521230},"geometry":{"x":171102.47000000067,"y":2543075.5200000014}},{"attributes":{"ID":521258,"DIS_CODE":0,"TOWNNAME":"東區","LI":"富強里","LIN":"31鄰","STREET":"裕農路","SECT":" ","MAREA":" ","LANE":" ","ALLEY":" ","HOUSE_NO":"３７２號之３六樓","E_COORD97":171102.47,"N_COORD97":2543075.52,"ADDRESS":"裕農路３７２號之３六樓","OBJECTID":521231},"geometry":{"x":171102.47000000067,"y":2543075.5200000014}},{"attributes":{"ID":521259,"DIS_CODE":0,"TOWNNAME":"東區","LI":"富強里","LIN":"31鄰","STREET":"裕農路","SECT":" ","MAREA":" ","LANE":" ","ALLEY":" ","HOUSE_NO":"３７２號之３六樓之１","E_COORD97":171102.47,"N_COORD97":2543075.52,"ADDRESS":"裕農路３７２號之３六樓之１","OBJECTID":521232},"geometry":{"x":171102.47000000067,"y":2543075.5200000014}},{"attributes":{"ID":521260,"DIS_CODE":0,"TOWNNAME":"東區","LI":"富強里","LIN":"31鄰","STREET":"裕農路","SECT":" ","MAREA":" ","LANE":" ","ALLEY":" ","HOUSE_NO":"３７２號之３四樓","E_COORD97":171102.47,"N_COORD97":2543075.52,"ADDRESS":"裕農路３７２號之３四樓","OBJECTID":521233},"geometry":{"x":171102.47000000067,"y":2543075.5200000014}},{"attributes":{"ID":521261,"DIS_CODE":0,"TOWNNAME":"東區","LI":"富強里","LIN":"31鄰","STREET":"裕農路","SECT":" ","MAREA":" ","LANE":" ","ALLEY":" ","HOUSE_NO":"３７８號二樓","E_COORD97":171140.10000000001,"N_COORD97":2543077.2599999998,"ADDRESS":"裕農路３７８號二樓","OBJECTID":521234},"geometry":{"x":171140.10000000056,"y":2543077.2600000016}},{"attributes":{"ID":521262,"DIS_CODE":0,"TOWNNAME":"東區","LI":"富強里","LIN":"31鄰","STREET":"裕農路","SECT":" ","MAREA":" ","LANE":" ","ALLEY":" ","HOUSE_NO":"３７８號三樓","E_COORD97":171140.10000000001,"N_COORD97":2543077.2599999998,"ADDRESS":"裕農路３７８號三樓","OBJECTID":521235},"geometry":{"x":171140.10000000056,"y":2543077.2600000016}},{"attributes":{"ID":521263,"DIS_CODE":0,"TOWNNAME":"東區","LI":"富強里","LIN":"31鄰","STREET":"裕農路","SECT":" ","MAREA":" ","LANE":" ","ALLEY":" ","HOUSE_NO":"３７８號五樓","E_COORD97":171140.10000000001,"N_COORD97":2543077.2599999998,"ADDRESS":"裕農路３７８號五樓","OBJECTID":521236},"geometry":{"x":171140.10000000056,"y":2543077.2600000016}},{"attributes":{"ID":521264,"DIS_CODE":0,"TOWNNAME":"東區","LI":"富強里","LIN":"31鄰","STREET":"裕農路","SECT":" ","MAREA":" ","LANE":" ","ALLEY":" ","HOUSE_NO":"３７８號六樓","E_COORD97":171140.10000000001,"N_COORD97":2543077.2599999998,"ADDRESS":"裕農路３７８號六樓","OBJECTID":521237},"geometry":{"x":171140.10000000056,"y":2543077.2600000016}},{"attributes":{"ID":521265,"DIS_CODE":0,"TOWNNAME":"永康區","LI":"\u25A0行里","LIN":"31鄰","STREET":"仁愛街","SECT":" ","MAREA":" ","LANE":" ","ALLEY":" ","HOUSE_NO":"４６號之１六樓","E_COORD97":171944.47,"N_COORD97":2549189.9700000002,"ADDRESS":"仁愛街４６號之１六樓","OBJECTID":521238},"geometry":{"x":171944.4700000016,"y":2549189.9700000025}},{"attributes":{"ID":521266,"DIS_CODE":0,"TOWNNAME":"永康區","LI":"\u25A0行里","LIN":"31鄰","STREET":"仁愛街","SECT":" ","MAREA":" ","LANE":" ","ALLEY":" ","HOUSE_NO":"４６號三樓","E_COORD97":171939.87,"N_COORD97":2549186.77,"ADDRESS":"仁愛街４６號三樓","OBJECTID":521239},"geometry":{"x":171939.87000000011,"y":2549186.7700000014}},{"attributes":{"ID":521267,"DIS_CODE":0,"TOWNNAME":"永康區","LI":"\u25A0行里","LIN":"31鄰","STREET":"仁愛街","SECT":" ","MAREA":" ","LANE":" ","ALLEY":" ","HOUSE_NO":"４６號之７三樓","E_COORD97":171986.92999999999,"N_COORD97":2549218.9500000002,"ADDRESS":"仁愛街４６號之７三樓","OBJECTID":521240},"geometry":{"x":171986.93000000156,"y":2549218.9500000011}},{"attributes":{"ID":521268,"DIS_CODE":0,"TOWNNAME":"永康區","LI":"\u25A0行里","LIN":"31鄰","STREET":"仁愛街","SECT":" ","MAREA":" ","LANE":" ","ALLEY":" ","HOUSE_NO":"４６號之１四樓","E_COORD97":171944.47,"N_COORD97":2549189.9700000002,"ADDRESS":"仁愛街４６號之１四樓","OBJECTID":521241},"geometry":{"x":171944.4700000016,"y":2549189.9700000025}},{"attributes":{"ID":521269,"DIS_CODE":0,"TOWNNAME":"永康區","LI":"崑山里","LIN":"31鄰","STREET":"永大路","SECT":"二段","MAREA":" ","LANE":" ","ALLEY":" ","HOUSE_NO":"２７號七樓之１","E_COORD97":174133.20999999999,"N_COORD97":2544722.54,"ADDRESS":"永大路二段２７號七樓之１","OBJECTID":521242},"geometry":{"x":174133.21000000183,"y":2544722.540000001}},{"attributes":{"ID":521270,"DIS_CODE":0,"TOWNNAME":"歸仁區","LI":"後市里","LIN":"31鄰","STREET":"民族北街","SECT":" ","MAREA":" ","LANE":" ","ALLEY":" ","HOUSE_NO":"４７號七樓之３","E_COORD97":177417.78,"N_COORD97":2540947.75,"ADDRESS":"民族北街４７號七樓之３","OBJECTID":521243},"geometry":{"x":177417.78000000026,"y":2540947.7500000037}},{"attributes":{"ID":521271,"DIS_CODE":0,"TOWNNAME":"歸仁區","LI":"後市里","LIN":"31鄰","STREET":"民族北街","SECT":" ","MAREA":" ","LANE":" ","ALLEY":" ","HOUSE_NO":"４７號六樓之１","E_COORD97":177417.76000000001,"N_COORD97":2540947.75,"ADDRESS":"民族北街４７號六樓之１","OBJECTID":521244},"geometry":{"x":177417.75999999885,"y":2540947.7500000037}},{"attributes":{"ID":521272,"DIS_CODE":0,"TOWNNAME":"歸仁區","LI":"後市里","LIN":"31鄰","STREET":"民族北街","SECT":" ","MAREA":" ","LANE":" ","ALLEY":" ","HOUSE_NO":"４７號六樓之２","E_COORD97":177417.79000000001,"N_COORD97":2540947.75,"ADDRESS":"民族北街４７號六樓之２","OBJECTID":521245},"geometry":{"x":177417.79000000004,"y":2540947.7500000037}},{"attributes":{"ID":521273,"DIS_CODE":0,"TOWNNAME":"歸仁區","LI":"後市里","LIN":"31鄰","STREET":"民族北街","SECT":" ","MAREA":" ","LANE":" ","ALLEY":" ","HOUSE_NO":"４７號五樓之２","E_COORD97":177417.79000000001,"N_COORD97":2540947.75,"ADDRESS":"民族北街４７號五樓之２","OBJECTID":521246},"geometry":{"x":177417.79000000004,"y":2540947.7500000037}},{"attributes":{"ID":521274,"DIS_CODE":0,"TOWNNAME":"歸仁區","LI":"後市里","LIN":"31鄰","STREET":"民族北街","SECT":" ","MAREA":" ","LANE":" ","ALLEY":" ","HOUSE_NO":"４７號五樓之５","E_COORD97":177417.79000000001,"N_COORD97":2540947.75,"ADDRESS":"民族北街４７號五樓之５","OBJECTID":521247},"geometry":{"x":177417.79000000004,"y":2540947.7500000037}},{"attributes":{"ID":521275,"DIS_CODE":0,"TOWNNAME":"歸仁區","LI":"後市里","LIN":"31鄰","STREET":"民族北街","SECT":" ","MAREA":" ","LANE":" ","ALLEY":" ","HOUSE_NO":"４７號四樓之２","E_COORD97":177417.79000000001,"N_COORD97":2540947.75,"ADDRESS":"民族北街４７號四樓之２","OBJECTID":521248},"geometry":{"x":177417.79000000004,"y":2540947.7500000037}},{"attributes":{"ID":521276,"DIS_CODE":0,"TOWNNAME":"歸仁區","LI":"後市里","LIN":"31鄰","STREET":"民族北街","SECT":" ","MAREA":" ","LANE":" ","ALLEY":" ","HOUSE_NO":"４７號七樓之２","E_COORD97":177417.79000000001,"N_COORD97":2540947.75,"ADDRESS":"民族北街４７號七樓之２","OBJECTID":521249},"geometry":{"x":177417.79000000004,"y":2540947.7500000037}},{"attributes":{"ID":521277,"DIS_CODE":0,"TOWNNAME":"歸仁區","LI":"後市里","LIN":"31鄰","STREET":"民族北街","SECT":" ","MAREA":" ","LANE":" ","ALLEY":" ","HOUSE_NO":"４７號三樓之１","E_COORD97":177417.76000000001,"N_COORD97":2540947.75,"ADDRESS":"民族北街４７號三樓之１","OBJECTID":521250},"geometry":{"x":177417.75999999885,"y":2540947.7500000037}},{"attributes":{"ID":521278,"DIS_CODE":0,"TOWNNAME":"安平區","LI":"華平里","LIN":"31鄰","STREET":"永華八街","SECT":" ","MAREA":" ","LANE":" ","ALLEY":" ","HOUSE_NO":"２１１號一樓之１","E_COORD97":165150.60999999999,"N_COORD97":2543828.6899999999,"ADDRESS":"永華八街２１１號一樓之１","OBJECTID":521251},"geometry":{"x":165150.61000000034,"y":2543828.6899999995}},{"attributes":{"ID":521279,"DIS_CODE":0,"TOWNNAME":"安平區","LI":"華平里","LIN":"31鄰","STREET":"永華八街","SECT":" ","MAREA":" ","LANE":" ","ALLEY":" ","HOUSE_NO":"２１１號一樓之２","E_COORD97":165140.67000000001,"N_COORD97":2543830.1800000002,"ADDRESS":"永華八街２１１號一樓之２","OBJECTID":521252},"geometry":{"x":165140.67000000086,"y":2543830.1800000016}},{"attributes":{"ID":521280,"DIS_CODE":0,"TOWNNAME":"安平區","LI":"華平里","LIN":"31鄰","STREET":"永華八街","SECT":" ","MAREA":" ","LANE":" ","ALLEY":" ","HOUSE_NO":"２１１號一樓之３","E_COORD97":165126.09,"N_COORD97":2543832.4900000002,"ADDRESS":"永華八街２１１號一樓之３","OBJECTID":521253},"geometry":{"x":165126.09000000078,"y":2543832.4900000021}},{"attributes":{"ID":521281,"DIS_CODE":0,"TOWNNAME":"安平區","LI":"華平里","LIN":"31鄰","STREET":"永華八街","SECT":" ","MAREA":" ","LANE":" ","ALLEY":" ","HOUSE_NO":"２１１號一樓之４","E_COORD97":165116.81,"N_COORD97":2543833.4900000002,"ADDRESS":"永華八街２１１號一樓之４","OBJECTID":521254},"geometry":{"x":165116.80999999959,"y":2543833.4900000002}},{"attributes":{"ID":521282,"DIS_CODE":0,"TOWNNAME":"安平區","LI":"華平里","LIN":"31鄰","STREET":"永華八街","SECT":" ","MAREA":" ","LANE":" ","ALLEY":" ","HOUSE_NO":"２１１號一樓之５","E_COORD97":165109.19,"N_COORD97":2543835.3100000001,"ADDRESS":"永華八街２１１號一樓之５","OBJECTID":521255},"geometry":{"x":165109.19000000134,"y":2543835.3100000005}},{"attributes":{"ID":521283,"DIS_CODE":0,"TOWNNAME":"安平區","LI":"華平里","LIN":"31鄰","STREET":"永華八街","SECT":" ","MAREA":" ","LANE":" ","ALLEY":" ","HOUSE_NO":"２１１號一樓之６","E_COORD97":165113.34,"N_COORD97":2543843.5800000001,"ADDRESS":"永華八街２１１號一樓之６","OBJECTID":521256},"geometry":{"x":165113.33999999985,"y":2543843.5800000001}},{"attributes":{"ID":521284,"DIS_CODE":0,"TOWNNAME":"安平區","LI":"華平里","LIN":"31鄰","STREET":"永華八街","SECT":" ","MAREA":" ","LANE":" ","ALLEY":" ","HOUSE_NO":"２１１號七樓之１","E_COORD97":165164.03,"N_COORD97":2543836.2999999998,"ADDRESS":"永華八街２１１號七樓之１","OBJECTID":521257},"geometry":{"x":165164.03000000119,"y":2543836.2999999989}},{"attributes":{"ID":521285,"DIS_CODE":0,"TOWNNAME":"安平區","LI":"華平里","LIN":"31鄰","STREET":"永華八街","SECT":" ","MAREA":" ","LANE":" ","ALLEY":" ","HOUSE_NO":"２１１號七樓之１０","E_COORD97":165164.03,"N_COORD97":2543836.2999999998,"ADDRESS":"永華八街２１１號七樓之１０","OBJECTID":521258},"geometry":{"x":165164.03000000119,"y":2543836.2999999989}},{"attributes":{"ID":521286,"DIS_CODE":0,"TOWNNAME":"安平區","LI":"華平里","LIN":"31鄰","STREET":"永華八街","SECT":" ","MAREA":" ","LANE":" ","ALLEY":" ","HOUSE_NO":"２１１號七樓之１１","E_COORD97":165164.03,"N_COORD97":2543836.2999999998,"ADDRESS":"永華八街２１１號七樓之１１","OBJECTID":521259},"geometry":{"x":165164.03000000119,"y":2543836.2999999989}},{"attributes":{"ID":521287,"DIS_CODE":0,"TOWNNAME":"安平區","LI":"華平里","LIN":"31鄰","STREET":"永華八街","SECT":" ","MAREA":" ","LANE":" ","ALLEY":" ","HOUSE_NO":"２１１號七樓之１２","E_COORD97":165164.03,"N_COORD97":2543836.2999999998,"ADDRESS":"永華八街２１１號七樓之１２","OBJECTID":521260},"geometry":{"x":165164.03000000119,"y":2543836.2999999989}},{"attributes":{"ID":521288,"DIS_CODE":0,"TOWNNAME":"安平區","LI":"華平里","LIN":"31鄰","STREET":"永華八街","SECT":" ","MAREA":" ","LANE":" ","ALLEY":" ","HOUSE_NO":"２１１號七樓之１３","E_COORD97":165164.03,"N_COORD97":2543836.2999999998,"ADDRESS":"永華八街２１１號七樓之１３","OBJECTID":521261},"geometry":{"x":165164.03000000119,"y":2543836.2999999989}},{"attributes":{"ID":521289,"DIS_CODE":0,"TOWNNAME":"安平區","LI":"華平里","LIN":"31鄰","STREET":"永華八街","SECT":" ","MAREA":" ","LANE":" ","ALLEY":" ","HOUSE_NO":"２１１號七樓之１４","E_COORD97":165164.03,"N_COORD97":2543836.2999999998,"ADDRESS":"永華八街２１１號七樓之１４","OBJECTID":521262},"geometry":{"x":165164.03000000119,"y":2543836.2999999989}},{"attributes":{"ID":521290,"DIS_CODE":0,"TOWNNAME":"安平區","LI":"華平里","LIN":"31鄰","STREET":"永華八街","SECT":" ","MAREA":" ","LANE":" ","ALLEY":" ","HOUSE_NO":"２１１號七樓之１５","E_COORD97":165164.03,"N_COORD97":2543836.2999999998,"ADDRESS":"永華八街２１１號七樓之１５","OBJECTID":521263},"geometry":{"x":165164.03000000119,"y":2543836.2999999989}},{"attributes":{"ID":521291,"DIS_CODE":0,"TOWNNAME":"安平區","LI":"華平里","LIN":"31鄰","STREET":"永華八街","SECT":" ","MAREA":" ","LANE":" ","ALLEY":" ","HOUSE_NO":"２１１號七樓之１６","E_COORD97":165164.03,"N_COORD97":2543836.2999999998,"ADDRESS":"永華八街２１１號七樓之１６","OBJECTID":521264},"geometry":{"x":165164.03000000119,"y":2543836.2999999989}},{"attributes":{"ID":521292,"DIS_CODE":0,"TOWNNAME":"安平區","LI":"華平里","LIN":"31鄰","STREET":"永華八街","SECT":" ","MAREA":" ","LANE":" ","ALLEY":" ","HOUSE_NO":"２１１號七樓之１７","E_COORD97":165164.03,"N_COORD97":2543836.2999999998,"ADDRESS":"永華八街２１１號七樓之１７","OBJECTID":521265},"geometry":{"x":165164.03000000119,"y":2543836.2999999989}},{"attributes":{"ID":521293,"DIS_CODE":0,"TOWNNAME":"安平區","LI":"華平里","LIN":"31鄰","STREET":"永華八街","SECT":" ","MAREA":" ","LANE":" ","ALLEY":" ","HOUSE_NO":"２１１號七樓之１８","E_COORD97":165164.03,"N_COORD97":2543836.2999999998,"ADDRESS":"永華八街２１１號七樓之１８","OBJECTID":521266},"geometry":{"x":165164.03000000119,"y":2543836.2999999989}},{"attributes":{"ID":521294,"DIS_CODE":0,"TOWNNAME":"安平區","LI":"華平里","LIN":"31鄰","STREET":"永華八街","SECT":" ","MAREA":" ","LANE":" ","ALLEY":" ","HOUSE_NO":"２１１號七樓之２","E_COORD97":165164.03,"N_COORD97":2543836.2999999998,"ADDRESS":"永華八街２１１號七樓之２","OBJECTID":521267},"geometry":{"x":165164.03000000119,"y":2543836.2999999989}},{"attributes":{"ID":521295,"DIS_CODE":0,"TOWNNAME":"安平區","LI":"華平里","LIN":"31鄰","STREET":"永華八街","SECT":" ","MAREA":" ","LANE":" ","ALLEY":" ","HOUSE_NO":"２１１號七樓之３","E_COORD97":165164.03,"N_COORD97":2543836.2999999998,"ADDRESS":"永華八街２１１號七樓之３","OBJECTID":521268},"geometry":{"x":165164.03000000119,"y":2543836.2999999989}},{"attributes":{"ID":521296,"DIS_CODE":0,"TOWNNAME":"安平區","LI":"華平里","LIN":"31鄰","STREET":"永華八街","SECT":" ","MAREA":" ","LANE":" ","ALLEY":" ","HOUSE_NO":"２１１號七樓之４","E_COORD97":165164.03,"N_COORD97":2543836.2999999998,"ADDRESS":"永華八街２１１號七樓之４","OBJECTID":521269},"geometry":{"x":165164.03000000119,"y":2543836.2999999989}},{"attributes":{"ID":521297,"DIS_CODE":0,"TOWNNAME":"安平區","LI":"華平里","LIN":"31鄰","STREET":"永華八街","SECT":" ","MAREA":" ","LANE":" ","ALLEY":" ","HOUSE_NO":"２１１號七樓之５","E_COORD97":165164.03,"N_COORD97":2543836.2999999998,"ADDRESS":"永華八街２１１號七樓之５","OBJECTID":521270},"geometry":{"x":165164.03000000119,"y":2543836.2999999989}},{"attributes":{"ID":521298,"DIS_CODE":0,"TOWNNAME":"安平區","LI":"華平里","LIN":"31鄰","STREET":"永華八街","SECT":" ","MAREA":" ","LANE":" ","ALLEY":" ","HOUSE_NO":"２１１號七樓之６","E_COORD97":165164.03,"N_COORD97":2543836.2999999998,"ADDRESS":"永華八街２１１號七樓之６","OBJECTID":521271},"geometry":{"x":165164.03000000119,"y":2543836.2999999989}},{"attributes":{"ID":521299,"DIS_CODE":0,"TOWNNAME":"安平區","LI":"華平里","LIN":"31鄰","STREET":"永華八街","SECT":" ","MAREA":" ","LANE":" ","ALLEY":" ","HOUSE_NO":"２１１號七樓之７","E_COORD97":165164.03,"N_COORD97":2543836.2999999998,"ADDRESS":"永華八街２１１號七樓之７","OBJECTID":521272},"geometry":{"x":165164.03000000119,"y":2543836.2999999989}},{"attributes":{"ID":521300,"DIS_CODE":0,"TOWNNAME":"安平區","LI":"華平里","LIN":"31鄰","STREET":"永華八街","SECT":" ","MAREA":" ","LANE":" ","ALLEY":" ","HOUSE_NO":"２１１號七樓之８","E_COORD97":165164.03,"N_COORD97":2543836.2999999998,"ADDRESS":"永華八街２１１號七樓之８","OBJECTID":521273},"geometry":{"x":165164.03000000119,"y":2543836.2999999989}},{"attributes":{"ID":521301,"DIS_CODE":0,"TOWNNAME":"安平區","LI":"華平里","LIN":"31鄰","STREET":"永華八街","SECT":" ","MAREA":" ","LANE":" ","ALLEY":" ","HOUSE_NO":"２１１號七樓之９","E_COORD97":165164.03,"N_COORD97":2543836.2999999998,"ADDRESS":"永華八街２１１號七樓之９","OBJECTID":521274},"geometry":{"x":165164.03000000119,"y":2543836.2999999989}},{"attributes":{"ID":521302,"DIS_CODE":0,"TOWNNAME":"安平區","LI":"華平里","LIN":"31鄰","STREET":"永華八街","SECT":" ","MAREA":" ","LANE":" ","ALLEY":" ","HOUSE_NO":"２１１號九樓之１","E_COORD97":165164.03,"N_COORD97":2543836.2999999998,"ADDRESS":"永華八街２１１號九樓之１","OBJECTID":521275},"geometry":{"x":165164.03000000119,"y":2543836.2999999989}},{"attributes":{"ID":521303,"DIS_CODE":0,"TOWNNAME":"安平區","LI":"華平里","LIN":"31鄰","STREET":"永華八街","SECT":" ","MAREA":" ","LANE":" ","ALLEY":" ","HOUSE_NO":"２１１號九樓之１０","E_COORD97":165164.03,"N_COORD97":2543836.2999999998,"ADDRESS":"永華八街２１１號九樓之１０","OBJECTID":521276},"geometry":{"x":165164.03000000119,"y":2543836.2999999989}},{"attributes":{"ID":521304,"DIS_CODE":0,"TOWNNAME":"安平區","LI":"華平里","LIN":"31鄰","STREET":"永華八街","SECT":" ","MAREA":" ","LANE":" ","ALLEY":" ","HOUSE_NO":"２１１號九樓之１１","E_COORD97":165164.03,"N_COORD97":2543836.2999999998,"ADDRESS":"永華八街２１１號九樓之１１","OBJECTID":521277},"geometry":{"x":165164.03000000119,"y":2543836.2999999989}},{"attributes":{"ID":521305,"DIS_CODE":0,"TOWNNAME":"安平區","LI":"華平里","LIN":"31鄰","STREET":"永華八街","SECT":" ","MAREA":" ","LANE":" ","ALLEY":" ","HOUSE_NO":"２１１號九樓之１２","E_COORD97":165164.03,"N_COORD97":2543836.2999999998,"ADDRESS":"永華八街２１１號九樓之１２","OBJECTID":521278},"geometry":{"x":165164.03000000119,"y":2543836.2999999989}},{"attributes":{"ID":521306,"DIS_CODE":0,"TOWNNAME":"安平區","LI":"華平里","LIN":"31鄰","STREET":"永華八街","SECT":" ","MAREA":" ","LANE":" ","ALLEY":" ","HOUSE_NO":"２１１號九樓之１３","E_COORD97":165164.03,"N_COORD97":2543836.2999999998,"ADDRESS":"永華八街２１１號九樓之１３","OBJECTID":521279},"geometry":{"x":165164.03000000119,"y":2543836.2999999989}},{"attributes":{"ID":521307,"DIS_CODE":0,"TOWNNAME":"安平區","LI":"華平里","LIN":"31鄰","STREET":"永華八街","SECT":" ","MAREA":" ","LANE":" ","ALLEY":" ","HOUSE_NO":"２１１號九樓之１４","E_COORD97":165164.03,"N_COORD97":2543836.2999999998,"ADDRESS":"永華八街２１１號九樓之１４","OBJECTID":521280},"geometry":{"x":165164.03000000119,"y":2543836.2999999989}},{"attributes":{"ID":521308,"DIS_CODE":0,"TOWNNAME":"安平區","LI":"華平里","LIN":"31鄰","STREET":"永華八街","SECT":" ","MAREA":" ","LANE":" ","ALLEY":" ","HOUSE_NO":"２１１號九樓之１５","E_COORD97":165164.03,"N_COORD97":2543836.2999999998,"ADDRESS":"永華八街２１１號九樓之１５","OBJECTID":521281},"geometry":{"x":165164.03000000119,"y":2543836.2999999989}},{"attributes":{"ID":521309,"DIS_CODE":0,"TOWNNAME":"安平區","LI":"華平里","LIN":"31鄰","STREET":"永華八街","SECT":" ","MAREA":" ","LANE":" ","ALLEY":" ","HOUSE_NO":"２１１號九樓之１６","E_COORD97":165164.03,"N_COORD97":2543836.2999999998,"ADDRESS":"永華八街２１１號九樓之１６","OBJECTID":521282},"geometry":{"x":165164.03000000119,"y":2543836.2999999989}},{"attributes":{"ID":521310,"DIS_CODE":0,"TOWNNAME":"安平區","LI":"華平里","LIN":"31鄰","STREET":"永華八街","SECT":" ","MAREA":" ","LANE":" ","ALLEY":" ","HOUSE_NO":"２１１號九樓之１７","E_COORD97":165164.03,"N_COORD97":2543836.2999999998,"ADDRESS":"永華八街２１１號九樓之１７","OBJECTID":521283},"geometry":{"x":165164.03000000119,"y":2543836.2999999989}},{"attributes":{"ID":521311,"DIS_CODE":0,"TOWNNAME":"安平區","LI":"華平里","LIN":"31鄰","STREET":"永華八街","SECT":" ","MAREA":" ","LANE":" ","ALLEY":" ","HOUSE_NO":"２１１號九樓之１８","E_COORD97":165164.03,"N_COORD97":2543836.2999999998,"ADDRESS":"永華八街２１１號九樓之１８","OBJECTID":521284},"geometry":{"x":165164.03000000119,"y":2543836.2999999989}},{"attributes":{"ID":521312,"DIS_CODE":0,"TOWNNAME":"安平區","LI":"華平里","LIN":"31鄰","STREET":"永華八街","SECT":" ","MAREA":" ","LANE":" ","ALLEY":" ","HOUSE_NO":"２１１號九樓之２","E_COORD97":165164.03,"N_COORD97":2543836.2999999998,"ADDRESS":"永華八街２１１號九樓之２","OBJECTID":521285},"geometry":{"x":165164.03000000119,"y":2543836.2999999989}},{"attributes":{"ID":521313,"DIS_CODE":0,"TOWNNAME":"安平區","LI":"華平里","LIN":"31鄰","STREET":"永華八街","SECT":" ","MAREA":" ","LANE":" ","ALLEY":" ","HOUSE_NO":"２１１號九樓之３","E_COORD97":165164.03,"N_COORD97":2543836.2999999998,"ADDRESS":"永華八街２１１號九樓之３","OBJECTID":521286},"geometry":{"x":165164.03000000119,"y":2543836.2999999989}},{"attributes":{"ID":521314,"DIS_CODE":0,"TOWNNAME":"安平區","LI":"華平里","LIN":"31鄰","STREET":"永華八街","SECT":" ","MAREA":" ","LANE":" ","ALLEY":" ","HOUSE_NO":"２１１號九樓之４","E_COORD97":165164.03,"N_COORD97":2543836.2999999998,"ADDRESS":"永華八街２１１號九樓之４","OBJECTID":521287},"geometry":{"x":165164.03000000119,"y":2543836.2999999989}},{"attributes":{"ID":521315,"DIS_CODE":0,"TOWNNAME":"安平區","LI":"華平里","LIN":"31鄰","STREET":"永華八街","SECT":" ","MAREA":" ","LANE":" ","ALLEY":" ","HOUSE_NO":"２１１號九樓之５","E_COORD97":165164.03,"N_COORD97":2543836.2999999998,"ADDRESS":"永華八街２１１號九樓之５","OBJECTID":521288},"geometry":{"x":165164.03000000119,"y":2543836.2999999989}},{"attributes":{"ID":521316,"DIS_CODE":0,"TOWNNAME":"安平區","LI":"華平里","LIN":"31鄰","STREET":"永華八街","SECT":" ","MAREA":" ","LANE":" ","ALLEY":" ","HOUSE_NO":"２１１號九樓之６","E_COORD97":165164.03,"N_COORD97":2543836.2999999998,"ADDRESS":"永華八街２１１號九樓之６","OBJECTID":521289},"geometry":{"x":165164.03000000119,"y":2543836.2999999989}},{"attributes":{"ID":521317,"DIS_CODE":0,"TOWNNAME":"安平區","LI":"華平里","LIN":"31鄰","STREET":"永華八街","SECT":" ","MAREA":" ","LANE":" ","ALLEY":" ","HOUSE_NO":"２１１號九樓之７","E_COORD97":165164.03,"N_COORD97":2543836.2999999998,"ADDRESS":"永華八街２１１號九樓之７","OBJECTID":521290},"geometry":{"x":165164.03000000119,"y":2543836.2999999989}},{"attributes":{"ID":521318,"DIS_CODE":0,"TOWNNAME":"安平區","LI":"華平里","LIN":"31鄰","STREET":"永華八街","SECT":" ","MAREA":" ","LANE":" ","ALLEY":" ","HOUSE_NO":"２１１號九樓之８","E_COORD97":165164.03,"N_COORD97":2543836.2999999998,"ADDRESS":"永華八街２１１號九樓之８","OBJECTID":521291},"geometry":{"x":165164.03000000119,"y":2543836.2999999989}},{"attributes":{"ID":521319,"DIS_CODE":0,"TOWNNAME":"安平區","LI":"華平里","LIN":"31鄰","STREET":"永華八街","SECT":" ","MAREA":" ","LANE":" ","ALLEY":" ","HOUSE_NO":"２１１號九樓之９","E_COORD97":165164.03,"N_COORD97":2543836.2999999998,"ADDRESS":"永華八街２１１號九樓之９","OBJECTID":521292},"geometry":{"x":165164.03000000119,"y":2543836.2999999989}},{"attributes":{"ID":521320,"DIS_CODE":0,"TOWNNAME":"安平區","LI":"華平里","LIN":"31鄰","STREET":"永華八街","SECT":" ","MAREA":" ","LANE":" ","ALLEY":" ","HOUSE_NO":"２１１號二樓之１","E_COORD97":165164.03,"N_COORD97":2543836.2999999998,"ADDRESS":"永華八街２１１號二樓之１","OBJECTID":521293},"geometry":{"x":165164.03000000119,"y":2543836.2999999989}},{"attributes":{"ID":521321,"DIS_CODE":0,"TOWNNAME":"安平區","LI":"華平里","LIN":"31鄰","STREET":"永華八街","SECT":" ","MAREA":" ","LANE":" ","ALLEY":" ","HOUSE_NO":"２１１號二樓之１０","E_COORD97":165164.03,"N_COORD97":2543836.2999999998,"ADDRESS":"永華八街２１１號二樓之１０","OBJECTID":521294},"geometry":{"x":165164.03000000119,"y":2543836.2999999989}},{"attributes":{"ID":521322,"DIS_CODE":0,"TOWNNAME":"安平區","LI":"華平里","LIN":"31鄰","STREET":"永華八街","SECT":" ","MAREA":" ","LANE":" ","ALLEY":" ","HOUSE_NO":"２１１號二樓之２","E_COORD97":165164.03,"N_COORD97":2543836.2999999998,"ADDRESS":"永華八街２１１號二樓之２","OBJECTID":521295},"geometry":{"x":165164.03000000119,"y":2543836.2999999989}},{"attributes":{"ID":521323,"DIS_CODE":0,"TOWNNAME":"安平區","LI":"華平里","LIN":"31鄰","STREET":"永華八街","SECT":" ","MAREA":" ","LANE":" ","ALLEY":" ","HOUSE_NO":"２１１號二樓之３","E_COORD97":165164.03,"N_COORD97":2543836.2999999998,"ADDRESS":"永華八街２１１號二樓之３","OBJECTID":521296},"geometry":{"x":165164.03000000119,"y":2543836.2999999989}},{"attributes":{"ID":521324,"DIS_CODE":0,"TOWNNAME":"安平區","LI":"華平里","LIN":"31鄰","STREET":"永華八街","SECT":" ","MAREA":" ","LANE":" ","ALLEY":" ","HOUSE_NO":"２１１號二樓之４","E_COORD97":165164.03,"N_COORD97":2543836.2999999998,"ADDRESS":"永華八街２１１號二樓之４","OBJECTID":521297},"geometry":{"x":165164.03000000119,"y":2543836.2999999989}},{"attributes":{"ID":521325,"DIS_CODE":0,"TOWNNAME":"安平區","LI":"華平里","LIN":"31鄰","STREET":"永華八街","SECT":" ","MAREA":" ","LANE":" ","ALLEY":" ","HOUSE_NO":"２１１號二樓之５","E_COORD97":165164.03,"N_COORD97":2543836.2999999998,"ADDRESS":"永華八街２１１號二樓之５","OBJECTID":521298},"geometry":{"x":165164.03000000119,"y":2543836.2999999989}},{"attributes":{"ID":521326,"DIS_CODE":0,"TOWNNAME":"安平區","LI":"華平里","LIN":"31鄰","STREET":"永華八街","SECT":" ","MAREA":" ","LANE":" ","ALLEY":" ","HOUSE_NO":"２１１號二樓之６","E_COORD97":165164.03,"N_COORD97":2543836.2999999998,"ADDRESS":"永華八街２１１號二樓之６","OBJECTID":521299},"geometry":{"x":165164.03000000119,"y":2543836.2999999989}},{"attributes":{"ID":521327,"DIS_CODE":0,"TOWNNAME":"安平區","LI":"華平里","LIN":"31鄰","STREET":"永華八街","SECT":" ","MAREA":" ","LANE":" ","ALLEY":" ","HOUSE_NO":"２１１號二樓之７","E_COORD97":165164.03,"N_COORD97":2543836.2999999998,"ADDRESS":"永華八街２１１號二樓之７","OBJECTID":521300},"geometry":{"x":165164.03000000119,"y":2543836.2999999989}},{"attributes":{"ID":521328,"DIS_CODE":0,"TOWNNAME":"安平區","LI":"華平里","LIN":"31鄰","STREET":"永華八街","SECT":" ","MAREA":" ","LANE":" ","ALLEY":" ","HOUSE_NO":"２１１號二樓之８","E_COORD97":165164.03,"N_COORD97":2543836.2999999998,"ADDRESS":"永華八街２１１號二樓之８","OBJECTID":521301},"geometry":{"x":165164.03000000119,"y":2543836.2999999989}},{"attributes":{"ID":521329,"DIS_CODE":0,"TOWNNAME":"安平區","LI":"華平里","LIN":"31鄰","STREET":"永華八街","SECT":" ","MAREA":" ","LANE":" ","ALLEY":" ","HOUSE_NO":"２１１號二樓之９","E_COORD97":165164.03,"N_COORD97":2543836.2999999998,"ADDRESS":"永華八街２１１號二樓之９","OBJECTID":521302},"geometry":{"x":165164.03000000119,"y":2543836.2999999989}},{"attributes":{"ID":521330,"DIS_CODE":0,"TOWNNAME":"安平區","LI":"華平里","LIN":"31鄰","STREET":"永華八街","SECT":" ","MAREA":" ","LANE":" ","ALLEY":" ","HOUSE_NO":"２１１號八樓之１","E_COORD97":165164.03,"N_COORD97":2543836.2999999998,"ADDRESS":"永華八街２１１號八樓之１","OBJECTID":521303},"geometry":{"x":165164.03000000119,"y":2543836.2999999989}},{"attributes":{"ID":521331,"DIS_CODE":0,"TOWNNAME":"安平區","LI":"華平里","LIN":"31鄰","STREET":"永華八街","SECT":" ","MAREA":" ","LANE":" ","ALLEY":" ","HOUSE_NO":"２１１號八樓之１０","E_COORD97":165164.03,"N_COORD97":2543836.2999999998,"ADDRESS":"永華八街２１１號八樓之１０","OBJECTID":521304},"geometry":{"x":165164.03000000119,"y":2543836.2999999989}},{"attributes":{"ID":521332,"DIS_CODE":0,"TOWNNAME":"安平區","LI":"華平里","LIN":"31鄰","STREET":"永華八街","SECT":" ","MAREA":" ","LANE":" ","ALLEY":" ","HOUSE_NO":"２１１號八樓之１１","E_COORD97":165164.03,"N_COORD97":2543836.2999999998,"ADDRESS":"永華八街２１１號八樓之１１","OBJECTID":521305},"geometry":{"x":165164.03000000119,"y":2543836.2999999989}},{"attributes":{"ID":521333,"DIS_CODE":0,"TOWNNAME":"安平區","LI":"華平里","LIN":"31鄰","STREET":"永華八街","SECT":" ","MAREA":" ","LANE":" ","ALLEY":" ","HOUSE_NO":"２１１號八樓之１２","E_COORD97":165164.03,"N_COORD97":2543836.2999999998,"ADDRESS":"永華八街２１１號八樓之１２","OBJECTID":521306},"geometry":{"x":165164.03000000119,"y":2543836.2999999989}},{"attributes":{"ID":521334,"DIS_CODE":0,"TOWNNAME":"安平區","LI":"華平里","LIN":"31鄰","STREET":"永華八街","SECT":" ","MAREA":" ","LANE":" ","ALLEY":" ","HOUSE_NO":"２１１號八樓之１３","E_COORD97":165164.03,"N_COORD97":2543836.2999999998,"ADDRESS":"永華八街２１１號八樓之１３","OBJECTID":521307},"geometry":{"x":165164.03000000119,"y":2543836.2999999989}},{"attributes":{"ID":521335,"DIS_CODE":0,"TOWNNAME":"安平區","LI":"華平里","LIN":"31鄰","STREET":"永華八街","SECT":" ","MAREA":" ","LANE":" ","ALLEY":" ","HOUSE_NO":"２１１號八樓之１４","E_COORD97":165164.03,"N_COORD97":2543836.2999999998,"ADDRESS":"永華八街２１１號八樓之１４","OBJECTID":521308},"geometry":{"x":165164.03000000119,"y":2543836.2999999989}},{"attributes":{"ID":521336,"DIS_CODE":0,"TOWNNAME":"安平區","LI":"華平里","LIN":"31鄰","STREET":"永華八街","SECT":" ","MAREA":" ","LANE":" ","ALLEY":" ","HOUSE_NO":"２１１號八樓之１５","E_COORD97":165164.03,"N_COORD97":2543836.2999999998,"ADDRESS":"永華八街２１１號八樓之１５","OBJECTID":521309},"geometry":{"x":165164.03000000119,"y":2543836.2999999989}},{"attributes":{"ID":521337,"DIS_CODE":0,"TOWNNAME":"安平區","LI":"華平里","LIN":"31鄰","STREET":"永華八街","SECT":" ","MAREA":" ","LANE":" ","ALLEY":" ","HOUSE_NO":"２１１號八樓之１６","E_COORD97":165164.03,"N_COORD97":2543836.2999999998,"ADDRESS":"永華八街２１１號八樓之１６","OBJECTID":521310},"geometry":{"x":165164.03000000119,"y":2543836.2999999989}},{"attributes":{"ID":521338,"DIS_CODE":0,"TOWNNAME":"安平區","LI":"華平里","LIN":"31鄰","STREET":"永華八街","SECT":" ","MAREA":" ","LANE":" ","ALLEY":" ","HOUSE_NO":"２１１號八樓之１７","E_COORD97":165164.03,"N_COORD97":2543836.2999999998,"ADDRESS":"永華八街２１１號八樓之１７","OBJECTID":521311},"geometry":{"x":165164.03000000119,"y":2543836.2999999989}},{"attributes":{"ID":521339,"DIS_CODE":0,"TOWNNAME":"安平區","LI":"華平里","LIN":"31鄰","STREET":"永華八街","SECT":" ","MAREA":" ","LANE":" ","ALLEY":" ","HOUSE_NO":"２１１號八樓之１８","E_COORD97":165164.03,"N_COORD97":2543836.2999999998,"ADDRESS":"永華八街２１１號八樓之１８","OBJECTID":521312},"geometry":{"x":165164.03000000119,"y":2543836.2999999989}},{"attributes":{"ID":521340,"DIS_CODE":0,"TOWNNAME":"安平區","LI":"華平里","LIN":"31鄰","STREET":"永華八街","SECT":" ","MAREA":" ","LANE":" ","ALLEY":" ","HOUSE_NO":"２１１號八樓之２","E_COORD97":165164.03,"N_COORD97":2543836.2999999998,"ADDRESS":"永華八街２１１號八樓之２","OBJECTID":521313},"geometry":{"x":165164.03000000119,"y":2543836.2999999989}},{"attributes":{"ID":521341,"DIS_CODE":0,"TOWNNAME":"安平區","LI":"華平里","LIN":"31鄰","STREET":"永華八街","SECT":" ","MAREA":" ","LANE":" ","ALLEY":" ","HOUSE_NO":"２１１號八樓之３","E_COORD97":165164.03,"N_COORD97":2543836.2999999998,"ADDRESS":"永華八街２１１號八樓之３","OBJECTID":521314},"geometry":{"x":165164.03000000119,"y":2543836.2999999989}},{"attributes":{"ID":521342,"DIS_CODE":0,"TOWNNAME":"安平區","LI":"華平里","LIN":"31鄰","STREET":"永華八街","SECT":" ","MAREA":" ","LANE":" ","ALLEY":" ","HOUSE_NO":"２１１號八樓之４","E_COORD97":165164.03,"N_COORD97":2543836.2999999998,"ADDRESS":"永華八街２１１號八樓之４","OBJECTID":521315},"geometry":{"x":165164.03000000119,"y":2543836.2999999989}},{"attributes":{"ID":521343,"DIS_CODE":0,"TOWNNAME":"安平區","LI":"華平里","LIN":"31鄰","STREET":"永華八街","SECT":" ","MAREA":" ","LANE":" ","ALLEY":" ","HOUSE_NO":"２１１號八樓之５","E_COORD97":165164.03,"N_COORD97":2543836.2999999998,"ADDRESS":"永華八街２１１號八樓之５","OBJECTID":521316},"geometry":{"x":165164.03000000119,"y":2543836.2999999989}},{"attributes":{"ID":521344,"DIS_CODE":0,"TOWNNAME":"安平區","LI":"華平里","LIN":"31鄰","STREET":"永華八街","SECT":" ","MAREA":" ","LANE":" ","ALLEY":" ","HOUSE_NO":"２１１號八樓之６","E_COORD97":165164.03,"N_COORD97":2543836.2999999998,"ADDRESS":"永華八街２１１號八樓之６","OBJECTID":521317},"geometry":{"x":165164.03000000119,"y":2543836.2999999989}},{"attributes":{"ID":521345,"DIS_CODE":0,"TOWNNAME":"安平區","LI":"華平里","LIN":"31鄰","STREET":"永華八街","SECT":" ","MAREA":" ","LANE":" ","ALLEY":" ","HOUSE_NO":"２１１號八樓之７","E_COORD97":165164.03,"N_COORD97":2543836.2999999998,"ADDRESS":"永華八街２１１號八樓之７","OBJECTID":521318},"geometry":{"x":165164.03000000119,"y":2543836.2999999989}},{"attributes":{"ID":521346,"DIS_CODE":0,"TOWNNAME":"安平區","LI":"華平里","LIN":"31鄰","STREET":"永華八街","SECT":" ","MAREA":" ","LANE":" ","ALLEY":" ","HOUSE_NO":"２１１號八樓之８","E_COORD97":165164.03,"N_COORD97":2543836.2999999998,"ADDRESS":"永華八街２１１號八樓之８","OBJECTID":521319},"geometry":{"x":165164.03000000119,"y":2543836.2999999989}},{"attributes":{"ID":521347,"DIS_CODE":0,"TOWNNAME":"安平區","LI":"華平里","LIN":"31鄰","STREET":"永華八街","SECT":" ","MAREA":" ","LANE":" ","ALLEY":" ","HOUSE_NO":"２１１號八樓之９","E_COORD97":165164.03,"N_COORD97":2543836.2999999998,"ADDRESS":"永華八街２１１號八樓之９","OBJECTID":521320},"geometry":{"x":165164.03000000119,"y":2543836.2999999989}},{"attributes":{"ID":521348,"DIS_CODE":0,"TOWNNAME":"安平區","LI":"華平里","LIN":"31鄰","STREET":"永華八街","SECT":" ","MAREA":" ","LANE":" ","ALLEY":" ","HOUSE_NO":"２１１號三樓之１","E_COORD97":165164.03,"N_COORD97":2543836.2999999998,"ADDRESS":"永華八街２１１號三樓之１","OBJECTID":521321},"geometry":{"x":165164.03000000119,"y":2543836.2999999989}},{"attributes":{"ID":521349,"DIS_CODE":0,"TOWNNAME":"安平區","LI":"華平里","LIN":"31鄰","STREET":"永華八街","SECT":" ","MAREA":" ","LANE":" ","ALLEY":" ","HOUSE_NO":"２１１號三樓之１０","E_COORD97":165164.03,"N_COORD97":2543836.2999999998,"ADDRESS":"永華八街２１１號三樓之１０","OBJECTID":521322},"geometry":{"x":165164.03000000119,"y":2543836.2999999989}},{"attributes":{"ID":521350,"DIS_CODE":0,"TOWNNAME":"安平區","LI":"華平里","LIN":"31鄰","STREET":"永華八街","SECT":" ","MAREA":" ","LANE":" ","ALLEY":" ","HOUSE_NO":"２１１號三樓之１１","E_COORD97":165164.03,"N_COORD97":2543836.2999999998,"ADDRESS":"永華八街２１１號三樓之１１","OBJECTID":521323},"geometry":{"x":165164.03000000119,"y":2543836.2999999989}},{"attributes":{"ID":521351,"DIS_CODE":0,"TOWNNAME":"安平區","LI":"華平里","LIN":"31鄰","STREET":"永華八街","SECT":" ","MAREA":" ","LANE":" ","ALLEY":" ","HOUSE_NO":"２１１號三樓之２","E_COORD97":165164.03,"N_COORD97":2543836.2999999998,"ADDRESS":"永華八街２１１號三樓之２","OBJECTID":521324},"geometry":{"x":165164.03000000119,"y":2543836.2999999989}},{"attributes":{"ID":521352,"DIS_CODE":0,"TOWNNAME":"安平區","LI":"華平里","LIN":"31鄰","STREET":"永華八街","SECT":" ","MAREA":" ","LANE":" ","ALLEY":" ","HOUSE_NO":"２１１號三樓之３","E_COORD97":165164.03,"N_COORD97":2543836.2999999998,"ADDRESS":"永華八街２１１號三樓之３","OBJECTID":521325},"geometry":{"x":165164.03000000119,"y":2543836.2999999989}},{"attributes":{"ID":521353,"DIS_CODE":0,"TOWNNAME":"安平區","LI":"華平里","LIN":"31鄰","STREET":"永華八街","SECT":" ","MAREA":" ","LANE":" ","ALLEY":" ","HOUSE_NO":"２１１號三樓之４","E_COORD97":165164.03,"N_COORD97":2543836.2999999998,"ADDRESS":"永華八街２１１號三樓之４","OBJECTID":521326},"geometry":{"x":165164.03000000119,"y":2543836.2999999989}},{"attributes":{"ID":521354,"DIS_CODE":0,"TOWNNAME":"安平區","LI":"華平里","LIN":"31鄰","STREET":"永華八街","SECT":" ","MAREA":" ","LANE":" ","ALLEY":" ","HOUSE_NO":"２１１號三樓之５","E_COORD97":165164.03,"N_COORD97":2543836.2999999998,"ADDRESS":"永華八街２１１號三樓之５","OBJECTID":521327},"geometry":{"x":165164.03000000119,"y":2543836.2999999989}},{"attributes":{"ID":521355,"DIS_CODE":0,"TOWNNAME":"安平區","LI":"華平里","LIN":"31鄰","STREET":"永華八街","SECT":" ","MAREA":" ","LANE":" ","ALLEY":" ","HOUSE_NO":"２１１號三樓之６","E_COORD97":165164.03,"N_COORD97":2543836.2999999998,"ADDRESS":"永華八街２１１號三樓之６","OBJECTID":521328},"geometry":{"x":165164.03000000119,"y":2543836.2999999989}},{"attributes":{"ID":521356,"DIS_CODE":0,"TOWNNAME":"安平區","LI":"華平里","LIN":"31鄰","STREET":"永華八街","SECT":" ","MAREA":" ","LANE":" ","ALLEY":" ","HOUSE_NO":"２１１號三樓之７","E_COORD97":165164.03,"N_COORD97":2543836.2999999998,"ADDRESS":"永華八街２１１號三樓之７","OBJECTID":521329},"geometry":{"x":165164.03000000119,"y":2543836.2999999989}},{"attributes":{"ID":521357,"DIS_CODE":0,"TOWNNAME":"安平區","LI":"華平里","LIN":"31鄰","STREET":"永華八街","SECT":" ","MAREA":" ","LANE":" ","ALLEY":" ","HOUSE_NO":"２１１號三樓之８","E_COORD97":165164.03,"N_COORD97":2543836.2999999998,"ADDRESS":"永華八街２１１號三樓之８","OBJECTID":521330},"geometry":{"x":165164.03000000119,"y":2543836.2999999989}},{"attributes":{"ID":521358,"DIS_CODE":0,"TOWNNAME":"安平區","LI":"華平里","LIN":"31鄰","STREET":"永華八街","SECT":" ","MAREA":" ","LANE":" ","ALLEY":" ","HOUSE_NO":"２１１號三樓之９","E_COORD97":165164.03,"N_COORD97":2543836.2999999998,"ADDRESS":"永華八街２１１號三樓之９","OBJECTID":521331},"geometry":{"x":165164.03000000119,"y":2543836.2999999989}},{"attributes":{"ID":521359,"DIS_CODE":0,"TOWNNAME":"安平區","LI":"華平里","LIN":"31鄰","STREET":"永華八街","SECT":" ","MAREA":" ","LANE":" ","ALLEY":" ","HOUSE_NO":"２１１號五樓之１","E_COORD97":165164.03,"N_COORD97":2543836.2999999998,"ADDRESS":"永華八街２１１號五樓之１","OBJECTID":521332},"geometry":{"x":165164.03000000119,"y":2543836.2999999989}},{"attributes":{"ID":521360,"DIS_CODE":0,"TOWNNAME":"安平區","LI":"華平里","LIN":"31鄰","STREET":"永華八街","SECT":" ","MAREA":" ","LANE":" ","ALLEY":" ","HOUSE_NO":"２１１號五樓之１０","E_COORD97":165164.03,"N_COORD97":2543836.2999999998,"ADDRESS":"永華八街２１１號五樓之１０","OBJECTID":521333},"geometry":{"x":165164.03000000119,"y":2543836.2999999989}},{"attributes":{"ID":521361,"DIS_CODE":0,"TOWNNAME":"安平區","LI":"華平里","LIN":"31鄰","STREET":"永華八街","SECT":" ","MAREA":" ","LANE":" ","ALLEY":" ","HOUSE_NO":"２１１號五樓之１１","E_COORD97":165164.03,"N_COORD97":2543836.2999999998,"ADDRESS":"永華八街２１１號五樓之１１","OBJECTID":521334},"geometry":{"x":165164.03000000119,"y":2543836.2999999989}},{"attributes":{"ID":521362,"DIS_CODE":0,"TOWNNAME":"安平區","LI":"華平里","LIN":"31鄰","STREET":"永華八街","SECT":" ","MAREA":" ","LANE":" ","ALLEY":" ","HOUSE_NO":"２１１號五樓之１２","E_COORD97":165164.03,"N_COORD97":2543836.2999999998,"ADDRESS":"永華八街２１１號五樓之１２","OBJECTID":521335},"geometry":{"x":165164.03000000119,"y":2543836.2999999989}},{"attributes":{"ID":521363,"DIS_CODE":0,"TOWNNAME":"安平區","LI":"華平里","LIN":"31鄰","STREET":"永華八街","SECT":" ","MAREA":" ","LANE":" ","ALLEY":" ","HOUSE_NO":"２１１號五樓之１３","E_COORD97":165164.03,"N_COORD97":2543836.2999999998,"ADDRESS":"永華八街２１１號五樓之１３","OBJECTID":521336},"geometry":{"x":165164.03000000119,"y":2543836.2999999989}},{"attributes":{"ID":521364,"DIS_CODE":0,"TOWNNAME":"安平區","LI":"華平里","LIN":"31鄰","STREET":"永華八街","SECT":" ","MAREA":" ","LANE":" ","ALLEY":" ","HOUSE_NO":"２１１號五樓之１４","E_COORD97":165164.03,"N_COORD97":2543836.2999999998,"ADDRESS":"永華八街２１１號五樓之１４","OBJECTID":521337},"geometry":{"x":165164.03000000119,"y":2543836.2999999989}},{"attributes":{"ID":521365,"DIS_CODE":0,"TOWNNAME":"安平區","LI":"華平里","LIN":"31鄰","STREET":"永華八街","SECT":" ","MAREA":" ","LANE":" ","ALLEY":" ","HOUSE_NO":"２１１號五樓之１５","E_COORD97":165164.03,"N_COORD97":2543836.2999999998,"ADDRESS":"永華八街２１１號五樓之１５","OBJECTID":521338},"geometry":{"x":165164.03000000119,"y":2543836.2999999989}},{"attributes":{"ID":521366,"DIS_CODE":0,"TOWNNAME":"安平區","LI":"華平里","LIN":"31鄰","STREET":"永華八街","SECT":" ","MAREA":" ","LANE":" ","ALLEY":" ","HOUSE_NO":"２１１號五樓之１６","E_COORD97":165164.03,"N_COORD97":2543836.2999999998,"ADDRESS":"永華八街２１１號五樓之１６","OBJECTID":521339},"geometry":{"x":165164.03000000119,"y":2543836.2999999989}},{"attributes":{"ID":521367,"DIS_CODE":0,"TOWNNAME":"安平區","LI":"華平里","LIN":"31鄰","STREET":"永華八街","SECT":" ","MAREA":" ","LANE":" ","ALLEY":" ","HOUSE_NO":"２１１號五樓之１７","E_COORD97":165164.03,"N_COORD97":2543836.2999999998,"ADDRESS":"永華八街２１１號五樓之１７","OBJECTID":521340},"geometry":{"x":165164.03000000119,"y":2543836.2999999989}},{"attributes":{"ID":521368,"DIS_CODE":0,"TOWNNAME":"安平區","LI":"華平里","LIN":"31鄰","STREET":"永華八街","SECT":" ","MAREA":" ","LANE":" ","ALLEY":" ","HOUSE_NO":"２１１號五樓之１８","E_COORD97":165164.03,"N_COORD97":2543836.2999999998,"ADDRESS":"永華八街２１１號五樓之１８","OBJECTID":521341},"geometry":{"x":165164.03000000119,"y":2543836.2999999989}},{"attributes":{"ID":521369,"DIS_CODE":0,"TOWNNAME":"安平區","LI":"華平里","LIN":"31鄰","STREET":"永華八街","SECT":" ","MAREA":" ","LANE":" ","ALLEY":" ","HOUSE_NO":"２１１號五樓之２","E_COORD97":165164.03,"N_COORD97":2543836.2999999998,"ADDRESS":"永華八街２１１號五樓之２","OBJECTID":521342},"geometry":{"x":165164.03000000119,"y":2543836.2999999989}},{"attributes":{"ID":521370,"DIS_CODE":0,"TOWNNAME":"安平區","LI":"華平里","LIN":"31鄰","STREET":"永華八街","SECT":" ","MAREA":" ","LANE":" ","ALLEY":" ","HOUSE_NO":"２１１號五樓之３","E_COORD97":165164.03,"N_COORD97":2543836.2999999998,"ADDRESS":"永華八街２１１號五樓之３","OBJECTID":521343},"geometry":{"x":165164.03000000119,"y":2543836.2999999989}},{"attributes":{"ID":521371,"DIS_CODE":0,"TOWNNAME":"安平區","LI":"華平里","LIN":"31鄰","STREET":"永華八街","SECT":" ","MAREA":" ","LANE":" ","ALLEY":" ","HOUSE_NO":"２１１號五樓之４","E_COORD97":165164.03,"N_COORD97":2543836.2999999998,"ADDRESS":"永華八街２１１號五樓之４","OBJECTID":521344},"geometry":{"x":165164.03000000119,"y":2543836.2999999989}},{"attributes":{"ID":521372,"DIS_CODE":0,"TOWNNAME":"安平區","LI":"華平里","LIN":"31鄰","STREET":"永華八街","SECT":" ","MAREA":" ","LANE":" ","ALLEY":" ","HOUSE_NO":"２１１號五樓之５","E_COORD97":165164.03,"N_COORD97":2543836.2999999998,"ADDRESS":"永華八街２１１號五樓之５","OBJECTID":521345},"geometry":{"x":165164.03000000119,"y":2543836.2999999989}},{"attributes":{"ID":521373,"DIS_CODE":0,"TOWNNAME":"安平區","LI":"華平里","LIN":"31鄰","STREET":"永華八街","SECT":" ","MAREA":" ","LANE":" ","ALLEY":" ","HOUSE_NO":"２１１號五樓之６","E_COORD97":165164.03,"N_COORD97":2543836.2999999998,"ADDRESS":"永華八街２１１號五樓之６","OBJECTID":521346},"geometry":{"x":165164.03000000119,"y":2543836.2999999989}},{"attributes":{"ID":521374,"DIS_CODE":0,"TOWNNAME":"安平區","LI":"華平里","LIN":"31鄰","STREET":"永華八街","SECT":" ","MAREA":" ","LANE":" ","ALLEY":" ","HOUSE_NO":"２１１號五樓之７","E_COORD97":165164.03,"N_COORD97":2543836.2999999998,"ADDRESS":"永華八街２１１號五樓之７","OBJECTID":521347},"geometry":{"x":165164.03000000119,"y":2543836.2999999989}},{"attributes":{"ID":521375,"DIS_CODE":0,"TOWNNAME":"安平區","LI":"華平里","LIN":"31鄰","STREET":"永華八街","SECT":" ","MAREA":" ","LANE":" ","ALLEY":" ","HOUSE_NO":"２１１號五樓之８","E_COORD97":165164.03,"N_COORD97":2543836.2999999998,"ADDRESS":"永華八街２１１號五樓之８","OBJECTID":521348},"geometry":{"x":165164.03000000119,"y":2543836.2999999989}},{"attributes":{"ID":521376,"DIS_CODE":0,"TOWNNAME":"安平區","LI":"華平里","LIN":"31鄰","STREET":"永華八街","SECT":" ","MAREA":" ","LANE":" ","ALLEY":" ","HOUSE_NO":"２１１號五樓之９","E_COORD97":165164.03,"N_COORD97":2543836.2999999998,"ADDRESS":"永華八街２１１號五樓之９","OBJECTID":521349},"geometry":{"x":165164.03000000119,"y":2543836.2999999989}},{"attributes":{"ID":521377,"DIS_CODE":0,"TOWNNAME":"安平區","LI":"華平里","LIN":"31鄰","STREET":"永華八街","SECT":" ","MAREA":" ","LANE":" ","ALLEY":" ","HOUSE_NO":"２１１號六樓之１","E_COORD97":165164.03,"N_COORD97":2543836.2999999998,"ADDRESS":"永華八街２１１號六樓之１","OBJECTID":521350},"geometry":{"x":165164.03000000119,"y":2543836.2999999989}},{"attributes":{"ID":521378,"DIS_CODE":0,"TOWNNAME":"安平區","LI":"華平里","LIN":"31鄰","STREET":"永華八街","SECT":" ","MAREA":" ","LANE":" ","ALLEY":" ","HOUSE_NO":"２１１號六樓之１０","E_COORD97":165164.03,"N_COORD97":2543836.2999999998,"ADDRESS":"永華八街２１１號六樓之１０","OBJECTID":521351},"geometry":{"x":165164.03000000119,"y":2543836.2999999989}},{"attributes":{"ID":521379,"DIS_CODE":0,"TOWNNAME":"安平區","LI":"華平里","LIN":"31鄰","STREET":"永華八街","SECT":" ","MAREA":" ","LANE":" ","ALLEY":" ","HOUSE_NO":"２１１號六樓之１１","E_COORD97":165164.03,"N_COORD97":2543836.2999999998,"ADDRESS":"永華八街２１１號六樓之１１","OBJECTID":521352},"geometry":{"x":165164.03000000119,"y":2543836.2999999989}},{"attributes":{"ID":521380,"DIS_CODE":0,"TOWNNAME":"安平區","LI":"華平里","LIN":"31鄰","STREET":"永華八街","SECT":" ","MAREA":" ","LANE":" ","ALLEY":" ","HOUSE_NO":"２１１號六樓之１２","E_COORD97":165164.03,"N_COORD97":2543836.2999999998,"ADDRESS":"永華八街２１１號六樓之１２","OBJECTID":521353},"geometry":{"x":165164.03000000119,"y":2543836.2999999989}},{"attributes":{"ID":521381,"DIS_CODE":0,"TOWNNAME":"安平區","LI":"華平里","LIN":"31鄰","STREET":"永華八街","SECT":" ","MAREA":" ","LANE":" ","ALLEY":" ","HOUSE_NO":"２１１號六樓之１３","E_COORD97":165164.03,"N_COORD97":2543836.2999999998,"ADDRESS":"永華八街２１１號六樓之１３","OBJECTID":521354},"geometry":{"x":165164.03000000119,"y":2543836.2999999989}},{"attributes":{"ID":521382,"DIS_CODE":0,"TOWNNAME":"安平區","LI":"華平里","LIN":"31鄰","STREET":"永華八街","SECT":" ","MAREA":" ","LANE":" ","ALLEY":" ","HOUSE_NO":"２１１號六樓之１４","E_COORD97":165164.03,"N_COORD97":2543836.2999999998,"ADDRESS":"永華八街２１１號六樓之１４","OBJECTID":521355},"geometry":{"x":165164.03000000119,"y":2543836.2999999989}},{"attributes":{"ID":521383,"DIS_CODE":0,"TOWNNAME":"安平區","LI":"華平里","LIN":"31鄰","STREET":"永華八街","SECT":" ","MAREA":" ","LANE":" ","ALLEY":" ","HOUSE_NO":"２１１號六樓之１５","E_COORD97":165164.03,"N_COORD97":2543836.2999999998,"ADDRESS":"永華八街２１１號六樓之１５","OBJECTID":521356},"geometry":{"x":165164.03000000119,"y":2543836.2999999989}},{"attributes":{"ID":521384,"DIS_CODE":0,"TOWNNAME":"安平區","LI":"華平里","LIN":"31鄰","STREET":"永華八街","SECT":" ","MAREA":" ","LANE":" ","ALLEY":" ","HOUSE_NO":"２１１號六樓之１６","E_COORD97":165164.03,"N_COORD97":2543836.2999999998,"ADDRESS":"永華八街２１１號六樓之１６","OBJECTID":521357},"geometry":{"x":165164.03000000119,"y":2543836.2999999989}},{"attributes":{"ID":521385,"DIS_CODE":0,"TOWNNAME":"安平區","LI":"華平里","LIN":"31鄰","STREET":"永華八街","SECT":" ","MAREA":" ","LANE":" ","ALLEY":" ","HOUSE_NO":"２１１號六樓之１７","E_COORD97":165164.03,"N_COORD97":2543836.2999999998,"ADDRESS":"永華八街２１１號六樓之１７","OBJECTID":521358},"geometry":{"x":165164.03000000119,"y":2543836.2999999989}},{"attributes":{"ID":521386,"DIS_CODE":0,"TOWNNAME":"安平區","LI":"華平里","LIN":"31鄰","STREET":"永華八街","SECT":" ","MAREA":" ","LANE":" ","ALLEY":" ","HOUSE_NO":"２１１號六樓之１８","E_COORD97":165164.03,"N_COORD97":2543836.2999999998,"ADDRESS":"永華八街２１１號六樓之１８","OBJECTID":521359},"geometry":{"x":165164.03000000119,"y":2543836.2999999989}},{"attributes":{"ID":521387,"DIS_CODE":0,"TOWNNAME":"安平區","LI":"華平里","LIN":"31鄰","STREET":"永華八街","SECT":" ","MAREA":" ","LANE":" ","ALLEY":" ","HOUSE_NO":"２１１號六樓之２","E_COORD97":165164.03,"N_COORD97":2543836.2999999998,"ADDRESS":"永華八街２１１號六樓之２","OBJECTID":521360},"geometry":{"x":165164.03000000119,"y":2543836.2999999989}},{"attributes":{"ID":521388,"DIS_CODE":0,"TOWNNAME":"安平區","LI":"華平里","LIN":"31鄰","STREET":"永華八街","SECT":" ","MAREA":" ","LANE":" ","ALLEY":" ","HOUSE_NO":"２１１號六樓之３","E_COORD97":165164.03,"N_COORD97":2543836.2999999998,"ADDRESS":"永華八街２１１號六樓之３","OBJECTID":521361},"geometry":{"x":165164.03000000119,"y":2543836.2999999989}},{"attributes":{"ID":521389,"DIS_CODE":0,"TOWNNAME":"安平區","LI":"華平里","LIN":"31鄰","STREET":"永華八街","SECT":" ","MAREA":" ","LANE":" ","ALLEY":" ","HOUSE_NO":"２１１號六樓之４","E_COORD97":165164.03,"N_COORD97":2543836.2999999998,"ADDRESS":"永華八街２１１號六樓之４","OBJECTID":521362},"geometry":{"x":165164.03000000119,"y":2543836.2999999989}},{"attributes":{"ID":521390,"DIS_CODE":0,"TOWNNAME":"安平區","LI":"華平里","LIN":"31鄰","STREET":"永華八街","SECT":" ","MAREA":" ","LANE":" ","ALLEY":" ","HOUSE_NO":"２１１號六樓之５","E_COORD97":165164.03,"N_COORD97":2543836.2999999998,"ADDRESS":"永華八街２１１號六樓之５","OBJECTID":521363},"geometry":{"x":165164.03000000119,"y":2543836.2999999989}},{"attributes":{"ID":521391,"DIS_CODE":0,"TOWNNAME":"安平區","LI":"華平里","LIN":"31鄰","STREET":"永華八街","SECT":" ","MAREA":" ","LANE":" ","ALLEY":" ","HOUSE_NO":"２１１號六樓之６","E_COORD97":165164.03,"N_COORD97":2543836.2999999998,"ADDRESS":"永華八街２１１號六樓之６","OBJECTID":521364},"geometry":{"x":165164.03000000119,"y":2543836.2999999989}},{"attributes":{"ID":521392,"DIS_CODE":0,"TOWNNAME":"安平區","LI":"華平里","LIN":"31鄰","STREET":"永華八街","SECT":" ","MAREA":" ","LANE":" ","ALLEY":" ","HOUSE_NO":"２１１號六樓之７","E_COORD97":165164.03,"N_COORD97":2543836.2999999998,"ADDRESS":"永華八街２１１號六樓之７","OBJECTID":521365},"geometry":{"x":165164.03000000119,"y":2543836.2999999989}},{"attributes":{"ID":521393,"DIS_CODE":0,"TOWNNAME":"安平區","LI":"華平里","LIN":"31鄰","STREET":"永華八街","SECT":" ","MAREA":" ","LANE":" ","ALLEY":" ","HOUSE_NO":"２１１號六樓之８","E_COORD97":165164.03,"N_COORD97":2543836.2999999998,"ADDRESS":"永華八街２１１號六樓之８","OBJECTID":521366},"geometry":{"x":165164.03000000119,"y":2543836.2999999989}},{"attributes":{"ID":521394,"DIS_CODE":0,"TOWNNAME":"安平區","LI":"華平里","LIN":"31鄰","STREET":"永華八街","SECT":" ","MAREA":" ","LANE":" ","ALLEY":" ","HOUSE_NO":"２１１號四樓之２","E_COORD97":165164.03,"N_COORD97":2543836.2999999998,"ADDRESS":"永華八街２１１號四樓之２","OBJECTID":521367},"geometry":{"x":165164.03000000119,"y":2543836.2999999989}},{"attributes":{"ID":521395,"DIS_CODE":0,"TOWNNAME":"安平區","LI":"華平里","LIN":"31鄰","STREET":"永華八街","SECT":" ","MAREA":" ","LANE":" ","ALLEY":" ","HOUSE_NO":"２１１號四樓之３","E_COORD97":165164.03,"N_COORD97":2543836.2999999998,"ADDRESS":"永華八街２１１號四樓之３","OBJECTID":521368},"geometry":{"x":165164.03000000119,"y":2543836.2999999989}},{"attributes":{"ID":521396,"DIS_CODE":0,"TOWNNAME":"安平區","LI":"華平里","LIN":"31鄰","STREET":"永華八街","SECT":" ","MAREA":" ","LANE":" ","ALLEY":" ","HOUSE_NO":"２１１號四樓之５","E_COORD97":165164.03,"N_COORD97":2543836.2999999998,"ADDRESS":"永華八街２１１號四樓之５","OBJECTID":521369},"geometry":{"x":165164.03000000119,"y":2543836.2999999989}},{"attributes":{"ID":521397,"DIS_CODE":0,"TOWNNAME":"安平區","LI":"華平里","LIN":"31鄰","STREET":"永華八街","SECT":" ","MAREA":" ","LANE":" ","ALLEY":" ","HOUSE_NO":"２１１號四樓之６","E_COORD97":165164.03,"N_COORD97":2543836.2999999998,"ADDRESS":"永華八街２１１號四樓之６","OBJECTID":521370},"geometry":{"x":165164.03000000119,"y":2543836.2999999989}},{"attributes":{"ID":521398,"DIS_CODE":0,"TOWNNAME":"安平區","LI":"華平里","LIN":"31鄰","STREET":"永華八街","SECT":" ","MAREA":" ","LANE":" ","ALLEY":" ","HOUSE_NO":"２１１號四樓之７","E_COORD97":165164.03,"N_COORD97":2543836.2999999998,"ADDRESS":"永華八街２１１號四樓之７","OBJECTID":521371},"geometry":{"x":165164.03000000119,"y":2543836.2999999989}},{"attributes":{"ID":521399,"DIS_CODE":0,"TOWNNAME":"安平區","LI":"華平里","LIN":"31鄰","STREET":"永華八街","SECT":" ","MAREA":" ","LANE":" ","ALLEY":" ","HOUSE_NO":"２１１號四樓之８","E_COORD97":165164.03,"N_COORD97":2543836.2999999998,"ADDRESS":"永華八街２１１號四樓之８","OBJECTID":521372},"geometry":{"x":165164.03000000119,"y":2543836.2999999989}},{"attributes":{"ID":521400,"DIS_CODE":0,"TOWNNAME":"安平區","LI":"華平里","LIN":"31鄰","STREET":"永華八街","SECT":" ","MAREA":" ","LANE":" ","ALLEY":" ","HOUSE_NO":"２１１號四樓之９","E_COORD97":165164.03,"N_COORD97":2543836.2999999998,"ADDRESS":"永華八街２１１號四樓之９","OBJECTID":521373},"geometry":{"x":165164.03000000119,"y":2543836.2999999989}},{"attributes":{"ID":521401,"DIS_CODE":0,"TOWNNAME":"北區","LI":"和順里","LIN":"31鄰","STREET":"臨安路","SECT":"二段","MAREA":" ","LANE":" ","ALLEY":" ","HOUSE_NO":"１７５號八樓","E_COORD97":167857.23999999999,"N_COORD97":2544910.7200000002,"ADDRESS":"臨安路二段１７５號八樓","OBJECTID":521374},"geometry":{"x":167857.24000000022,"y":2544910.7200000007}},{"attributes":{"ID":521402,"DIS_CODE":0,"TOWNNAME":"北區","LI":"和順里","LIN":"31鄰","STREET":"臨安路","SECT":"二段","MAREA":" ","LANE":" ","ALLEY":" ","HOUSE_NO":"１７３號七樓","E_COORD97":167852.29000000001,"N_COORD97":2544909.1899999999,"ADDRESS":"臨安路二段１７３號七樓","OBJECTID":521375},"geometry":{"x":167852.29000000097,"y":2544909.1899999995}},{"attributes":{"ID":521403,"DIS_CODE":0,"TOWNNAME":"北區","LI":"和順里","LIN":"31鄰","STREET":"臨安路","SECT":"二段","MAREA":" ","LANE":" ","ALLEY":" ","HOUSE_NO":"１７３號九樓","E_COORD97":167852.29000000001,"N_COORD97":2544909.1899999999,"ADDRESS":"臨安路二段１７３號九樓","OBJECTID":521376},"geometry":{"x":167852.29000000097,"y":2544909.1899999995}},{"attributes":{"ID":521404,"DIS_CODE":0,"TOWNNAME":"歸仁區","LI":"南興里","LIN":"31鄰","STREET":"保興街","SECT":" ","MAREA":" ","LANE":" ","ALLEY":" ","HOUSE_NO":"２７號","E_COORD97":176488.12,"N_COORD97":2541000.25,"ADDRESS":"保興街２７號","OBJECTID":521377},"geometry":{"x":176488.12000000011,"y":2541000.25}},{"attributes":{"ID":521405,"DIS_CODE":0,"TOWNNAME":"北區","LI":"和順里","LIN":"31鄰","STREET":"臨安路","SECT":"二段","MAREA":" ","LANE":" ","ALLEY":" ","HOUSE_NO":"１７３號八樓","E_COORD97":167852.29000000001,"N_COORD97":2544909.1899999999,"ADDRESS":"臨安路二段１７３號八樓","OBJECTID":521378},"geometry":{"x":167852.29000000097,"y":2544909.1899999995}},{"attributes":{"ID":521406,"DIS_CODE":0,"TOWNNAME":"北區","LI":"和順里","LIN":"31鄰","STREET":"臨安路","SECT":"二段","MAREA":" ","LANE":" ","ALLEY":" ","HOUSE_NO":"１７３號五樓","E_COORD97":167852.29000000001,"N_COORD97":2544909.1899999999,"ADDRESS":"臨安路二段１７３號五樓","OBJECTID":521379},"geometry":{"x":167852.29000000097,"y":2544909.1899999995}},{"attributes":{"ID":521407,"DIS_CODE":0,"TOWNNAME":"北區","LI":"和順里","LIN":"31鄰","STREET":"臨安路","SECT":"二段","MAREA":" ","LANE":" ","ALLEY":" ","HOUSE_NO":"１７３號六樓","E_COORD97":167852.29000000001,"N_COORD97":2544909.1899999999,"ADDRESS":"臨安路二段１７３號六樓","OBJECTID":521380},"geometry":{"x":167852.29000000097,"y":2544909.1899999995}},{"attributes":{"ID":521408,"DIS_CODE":0,"TOWNNAME":"北區","LI":"和順里","LIN":"31鄰","STREET":"臨安路","SECT":"二段","MAREA":" ","LANE":" ","ALLEY":" ","HOUSE_NO":"１７３號四樓","E_COORD97":167852.29000000001,"N_COORD97":2544909.1899999999,"ADDRESS":"臨安路二段１７３號四樓","OBJECTID":521381},"geometry":{"x":167852.29000000097,"y":2544909.1899999995}},{"attributes":{"ID":521409,"DIS_CODE":0,"TOWNNAME":"北區","LI":"和順里","LIN":"31鄰","STREET":"臨安路","SECT":"二段","MAREA":" ","LANE":" ","ALLEY":" ","HOUSE_NO":"１７５號七樓","E_COORD97":167857.23999999999,"N_COORD97":2544910.7200000002,"ADDRESS":"臨安路二段１７５號七樓","OBJECTID":521382},"geometry":{"x":167857.24000000022,"y":2544910.7200000007}},{"attributes":{"ID":521410,"DIS_CODE":0,"TOWNNAME":"北區","LI":"和順里","LIN":"31鄰","STREET":"臨安路","SECT":"二段","MAREA":" ","LANE":" ","ALLEY":" ","HOUSE_NO":"１７５號九樓","E_COORD97":167857.23999999999,"N_COORD97":2544910.7200000002,"ADDRESS":"臨安路二段１７５號九樓","OBJECTID":521383},"geometry":{"x":167857.24000000022,"y":2544910.7200000007}},{"attributes":{"ID":521411,"DIS_CODE":0,"TOWNNAME":"歸仁區","LI":"後市里","LIN":"31鄰","STREET":"民族北街","SECT":" ","MAREA":" ","LANE":" ","ALLEY":" ","HOUSE_NO":"４７號七樓之７","E_COORD97":177417.78,"N_COORD97":2540947.75,"ADDRESS":"民族北街４７號七樓之７","OBJECTID":521384},"geometry":{"x":177417.78000000026,"y":2540947.7500000037}},{"attributes":{"ID":521412,"DIS_CODE":0,"TOWNNAME":"北區","LI":"和順里","LIN":"31鄰","STREET":"臨安路","SECT":"二段","MAREA":" ","LANE":" ","ALLEY":" ","HOUSE_NO":"１７５號五樓","E_COORD97":167857.23999999999,"N_COORD97":2544910.7200000002,"ADDRESS":"臨安路二段１７５號五樓","OBJECTID":521385},"geometry":{"x":167857.24000000022,"y":2544910.7200000007}},{"attributes":{"ID":521413,"DIS_CODE":0,"TOWNNAME":"北區","LI":"和順里","LIN":"31鄰","STREET":"臨安路","SECT":"二段","MAREA":" ","LANE":" ","ALLEY":" ","HOUSE_NO":"１７５號六樓","E_COORD97":167857.23999999999,"N_COORD97":2544910.7200000002,"ADDRESS":"臨安路二段１７５號六樓","OBJECTID":521386},"geometry":{"x":167857.24000000022,"y":2544910.7200000007}},{"attributes":{"ID":521414,"DIS_CODE":0,"TOWNNAME":"北區","LI":"和順里","LIN":"31鄰","STREET":"臨安路","SECT":"二段","MAREA":" ","LANE":" ","ALLEY":" ","HOUSE_NO":"１７５號四樓","E_COORD97":167857.23999999999,"N_COORD97":2544910.7200000002,"ADDRESS":"臨安路二段１７５號四樓","OBJECTID":521387},"geometry":{"x":167857.24000000022,"y":2544910.7200000007}},{"attributes":{"ID":521415,"DIS_CODE":0,"TOWNNAME":"北區","LI":"和順里","LIN":"31鄰","STREET":"臨安路","SECT":"二段","MAREA":" ","LANE":" ","ALLEY":" ","HOUSE_NO":"１８１號七樓","E_COORD97":167869.64000000001,"N_COORD97":2544915.3700000001,"ADDRESS":"臨安路二段１８１號七樓","OBJECTID":521388},"geometry":{"x":167869.64000000153,"y":2544915.3700000029}},{"attributes":{"ID":521416,"DIS_CODE":0,"TOWNNAME":"北區","LI":"和順里","LIN":"31鄰","STREET":"臨安路","SECT":"二段","MAREA":" ","LANE":" ","ALLEY":" ","HOUSE_NO":"１８１號九樓","E_COORD97":167869.64000000001,"N_COORD97":2544915.3700000001,"ADDRESS":"臨安路二段１８１號九樓","OBJECTID":521389},"geometry":{"x":167869.64000000153,"y":2544915.3700000029}},{"attributes":{"ID":521417,"DIS_CODE":0,"TOWNNAME":"北區","LI":"和順里","LIN":"31鄰","STREET":"臨安路","SECT":"二段","MAREA":" ","LANE":" ","ALLEY":" ","HOUSE_NO":"１８１號八樓","E_COORD97":167869.64000000001,"N_COORD97":2544915.3700000001,"ADDRESS":"臨安路二段１８１號八樓","OBJECTID":521390},"geometry":{"x":167869.64000000153,"y":2544915.3700000029}},{"attributes":{"ID":521418,"DIS_CODE":0,"TOWNNAME":"北區","LI":"和順里","LIN":"31鄰","STREET":"臨安路","SECT":"二段","MAREA":" ","LANE":" ","ALLEY":" ","HOUSE_NO":"１８１號五樓","E_COORD97":167869.64000000001,"N_COORD97":2544915.3700000001,"ADDRESS":"臨安路二段１８１號五樓","OBJECTID":521391},"geometry":{"x":167869.64000000153,"y":2544915.3700000029}},{"attributes":{"ID":521419,"DIS_CODE":0,"TOWNNAME":"北區","LI":"和順里","LIN":"31鄰","STREET":"臨安路","SECT":"二段","MAREA":" ","LANE":" ","ALLEY":" ","HOUSE_NO":"１８１號六樓","E_COORD97":167869.64000000001,"N_COORD97":2544915.3700000001,"ADDRESS":"臨安路二段１８１號六樓","OBJECTID":521392},"geometry":{"x":167869.64000000153,"y":2544915.3700000029}},{"attributes":{"ID":521420,"DIS_CODE":0,"TOWNNAME":"北區","LI":"和順里","LIN":"31鄰","STREET":"臨安路","SECT":"二段","MAREA":" ","LANE":" ","ALLEY":" ","HOUSE_NO":"１８１號四樓","E_COORD97":167869.64000000001,"N_COORD97":2544915.3700000001,"ADDRESS":"臨安路二段１８１號四樓","OBJECTID":521393},"geometry":{"x":167869.64000000153,"y":2544915.3700000029}},{"attributes":{"ID":521421,"DIS_CODE":0,"TOWNNAME":"北區","LI":"和順里","LIN":"31鄰","STREET":"臨安路","SECT":"二段","MAREA":" ","LANE":" ","ALLEY":" ","HOUSE_NO":"１８３號七樓","E_COORD97":167874.04000000001,"N_COORD97":2544916.9500000002,"ADDRESS":"臨安路二段１８３號七樓","OBJECTID":521394},"geometry":{"x":167874.0400000019,"y":2544916.9500000011}},{"attributes":{"ID":521422,"DIS_CODE":0,"TOWNNAME":"北區","LI":"和順里","LIN":"31鄰","STREET":"臨安路","SECT":"二段","MAREA":" ","LANE":" ","ALLEY":" ","HOUSE_NO":"１８３號九樓","E_COORD97":167874.04000000001,"N_COORD97":2544916.9500000002,"ADDRESS":"臨安路二段１８３號九樓","OBJECTID":521395},"geometry":{"x":167874.0400000019,"y":2544916.9500000011}},{"attributes":{"ID":521423,"DIS_CODE":0,"TOWNNAME":"北區","LI":"和順里","LIN":"31鄰","STREET":"臨安路","SECT":"二段","MAREA":" ","LANE":" ","ALLEY":" ","HOUSE_NO":"１８３號八樓","E_COORD97":167874.04000000001,"N_COORD97":2544916.9500000002,"ADDRESS":"臨安路二段１８３號八樓","OBJECTID":521396},"geometry":{"x":167874.0400000019,"y":2544916.9500000011}},{"attributes":{"ID":521424,"DIS_CODE":0,"TOWNNAME":"北區","LI":"和順里","LIN":"31鄰","STREET":"臨安路","SECT":"二段","MAREA":" ","LANE":" ","ALLEY":" ","HOUSE_NO":"１８３號五樓","E_COORD97":167874.04000000001,"N_COORD97":2544916.9500000002,"ADDRESS":"臨安路二段１８３號五樓","OBJECTID":521397},"geometry":{"x":167874.0400000019,"y":2544916.9500000011}},{"attributes":{"ID":521425,"DIS_CODE":0,"TOWNNAME":"北區","LI":"和順里","LIN":"31鄰","STREET":"臨安路","SECT":"二段","MAREA":" ","LANE":" ","ALLEY":" ","HOUSE_NO":"１８３號六樓","E_COORD97":167874.04000000001,"N_COORD97":2544916.9500000002,"ADDRESS":"臨安路二段１８３號六樓","OBJECTID":521398},"geometry":{"x":167874.0400000019,"y":2544916.9500000011}},{"attributes":{"ID":521426,"DIS_CODE":0,"TOWNNAME":"北區","LI":"和順里","LIN":"31鄰","STREET":"臨安路","SECT":"二段","MAREA":" ","LANE":" ","ALLEY":" ","HOUSE_NO":"１８３號四樓","E_COORD97":167874.04000000001,"N_COORD97":2544916.9500000002,"ADDRESS":"臨安路二段１８３號四樓","OBJECTID":521399},"geometry":{"x":167874.0400000019,"y":2544916.9500000011}},{"attributes":{"ID":521427,"DIS_CODE":0,"TOWNNAME":"北區","LI":"和順里","LIN":"31鄰","STREET":"臨安路","SECT":"二段","MAREA":" ","LANE":" ","ALLEY":" ","HOUSE_NO":"１８９號七樓","E_COORD97":167887.28,"N_COORD97":2544921.0899999999,"ADDRESS":"臨安路二段１８９號七樓","OBJECTID":521400},"geometry":{"x":167887.28000000026,"y":2544921.0899999999}}]}