{"displayFieldName":"TOWNNAME","fieldAliases":{"ID":"ID","DIS_CODE":"DIS_CODE","TOWNNAME":"TOWNNAME","LI":"LI","LIN":"LIN","STREET":"STREET","SECT":"SECT","MAREA":"MAREA","LANE":"LANE","ALLEY":"ALLEY","HOUSE_NO":"HOUSE_NO","E_COORD97":"E_COORD97","N_COORD97":"N_COORD97","ADDRESS":"ADDRESS","OBJECTID":"OBJECTID"},"geometryType":"esriGeometryPoint","spatialReference":{"wkid":102443,"latestWkid":3826},"fields":[{"name":"ID","type":"esriFieldTypeDouble","alias":"ID"},{"name":"DIS_CODE","type":"esriFieldTypeInteger","alias":"DIS_CODE"},{"name":"TOWNNAME","type":"esriFieldTypeString","alias":"TOWNNAME","length":8},{"name":"LI","type":"esriFieldTypeString","alias":"LI","length":8},{"name":"LIN","type":"esriFieldTypeString","alias":"LIN","length":12},{"name":"STREET","type":"esriFieldTypeString","alias":"STREET","length":20},{"name":"SECT","type":"esriFieldTypeString","alias":"SECT","length":8},{"name":"MAREA","type":"esriFieldTypeString","alias":"MAREA","length":12},{"name":"LANE","type":"esriFieldTypeString","alias":"LANE","length":10},{"name":"ALLEY","type":"esriFieldTypeString","alias":"ALLEY","length":10},{"name":"HOUSE_NO","type":"esriFieldTypeString","alias":"HOUSE_NO","length":20},{"name":"E_COORD97","type":"esriFieldTypeDouble","alias":"E_COORD97"},{"name":"N_COORD97","type":"esriFieldTypeDouble","alias":"N_COORD97"},{"name":"ADDRESS","type":"esriFieldTypeString","alias":"ADDRESS","length":50},{"name":"OBJECTID","type":"esriFieldTypeOID","alias":"OBJECTID"}],"features":[{"attributes":{"ID":65601,"DIS_CODE":0,"TOWNNAME":"大內區","LI":"大內里","LIN":"1鄰","STREET":" ","SECT":" ","MAREA":"內庄","LANE":" ","ALLEY":" ","HOUSE_NO":"１號之４１","E_COORD97":184269.35999999999,"N_COORD97":2557615.2999999998,"ADDRESS":"內庄１號之４１","OBJECTID":65601},"geometry":{"x":184269.36000000034,"y":2557615.3000000045}},{"attributes":{"ID":65602,"DIS_CODE":0,"TOWNNAME":"大內區","LI":"二溪里","LIN":"1鄰","STREET":" ","SECT":" ","MAREA":"二重溪","LANE":" ","ALLEY":" ","HOUSE_NO":"１３５號之３","E_COORD97":187514.556877,"N_COORD97":2557895.3244599998,"ADDRESS":"二重溪１３５號之３","OBJECTID":65602},"geometry":{"x":187514.55687700119,"y":2557895.3244630005}},{"attributes":{"ID":65603,"DIS_CODE":0,"TOWNNAME":"永康區","LI":"五王里","LIN":"6鄰","STREET":"中華二路","SECT":" ","MAREA":" ","LANE":"２０６巷","ALLEY":"６８弄","HOUSE_NO":"２號","E_COORD97":171610.01000000001,"N_COORD97":2545647.2400000002,"ADDRESS":"中華二路２０６巷６８弄２號","OBJECTID":65603},"geometry":{"x":171610.00999999978,"y":2545647.2400000021}},{"attributes":{"ID":65604,"DIS_CODE":0,"TOWNNAME":"永康區","LI":"五王里","LIN":"6鄰","STREET":"中華二路","SECT":" ","MAREA":" ","LANE":"２０６巷","ALLEY":"６８弄","HOUSE_NO":"１８號","E_COORD97":171639.14000000001,"N_COORD97":2545652.7999999998,"ADDRESS":"中華二路２０６巷６８弄１８號","OBJECTID":65604},"geometry":{"x":171639.13999999966,"y":2545652.8000000007}},{"attributes":{"ID":65605,"DIS_CODE":0,"TOWNNAME":"永康區","LI":"五王里","LIN":"6鄰","STREET":"中華二路","SECT":" ","MAREA":" ","LANE":"２０６巷","ALLEY":"６８弄","HOUSE_NO":"２０號","E_COORD97":171643.34,"N_COORD97":2545654.0499999998,"ADDRESS":"中華二路２０６巷６８弄２０號","OBJECTID":65605},"geometry":{"x":171643.33999999985,"y":2545654.0500000007}},{"attributes":{"ID":65606,"DIS_CODE":0,"TOWNNAME":"善化區","LI":"文正里","LIN":"8鄰","STREET":"文正路","SECT":" ","MAREA":" ","LANE":" ","ALLEY":" ","HOUSE_NO":"５７號","E_COORD97":177024.20000000001,"N_COORD97":2559258.0299999998,"ADDRESS":"文正路５７號","OBJECTID":65606},"geometry":{"x":177024.20000000112,"y":2559258.0299999993}},{"attributes":{"ID":65607,"DIS_CODE":0,"TOWNNAME":"善化區","LI":"文昌里","LIN":"8鄰","STREET":"文昌路","SECT":" ","MAREA":" ","LANE":" ","ALLEY":" ","HOUSE_NO":"２６號之６","E_COORD97":177437.97,"N_COORD97":2558787.2799999998,"ADDRESS":"文昌路２６號之６","OBJECTID":65607},"geometry":{"x":177437.96999999974,"y":2558787.2800000012}},{"attributes":{"ID":65608,"DIS_CODE":0,"TOWNNAME":"善化區","LI":"光文里","LIN":"8鄰","STREET":"中山路","SECT":" ","MAREA":" ","LANE":" ","ALLEY":" ","HOUSE_NO":"１４號（半毀）","E_COORD97":178967.56,"N_COORD97":2559309.5,"ADDRESS":"中山路１４號（半毀）","OBJECTID":65608},"geometry":{"x":178967.56000000052,"y":2559309.5000000019}},{"attributes":{"ID":65609,"DIS_CODE":0,"TOWNNAME":"善化區","LI":"文昌里","LIN":"8鄰","STREET":"文昌路","SECT":" ","MAREA":" ","LANE":" ","ALLEY":" ","HOUSE_NO":"３１號","E_COORD97":177383.12,"N_COORD97":2558748.7799999998,"ADDRESS":"文昌路３１號","OBJECTID":65609},"geometry":{"x":177383.12000000011,"y":2558748.7799999993}},{"attributes":{"ID":65610,"DIS_CODE":0,"TOWNNAME":"善化區","LI":"北關里","LIN":"8鄰","STREET":"博愛路","SECT":" ","MAREA":" ","LANE":" ","ALLEY":" ","HOUSE_NO":"６號","E_COORD97":177271.79999999999,"N_COORD97":2559221.7599999998,"ADDRESS":"博愛路６號","OBJECTID":65610},"geometry":{"x":177271.80000000168,"y":2559221.7600000016}},{"attributes":{"ID":65611,"DIS_CODE":0,"TOWNNAME":"善化區","LI":"文昌里","LIN":"8鄰","STREET":"大同路","SECT":" ","MAREA":" ","LANE":" ","ALLEY":" ","HOUSE_NO":"２３１號","E_COORD97":177419,"N_COORD97":2558741.25,"ADDRESS":"大同路２３１號","OBJECTID":65611},"geometry":{"x":177419.00000000093,"y":2558741.2500000019}},{"attributes":{"ID":65612,"DIS_CODE":0,"TOWNNAME":"永康區","LI":"中興里","LIN":"6鄰","STREET":"中華一路","SECT":" ","MAREA":" ","LANE":"５８巷","ALLEY":"６弄","HOUSE_NO":"３號","E_COORD97":171872.73999999999,"N_COORD97":2545033.8900000001,"ADDRESS":"中華一路５８巷６弄３號","OBJECTID":65612},"geometry":{"x":171872.74000000022,"y":2545033.8900000025}},{"attributes":{"ID":65613,"DIS_CODE":0,"TOWNNAME":"永康區","LI":"五王里","LIN":"6鄰","STREET":"中華二路","SECT":" ","MAREA":" ","LANE":"２０６巷","ALLEY":"６８弄","HOUSE_NO":"１６號","E_COORD97":171634.98000000001,"N_COORD97":2545651.7999999998,"ADDRESS":"中華二路２０６巷６８弄１６號","OBJECTID":65613},"geometry":{"x":171634.98000000138,"y":2545651.8000000026}},{"attributes":{"ID":65614,"DIS_CODE":0,"TOWNNAME":"永康區","LI":"王行里","LIN":"6鄰","STREET":"育樂街","SECT":" ","MAREA":" ","LANE":"１０４巷","ALLEY":"６７弄","HOUSE_NO":"４２號之１","E_COORD97":175138.16,"N_COORD97":2548582.7999999998,"ADDRESS":"育樂街１０４巷６７弄４２號之１","OBJECTID":65614},"geometry":{"x":175138.16000000015,"y":2548582.7999999989}},{"attributes":{"ID":65615,"DIS_CODE":0,"TOWNNAME":"永康區","LI":"王行里","LIN":"6鄰","STREET":"育樂街","SECT":" ","MAREA":" ","LANE":"１０４巷","ALLEY":"６７弄","HOUSE_NO":"４２號","E_COORD97":175076.35000000001,"N_COORD97":2548576.2799999998,"ADDRESS":"育樂街１０４巷６７弄４２號","OBJECTID":65615},"geometry":{"x":175076.35000000056,"y":2548576.2800000012}},{"attributes":{"ID":65616,"DIS_CODE":0,"TOWNNAME":"永康區","LI":"王行里","LIN":"6鄰","STREET":"育樂街","SECT":" ","MAREA":" ","LANE":"１４３巷","ALLEY":"２５弄","HOUSE_NO":"８號","E_COORD97":175131.72,"N_COORD97":2548216.5,"ADDRESS":"育樂街１４３巷２５弄８號","OBJECTID":65616},"geometry":{"x":175131.72000000067,"y":2548216.5}},{"attributes":{"ID":65617,"DIS_CODE":0,"TOWNNAME":"將軍區","LI":"忠興里","LIN":"8鄰","STREET":" ","SECT":" ","MAREA":"忠興","LANE":" ","ALLEY":" ","HOUSE_NO":"９０號","E_COORD97":163618.17999999999,"N_COORD97":2566828.8399999999,"ADDRESS":"忠興９０號","OBJECTID":65617},"geometry":{"x":163618.18000000063,"y":2566828.8400000036}},{"attributes":{"ID":65618,"DIS_CODE":0,"TOWNNAME":"永康區","LI":"中興里","LIN":"6鄰","STREET":"中華一路","SECT":" ","MAREA":" ","LANE":"５８巷","ALLEY":"６弄","HOUSE_NO":"５號","E_COORD97":171878.54000000001,"N_COORD97":2545034.6400000001,"ADDRESS":"中華一路５８巷６弄５號","OBJECTID":65618},"geometry":{"x":171878.54000000097,"y":2545034.6400000025}},{"attributes":{"ID":65619,"DIS_CODE":0,"TOWNNAME":"永康區","LI":"五王里","LIN":"6鄰","STREET":"中華二路","SECT":" ","MAREA":" ","LANE":"２０６巷","ALLEY":"６８弄","HOUSE_NO":"１２號","E_COORD97":171630.06,"N_COORD97":2545650.5499999998,"ADDRESS":"中華二路２０６巷６８弄１２號","OBJECTID":65619},"geometry":{"x":171630.06000000145,"y":2545650.5500000007}},{"attributes":{"ID":65620,"DIS_CODE":0,"TOWNNAME":"永康區","LI":"\u25A0洲里","LIN":"6鄰","STREET":"三村二街","SECT":" ","MAREA":" ","LANE":"１２巷","ALLEY":"１弄","HOUSE_NO":"３０號","E_COORD97":171915.87,"N_COORD97":2549500.7400000002,"ADDRESS":"三村二街１２巷１弄３０號","OBJECTID":65620},"geometry":{"x":171915.87000000011,"y":2549500.7400000002}},{"attributes":{"ID":65621,"DIS_CODE":0,"TOWNNAME":"安南區","LI":"安富里","LIN":"6鄰","STREET":"郡安路","SECT":"五段","MAREA":" ","LANE":"１８４巷","ALLEY":"６６弄","HOUSE_NO":"１１號","E_COORD97":167443.20000000001,"N_COORD97":2547563.46,"ADDRESS":"郡安路五段１８４巷６６弄１１號","OBJECTID":65621},"geometry":{"x":167443.20000000112,"y":2547563.4600000009}},{"attributes":{"ID":65622,"DIS_CODE":0,"TOWNNAME":"安南區","LI":"安富里","LIN":"6鄰","STREET":"郡安路","SECT":"五段","MAREA":" ","LANE":"１８４巷","ALLEY":"６６弄","HOUSE_NO":"２１號","E_COORD97":167399.42999999999,"N_COORD97":2547555.4500000002,"ADDRESS":"郡安路五段１８４巷６６弄２１號","OBJECTID":65622},"geometry":{"x":167399.4299999997,"y":2547555.4499999993}},{"attributes":{"ID":65623,"DIS_CODE":0,"TOWNNAME":"安南區","LI":"安富里","LIN":"6鄰","STREET":"郡安路","SECT":"五段","MAREA":" ","LANE":"１８４巷","ALLEY":"６６弄","HOUSE_NO":"２８號","E_COORD97":167372.62,"N_COORD97":2547570.0800000001,"ADDRESS":"郡安路五段１８４巷６６弄２８號","OBJECTID":65623},"geometry":{"x":167372.62000000104,"y":2547570.0800000038}},{"attributes":{"ID":65624,"DIS_CODE":0,"TOWNNAME":"南區","LI":"日新里","LIN":"13鄰","STREET":"新興路","SECT":" ","MAREA":" ","LANE":"４３９巷","ALLEY":"４弄","HOUSE_NO":"１９號","E_COORD97":166877.03,"N_COORD97":2541670.75,"ADDRESS":"新興路４３９巷４弄１９號","OBJECTID":65624},"geometry":{"x":166877.03000000026,"y":2541670.7500000019}},{"attributes":{"ID":65625,"DIS_CODE":0,"TOWNNAME":"南區","LI":"日新里","LIN":"13鄰","STREET":"新興路","SECT":" ","MAREA":" ","LANE":"４３９巷","ALLEY":"４弄","HOUSE_NO":"１號","E_COORD97":166920.57000000001,"N_COORD97":2541674.6000000001,"ADDRESS":"新興路４３９巷４弄１號","OBJECTID":65625},"geometry":{"x":166920.5700000003,"y":2541674.6000000015}},{"attributes":{"ID":65626,"DIS_CODE":0,"TOWNNAME":"南區","LI":"日新里","LIN":"13鄰","STREET":"新興路","SECT":" ","MAREA":" ","LANE":"４３９巷","ALLEY":"４弄","HOUSE_NO":"２０號","E_COORD97":166879.01000000001,"N_COORD97":2541685.3100000001,"ADDRESS":"新興路４３９巷４弄２０號","OBJECTID":65626},"geometry":{"x":166879.01000000164,"y":2541685.3100000005}},{"attributes":{"ID":65627,"DIS_CODE":0,"TOWNNAME":"南區","LI":"日新里","LIN":"13鄰","STREET":"新興路","SECT":" ","MAREA":" ","LANE":"４３９巷","ALLEY":"４弄","HOUSE_NO":"２號","E_COORD97":166926.95000000001,"N_COORD97":2541691.2200000002,"ADDRESS":"新興路４３９巷４弄２號","OBJECTID":65627},"geometry":{"x":166926.95000000019,"y":2541691.2200000025}},{"attributes":{"ID":65628,"DIS_CODE":0,"TOWNNAME":"南區","LI":"日新里","LIN":"13鄰","STREET":"新興路","SECT":" ","MAREA":" ","LANE":"４３９巷","ALLEY":"４弄","HOUSE_NO":"３號","E_COORD97":166915.54000000001,"N_COORD97":2541673.79,"ADDRESS":"新興路４３９巷４弄３號","OBJECTID":65628},"geometry":{"x":166915.54000000004,"y":2541673.7899999991}},{"attributes":{"ID":65629,"DIS_CODE":0,"TOWNNAME":"南區","LI":"日新里","LIN":"13鄰","STREET":"新興路","SECT":" ","MAREA":" ","LANE":"４３９巷","ALLEY":"４弄","HOUSE_NO":"４號","E_COORD97":166921.38,"N_COORD97":2541690.1600000001,"ADDRESS":"新興路４３９巷４弄４號","OBJECTID":65629},"geometry":{"x":166921.38000000082,"y":2541690.1600000001}},{"attributes":{"ID":65630,"DIS_CODE":0,"TOWNNAME":"南區","LI":"日新里","LIN":"13鄰","STREET":"新興路","SECT":" ","MAREA":" ","LANE":"４３９巷","ALLEY":"４弄","HOUSE_NO":"５號","E_COORD97":166911.04999999999,"N_COORD97":2541673.2599999998,"ADDRESS":"新興路４３９巷４弄５號","OBJECTID":65630},"geometry":{"x":166911.05000000075,"y":2541673.2600000016}},{"attributes":{"ID":65631,"DIS_CODE":0,"TOWNNAME":"南區","LI":"日新里","LIN":"13鄰","STREET":"新興路","SECT":" ","MAREA":" ","LANE":"４３９巷","ALLEY":"４弄","HOUSE_NO":"６號","E_COORD97":166915.54999999999,"N_COORD97":2541689.3500000001,"ADDRESS":"新興路４３９巷４弄６號","OBJECTID":65631},"geometry":{"x":166915.54999999981,"y":2541689.3500000015}},{"attributes":{"ID":65632,"DIS_CODE":0,"TOWNNAME":"南區","LI":"日新里","LIN":"13鄰","STREET":"新興路","SECT":" ","MAREA":" ","LANE":"４３９巷","ALLEY":"４弄","HOUSE_NO":"７號","E_COORD97":166906.56,"N_COORD97":2541672.9900000002,"ADDRESS":"新興路４３９巷４弄７號","OBJECTID":65632},"geometry":{"x":166906.55999999959,"y":2541672.9900000021}},{"attributes":{"ID":65633,"DIS_CODE":0,"TOWNNAME":"南區","LI":"日新里","LIN":"13鄰","STREET":"新興路","SECT":" ","MAREA":" ","LANE":"４３９巷","ALLEY":"４弄","HOUSE_NO":"８號","E_COORD97":166910.25,"N_COORD97":2541688.9900000002,"ADDRESS":"新興路４３９巷４弄８號","OBJECTID":65633},"geometry":{"x":166910.25000000093,"y":2541688.9900000021}},{"attributes":{"ID":65634,"DIS_CODE":0,"TOWNNAME":"安南區","LI":"安富里","LIN":"6鄰","STREET":"郡安路","SECT":"五段","MAREA":" ","LANE":"１８４巷","ALLEY":"６６弄","HOUSE_NO":"２９號","E_COORD97":167369.28,"N_COORD97":2547549.1499999999,"ADDRESS":"郡安路五段１８４巷６６弄２９號","OBJECTID":65634},"geometry":{"x":167369.28000000212,"y":2547549.1500000004}},{"attributes":{"ID":65635,"DIS_CODE":0,"TOWNNAME":"安南區","LI":"安富里","LIN":"6鄰","STREET":"郡安路","SECT":"五段","MAREA":" ","LANE":"１８４巷","ALLEY":"６６弄","HOUSE_NO":"２號","E_COORD97":167473.95999999999,"N_COORD97":2547591.2599999998,"ADDRESS":"郡安路五段１８４巷６６弄２號","OBJECTID":65635},"geometry":{"x":167473.95999999996,"y":2547591.2599999998}},{"attributes":{"ID":65636,"DIS_CODE":0,"TOWNNAME":"安南區","LI":"安富里","LIN":"6鄰","STREET":"郡安路","SECT":"五段","MAREA":" ","LANE":"１８４巷","ALLEY":"６６弄","HOUSE_NO":"３０號","E_COORD97":167364.82000000001,"N_COORD97":2547569.2200000002,"ADDRESS":"郡安路五段１８４巷６６弄３０號","OBJECTID":65636},"geometry":{"x":167364.8200000003,"y":2547569.2200000007}},{"attributes":{"ID":65637,"DIS_CODE":0,"TOWNNAME":"安南區","LI":"安富里","LIN":"6鄰","STREET":"郡安路","SECT":"五段","MAREA":" ","LANE":"１８４巷","ALLEY":"６６弄","HOUSE_NO":"３２號","E_COORD97":167361.57000000001,"N_COORD97":2547566.3999999999,"ADDRESS":"郡安路五段１８４巷６６弄３２號","OBJECTID":65637},"geometry":{"x":167361.5700000003,"y":2547566.4000000022}},{"attributes":{"ID":65638,"DIS_CODE":0,"TOWNNAME":"安南區","LI":"安富里","LIN":"6鄰","STREET":"郡安路","SECT":"五段","MAREA":" ","LANE":"１８４巷","ALLEY":"６６弄","HOUSE_NO":"３３號","E_COORD97":167353.45999999999,"N_COORD97":2547546.77,"ADDRESS":"郡安路五段１８４巷６６弄３３號","OBJECTID":65638},"geometry":{"x":167353.45999999996,"y":2547546.7699999996}},{"attributes":{"ID":65639,"DIS_CODE":0,"TOWNNAME":"安南區","LI":"安富里","LIN":"6鄰","STREET":"郡安路","SECT":"五段","MAREA":" ","LANE":"１８４巷","ALLEY":"６６弄","HOUSE_NO":"３４號","E_COORD97":167357.45000000001,"N_COORD97":2547568.3500000001,"ADDRESS":"郡安路五段１８４巷６６弄３４號","OBJECTID":65639},"geometry":{"x":167357.45000000019,"y":2547568.3500000015}},{"attributes":{"ID":65640,"DIS_CODE":0,"TOWNNAME":"安南區","LI":"安富里","LIN":"6鄰","STREET":"郡安路","SECT":"五段","MAREA":" ","LANE":"１８４巷","ALLEY":"６６弄","HOUSE_NO":"３５號","E_COORD97":167347.82999999999,"N_COORD97":2547545.04,"ADDRESS":"郡安路五段１８４巷６６弄３５號","OBJECTID":65640},"geometry":{"x":167347.83000000007,"y":2547545.0399999991}},{"attributes":{"ID":65641,"DIS_CODE":0,"TOWNNAME":"安南區","LI":"安富里","LIN":"6鄰","STREET":"郡安路","SECT":"五段","MAREA":" ","LANE":"１８４巷","ALLEY":"６６弄","HOUSE_NO":"３６號","E_COORD97":167349.42999999999,"N_COORD97":2547565.54,"ADDRESS":"郡安路五段１８４巷６６弄３６號","OBJECTID":65641},"geometry":{"x":167349.43000000063,"y":2547565.5399999991}},{"attributes":{"ID":65642,"DIS_CODE":0,"TOWNNAME":"安南區","LI":"安富里","LIN":"6鄰","STREET":"郡安路","SECT":"五段","MAREA":" ","LANE":"１８４巷","ALLEY":"６６弄","HOUSE_NO":"３７號","E_COORD97":167338.51000000001,"N_COORD97":2547543.0899999999,"ADDRESS":"郡安路五段１８４巷６６弄３７號","OBJECTID":65642},"geometry":{"x":167338.51000000071,"y":2547543.0900000017}},{"attributes":{"ID":65643,"DIS_CODE":0,"TOWNNAME":"安南區","LI":"安富里","LIN":"6鄰","STREET":"郡安路","SECT":"五段","MAREA":" ","LANE":"１８４巷","ALLEY":"６６弄","HOUSE_NO":"３８號","E_COORD97":167333.17999999999,"N_COORD97":2547562.29,"ADDRESS":"郡安路五段１８４巷６６弄３８號","OBJECTID":65643},"geometry":{"x":167333.1799999997,"y":2547562.290000001}},{"attributes":{"ID":65644,"DIS_CODE":0,"TOWNNAME":"安南區","LI":"安富里","LIN":"6鄰","STREET":"郡安路","SECT":"五段","MAREA":" ","LANE":"１８４巷","ALLEY":"６６弄","HOUSE_NO":"３９號","E_COORD97":167332.88,"N_COORD97":2547542.2200000002,"ADDRESS":"郡安路五段１８４巷６６弄３９號","OBJECTID":65644},"geometry":{"x":167332.88000000082,"y":2547542.2200000007}},{"attributes":{"ID":65645,"DIS_CODE":0,"TOWNNAME":"安南區","LI":"安富里","LIN":"6鄰","STREET":"郡安路","SECT":"五段","MAREA":" ","LANE":"１８４巷","ALLEY":"６６弄","HOUSE_NO":"４４號","E_COORD97":167317.14999999999,"N_COORD97":2547559.48,"ADDRESS":"郡安路五段１８４巷６６弄４４號","OBJECTID":65645},"geometry":{"x":167317.15000000037,"y":2547559.4800000004}},{"attributes":{"ID":65646,"DIS_CODE":0,"TOWNNAME":"永康區","LI":"中興里","LIN":"6鄰","STREET":"中華一路","SECT":" ","MAREA":" ","LANE":"５８巷","ALLEY":"６弄","HOUSE_NO":"６號","E_COORD97":171872.87,"N_COORD97":2545021.7400000002,"ADDRESS":"中華一路５８巷６弄６號","OBJECTID":65646},"geometry":{"x":171872.87000000104,"y":2545021.7400000002}},{"attributes":{"ID":65647,"DIS_CODE":0,"TOWNNAME":"安南區","LI":"安富里","LIN":"6鄰","STREET":"郡安路","SECT":"五段","MAREA":" ","LANE":"１８４巷","ALLEY":"６６弄","HOUSE_NO":"４５號","E_COORD97":167316.41,"N_COORD97":2547538.3300000001,"ADDRESS":"郡安路五段１８４巷６６弄４５號","OBJECTID":65647},"geometry":{"x":167316.41000000108,"y":2547538.3300000019}},{"attributes":{"ID":65648,"DIS_CODE":0,"TOWNNAME":"安南區","LI":"安富里","LIN":"6鄰","STREET":"郡安路","SECT":"五段","MAREA":" ","LANE":"１８４巷","ALLEY":"６６弄","HOUSE_NO":"４６號","E_COORD97":167312.81,"N_COORD97":2547557.9700000002,"ADDRESS":"郡安路五段１８４巷６６弄４６號","OBJECTID":65648},"geometry":{"x":167312.81000000052,"y":2547557.9700000044}},{"attributes":{"ID":65649,"DIS_CODE":0,"TOWNNAME":"安南區","LI":"安富里","LIN":"6鄰","STREET":"郡安路","SECT":"五段","MAREA":" ","LANE":"１８４巷","ALLEY":"６６弄","HOUSE_NO":"４７號","E_COORD97":167311.42000000001,"N_COORD97":2547536.6000000001,"ADDRESS":"郡安路五段１８４巷６６弄４７號","OBJECTID":65649},"geometry":{"x":167311.41999999993,"y":2547536.6000000015}},{"attributes":{"ID":65650,"DIS_CODE":0,"TOWNNAME":"官田區","LI":"東庄里","LIN":"8鄰","STREET":" ","SECT":" ","MAREA":"西庄","LANE":" ","ALLEY":" ","HOUSE_NO":"１４７號之１","E_COORD97":178064.51000000001,"N_COORD97":2565165.1499999999,"ADDRESS":"西庄１４７號之１","OBJECTID":65650},"geometry":{"x":178064.51000000071,"y":2565165.1500000004}},{"attributes":{"ID":65651,"DIS_CODE":0,"TOWNNAME":"南區","LI":"日新里","LIN":"15鄰","STREET":"新興路","SECT":" ","MAREA":" ","LANE":"４６１巷","ALLEY":"１０弄","HOUSE_NO":"２０號","E_COORD97":166825.62,"N_COORD97":2541641.3399999999,"ADDRESS":"新興路４６１巷１０弄２０號","OBJECTID":65651},"geometry":{"x":166825.62000000011,"y":2541641.3399999999}},{"attributes":{"ID":65652,"DIS_CODE":0,"TOWNNAME":"南區","LI":"日新里","LIN":"15鄰","STREET":"新興路","SECT":" ","MAREA":" ","LANE":"４６１巷","ALLEY":"１０弄","HOUSE_NO":"２２號","E_COORD97":166824.81,"N_COORD97":2541646.7000000002,"ADDRESS":"新興路４６１巷１０弄２２號","OBJECTID":65652},"geometry":{"x":166824.81000000052,"y":2541646.7000000011}},{"attributes":{"ID":65653,"DIS_CODE":0,"TOWNNAME":"南區","LI":"日新里","LIN":"15鄰","STREET":"新興路","SECT":" ","MAREA":" ","LANE":"４６１巷","ALLEY":"１０弄","HOUSE_NO":"２６號","E_COORD97":166824.01000000001,"N_COORD97":2541656.2599999998,"ADDRESS":"新興路４６１巷１０弄２６號","OBJECTID":65653},"geometry":{"x":166824.00999999978,"y":2541656.2600000016}},{"attributes":{"ID":65654,"DIS_CODE":0,"TOWNNAME":"安南區","LI":"安富里","LIN":"6鄰","STREET":"郡安路","SECT":"五段","MAREA":" ","LANE":"１８４巷","ALLEY":"６６弄","HOUSE_NO":"４８號","E_COORD97":167307.39000000001,"N_COORD97":2547558.3999999999,"ADDRESS":"郡安路五段１８４巷６６弄４８號","OBJECTID":65654},"geometry":{"x":167307.3900000006,"y":2547558.4000000022}},{"attributes":{"ID":65655,"DIS_CODE":0,"TOWNNAME":"安南區","LI":"安富里","LIN":"6鄰","STREET":"郡安路","SECT":"五段","MAREA":" ","LANE":"１８４巷","ALLEY":"６６弄","HOUSE_NO":"４號","E_COORD97":167468.10999999999,"N_COORD97":2547591.48,"ADDRESS":"郡安路五段１８４巷６６弄４號","OBJECTID":65655},"geometry":{"x":167468.11000000034,"y":2547591.4800000042}},{"attributes":{"ID":65656,"DIS_CODE":0,"TOWNNAME":"安南區","LI":"安富里","LIN":"6鄰","STREET":"郡安路","SECT":"五段","MAREA":" ","LANE":"１８４巷","ALLEY":"６６弄","HOUSE_NO":"５０號","E_COORD97":167302.84,"N_COORD97":2547556.4500000002,"ADDRESS":"郡安路五段１８４巷６６弄５０號","OBJECTID":65656},"geometry":{"x":167302.84000000078,"y":2547556.450000003}},{"attributes":{"ID":65657,"DIS_CODE":0,"TOWNNAME":"安南區","LI":"安富里","LIN":"6鄰","STREET":"郡安路","SECT":"五段","MAREA":" ","LANE":"１８４巷","ALLEY":"６６弄","HOUSE_NO":"５２號","E_COORD97":167298.07999999999,"N_COORD97":2547556.4500000002,"ADDRESS":"郡安路五段１８４巷６６弄５２號","OBJECTID":65657},"geometry":{"x":167298.08000000101,"y":2547556.450000003}},{"attributes":{"ID":65658,"DIS_CODE":0,"TOWNNAME":"安南區","LI":"安富里","LIN":"6鄰","STREET":"郡安路","SECT":"五段","MAREA":" ","LANE":"１８４巷","ALLEY":"６６弄","HOUSE_NO":"９號","E_COORD97":167451,"N_COORD97":2547565.4100000001,"ADDRESS":"郡安路五段１８４巷６６弄９號","OBJECTID":65658},"geometry":{"x":167451.00000000093,"y":2547565.410000002}},{"attributes":{"ID":65659,"DIS_CODE":0,"TOWNNAME":"安南區","LI":"城西里","LIN":"6鄰","STREET":"城西街","SECT":"三段","MAREA":" ","LANE":"５０１巷","ALLEY":"１３６弄","HOUSE_NO":"３９號之５１","E_COORD97":156910.06,"N_COORD97":2550447.1899999999,"ADDRESS":"城西街三段５０１巷１３６弄３９號之５１","OBJECTID":65659},"geometry":{"x":156910.05999999959,"y":2550447.1900000032}},{"attributes":{"ID":65660,"DIS_CODE":0,"TOWNNAME":"南區","LI":"日新里","LIN":"14鄰","STREET":"新興路","SECT":" ","MAREA":" ","LANE":"４６１巷","ALLEY":"８弄","HOUSE_NO":"１３號","E_COORD97":166853.39999999999,"N_COORD97":2541648.3199999998,"ADDRESS":"新興路４６１巷８弄１３號","OBJECTID":65660},"geometry":{"x":166853.4000000013,"y":2541648.3200000003}},{"attributes":{"ID":65661,"DIS_CODE":0,"TOWNNAME":"南區","LI":"日新里","LIN":"14鄰","STREET":"新興路","SECT":" ","MAREA":" ","LANE":"４６１巷","ALLEY":"８弄","HOUSE_NO":"１５號","E_COORD97":166849.51999999999,"N_COORD97":2541651.3500000001,"ADDRESS":"新興路４６１巷８弄１５號","OBJECTID":65661},"geometry":{"x":166849.51999999955,"y":2541651.3499999978}},{"attributes":{"ID":65662,"DIS_CODE":0,"TOWNNAME":"南區","LI":"日新里","LIN":"14鄰","STREET":"新興路","SECT":" ","MAREA":" ","LANE":"４６１巷","ALLEY":"８弄","HOUSE_NO":"１７號","E_COORD97":166845.32000000001,"N_COORD97":2541653.9100000001,"ADDRESS":"新興路４６１巷８弄１７號","OBJECTID":65662},"geometry":{"x":166845.32000000123,"y":2541653.9100000001}},{"attributes":{"ID":65663,"DIS_CODE":0,"TOWNNAME":"南區","LI":"日新里","LIN":"14鄰","STREET":"新興路","SECT":" ","MAREA":" ","LANE":"４６１巷","ALLEY":"８弄","HOUSE_NO":"１號","E_COORD97":166876.03,"N_COORD97":2541630.52,"ADDRESS":"新興路４６１巷８弄１號","OBJECTID":65663},"geometry":{"x":166876.03000000119,"y":2541630.5200000014}},{"attributes":{"ID":65664,"DIS_CODE":0,"TOWNNAME":"南區","LI":"日新里","LIN":"14鄰","STREET":"新興路","SECT":" ","MAREA":" ","LANE":"４６１巷","ALLEY":"８弄","HOUSE_NO":"２號之３","E_COORD97":166879.59,"N_COORD97":2541641.7200000002,"ADDRESS":"新興路４６１巷８弄２號之３","OBJECTID":65664},"geometry":{"x":166879.58999999985,"y":2541641.7200000025}},{"attributes":{"ID":65665,"DIS_CODE":0,"TOWNNAME":"南區","LI":"日新里","LIN":"14鄰","STREET":"新興路","SECT":" ","MAREA":" ","LANE":"４６１巷","ALLEY":"８弄","HOUSE_NO":"３號","E_COORD97":166871.82999999999,"N_COORD97":2541633.1600000001,"ADDRESS":"新興路４６１巷８弄３號","OBJECTID":65665},"geometry":{"x":166871.82999999914,"y":2541633.1600000039}},{"attributes":{"ID":65666,"DIS_CODE":0,"TOWNNAME":"南區","LI":"日新里","LIN":"14鄰","STREET":"新興路","SECT":" ","MAREA":" ","LANE":"４６１巷","ALLEY":"８弄","HOUSE_NO":"４號","E_COORD97":166869.64000000001,"N_COORD97":2541648.6299999999,"ADDRESS":"新興路４６１巷８弄４號","OBJECTID":65666},"geometry":{"x":166869.6400000006,"y":2541648.629999999}},{"attributes":{"ID":65667,"DIS_CODE":0,"TOWNNAME":"仁德區","LI":"田厝里","LIN":"6鄰","STREET":"田厝三街","SECT":" ","MAREA":" ","LANE":"７０巷","ALLEY":"２９弄","HOUSE_NO":"３號","E_COORD97":172604.98000000001,"N_COORD97":2537350.4900000002,"ADDRESS":"田厝三街７０巷２９弄３號","OBJECTID":65667},"geometry":{"x":172604.98000000138,"y":2537350.4900000021}},{"attributes":{"ID":65668,"DIS_CODE":0,"TOWNNAME":"仁德區","LI":"成功里","LIN":"6鄰","STREET":"成功三街","SECT":" ","MAREA":" ","LANE":"３３巷","ALLEY":"１弄","HOUSE_NO":"１６號","E_COORD97":171214.79999999999,"N_COORD97":2539961.2599999998,"ADDRESS":"成功三街３３巷１弄１６號","OBJECTID":65668},"geometry":{"x":171214.79999999981,"y":2539961.2600000016}},{"attributes":{"ID":65669,"DIS_CODE":0,"TOWNNAME":"仁德區","LI":"保安里","LIN":"6鄰","STREET":"文賢路","SECT":"一段","MAREA":" ","LANE":"７６３巷","ALLEY":"１弄","HOUSE_NO":"１８號","E_COORD97":171472.89000000001,"N_COORD97":2536276.8300000001,"ADDRESS":"文賢路一段７６３巷１弄１８號","OBJECTID":65669},"geometry":{"x":171472.88999999966,"y":2536276.8300000001}},{"attributes":{"ID":65670,"DIS_CODE":0,"TOWNNAME":"仁德區","LI":"保安里","LIN":"6鄰","STREET":"文賢路","SECT":"一段","MAREA":" ","LANE":"７６３巷","ALLEY":"１弄","HOUSE_NO":"２號","E_COORD97":171518.60000000001,"N_COORD97":2536197.3300000001,"ADDRESS":"文賢路一段７６３巷１弄２號","OBJECTID":65670},"geometry":{"x":171518.60000000056,"y":2536197.3300000038}},{"attributes":{"ID":65671,"DIS_CODE":0,"TOWNNAME":"官田區","LI":"東庄里","LIN":"8鄰","STREET":" ","SECT":" ","MAREA":"西庄","LANE":" ","ALLEY":" ","HOUSE_NO":"１４７號之２","E_COORD97":178062.95000000001,"N_COORD97":2565159.4500000002,"ADDRESS":"西庄１４７號之２","OBJECTID":65671},"geometry":{"x":178062.95000000205,"y":2565159.450000003}},{"attributes":{"ID":65672,"DIS_CODE":0,"TOWNNAME":"官田區","LI":"東庄里","LIN":"8鄰","STREET":" ","SECT":" ","MAREA":"西庄","LANE":" ","ALLEY":" ","HOUSE_NO":"１４７號","E_COORD97":178064.22,"N_COORD97":2565169.1899999999,"ADDRESS":"西庄１４７號","OBJECTID":65672},"geometry":{"x":178064.22000000067,"y":2565169.1900000013}},{"attributes":{"ID":65673,"DIS_CODE":0,"TOWNNAME":"仁德區","LI":"保安里","LIN":"6鄰","STREET":"文賢路","SECT":"一段","MAREA":" ","LANE":"７６３巷","ALLEY":"１弄","HOUSE_NO":"８號","E_COORD97":171495.14999999999,"N_COORD97":2536233.5699999998,"ADDRESS":"文賢路一段７６３巷１弄８號","OBJECTID":65673},"geometry":{"x":171495.1500000013,"y":2536233.5700000022}},{"attributes":{"ID":65674,"DIS_CODE":0,"TOWNNAME":"仁德區","LI":"成功里","LIN":"6鄰","STREET":"成功三街","SECT":" ","MAREA":" ","LANE":"３３巷","ALLEY":"１弄","HOUSE_NO":"１４號","E_COORD97":171214.98999999999,"N_COORD97":2539957.5099999998,"ADDRESS":"成功三街３３巷１弄１４號","OBJECTID":65674},"geometry":{"x":171214.99000000022,"y":2539957.5099999998}},{"attributes":{"ID":65675,"DIS_CODE":0,"TOWNNAME":"仁德區","LI":"成功里","LIN":"6鄰","STREET":"成功三街","SECT":" ","MAREA":" ","LANE":"３３巷","ALLEY":"１弄","HOUSE_NO":"１２號","E_COORD97":171215.04000000001,"N_COORD97":2539953.5099999998,"ADDRESS":"成功三街３３巷１弄１２號","OBJECTID":65675},"geometry":{"x":171215.04000000004,"y":2539953.5100000016}},{"attributes":{"ID":65676,"DIS_CODE":0,"TOWNNAME":"仁德區","LI":"成功里","LIN":"6鄰","STREET":"成功三街","SECT":" ","MAREA":" ","LANE":"３３巷","ALLEY":"１弄","HOUSE_NO":"１７號","E_COORD97":171203.60000000001,"N_COORD97":2539970.2599999998,"ADDRESS":"成功三街３３巷１弄１７號","OBJECTID":65676},"geometry":{"x":171203.59999999963,"y":2539970.2599999998}},{"attributes":{"ID":65677,"DIS_CODE":0,"TOWNNAME":"永康區","LI":"中興里","LIN":"6鄰","STREET":"中華一路","SECT":" ","MAREA":" ","LANE":"５８巷","ALLEY":"６弄","HOUSE_NO":"１２號","E_COORD97":171892.91,"N_COORD97":2545022.9900000002,"ADDRESS":"中華一路５８巷６弄１２號","OBJECTID":65677},"geometry":{"x":171892.91000000108,"y":2545022.9900000021}},{"attributes":{"ID":65678,"DIS_CODE":0,"TOWNNAME":"麻豆區","LI":"大埕里","LIN":"7鄰","STREET":" ","SECT":" ","MAREA":"大埕","LANE":" ","ALLEY":" ","HOUSE_NO":"８號之２","E_COORD97":173290.20000000001,"N_COORD97":2565111.9199999999,"ADDRESS":"大埕８號之２","OBJECTID":65678},"geometry":{"x":173290.20000000019,"y":2565111.9199999999}},{"attributes":{"ID":65679,"DIS_CODE":0,"TOWNNAME":"永康區","LI":"中興里","LIN":"6鄰","STREET":"中華一路","SECT":" ","MAREA":" ","LANE":"５８巷","ALLEY":"６弄","HOUSE_NO":"１０號","E_COORD97":171884.92000000001,"N_COORD97":2545022.4900000002,"ADDRESS":"中華一路５８巷６弄１０號","OBJECTID":65679},"geometry":{"x":171884.91999999993,"y":2545022.4900000021}},{"attributes":{"ID":65680,"DIS_CODE":0,"TOWNNAME":"仁德區","LI":"一甲里","LIN":"8鄰","STREET":"中正路","SECT":"三段","MAREA":" ","LANE":" ","ALLEY":" ","HOUSE_NO":"１６４號","E_COORD97":173476.70999999999,"N_COORD97":2541777.0299999998,"ADDRESS":"中正路三段１６４號","OBJECTID":65680},"geometry":{"x":173476.70999999996,"y":2541777.0300000012}},{"attributes":{"ID":65681,"DIS_CODE":0,"TOWNNAME":"仁德區","LI":"一甲里","LIN":"8鄰","STREET":"中正路","SECT":"三段","MAREA":" ","LANE":" ","ALLEY":" ","HOUSE_NO":"１９６號","E_COORD97":173506.70999999999,"N_COORD97":2541843.27,"ADDRESS":"中正路三段１９６號","OBJECTID":65681},"geometry":{"x":173506.71000000089,"y":2541843.2700000014}},{"attributes":{"ID":65682,"DIS_CODE":0,"TOWNNAME":"永康區","LI":"五王里","LIN":"6鄰","STREET":"中華二路","SECT":" ","MAREA":" ","LANE":"２０６巷","ALLEY":"６８弄","HOUSE_NO":"８號","E_COORD97":171619.81,"N_COORD97":2545648.7999999998,"ADDRESS":"中華二路２０６巷６８弄８號","OBJECTID":65682},"geometry":{"x":171619.81000000145,"y":2545648.8000000007}},{"attributes":{"ID":65683,"DIS_CODE":0,"TOWNNAME":"鹽水區","LI":"大豐里","LIN":"2鄰","STREET":" ","SECT":" ","MAREA":"大豐","LANE":" ","ALLEY":" ","HOUSE_NO":"６號","E_COORD97":170522.51999999999,"N_COORD97":2573889.7400000002,"ADDRESS":"大豐６號","OBJECTID":65683},"geometry":{"x":170522.51999999955,"y":2573889.7400000021}},{"attributes":{"ID":65684,"DIS_CODE":0,"TOWNNAME":"仁德區","LI":"中生里","LIN":"8鄰","STREET":" ","SECT":" ","MAREA":"中洲","LANE":" ","ALLEY":" ","HOUSE_NO":"１５１號之２","E_COORD97":173039.47,"N_COORD97":2534190.04,"ADDRESS":"中洲１５１號之２","OBJECTID":65684},"geometry":{"x":173039.4700000016,"y":2534190.0399999991}},{"attributes":{"ID":65685,"DIS_CODE":0,"TOWNNAME":"仁德區","LI":"中生里","LIN":"8鄰","STREET":" ","SECT":" ","MAREA":"中洲","LANE":" ","ALLEY":" ","HOUSE_NO":"１５２號之１","E_COORD97":173083.70999999999,"N_COORD97":2534210.2999999998,"ADDRESS":"中洲１５２號之１","OBJECTID":65685},"geometry":{"x":173083.70999999903,"y":2534210.3000000007}},{"attributes":{"ID":65686,"DIS_CODE":0,"TOWNNAME":"仁德區","LI":"中生里","LIN":"8鄰","STREET":" ","SECT":" ","MAREA":"中洲","LANE":" ","ALLEY":" ","HOUSE_NO":"１４８號","E_COORD97":173107.48999999999,"N_COORD97":2534156.7400000002,"ADDRESS":"中洲１４８號","OBJECTID":65686},"geometry":{"x":173107.48999999929,"y":2534156.7400000039}},{"attributes":{"ID":65687,"DIS_CODE":0,"TOWNNAME":"仁德區","LI":"中生里","LIN":"8鄰","STREET":" ","SECT":" ","MAREA":"中洲","LANE":" ","ALLEY":" ","HOUSE_NO":"１５０號","E_COORD97":173051.45999999999,"N_COORD97":2534166.4900000002,"ADDRESS":"中洲１５０號","OBJECTID":65687},"geometry":{"x":173051.45999999996,"y":2534166.4900000021}},{"attributes":{"ID":65688,"DIS_CODE":0,"TOWNNAME":"仁德區","LI":"中生里","LIN":"8鄰","STREET":" ","SECT":" ","MAREA":"中洲","LANE":" ","ALLEY":" ","HOUSE_NO":"１４７號之１","E_COORD97":173096.73000000001,"N_COORD97":2534127.5499999998,"ADDRESS":"中洲１４７號之１","OBJECTID":65688},"geometry":{"x":173096.73000000138,"y":2534127.5500000007}},{"attributes":{"ID":65689,"DIS_CODE":0,"TOWNNAME":"永康區","LI":"五王里","LIN":"6鄰","STREET":"中華二路","SECT":" ","MAREA":" ","LANE":"２０６巷","ALLEY":"６８弄","HOUSE_NO":"１０號","E_COORD97":171625.82999999999,"N_COORD97":2545649.7999999998,"ADDRESS":"中華二路２０６巷６８弄１０號","OBJECTID":65689},"geometry":{"x":171625.83000000101,"y":2545649.8000000007}},{"attributes":{"ID":65690,"DIS_CODE":0,"TOWNNAME":"永康區","LI":"三民里","LIN":"6鄰","STREET":"三民街","SECT":" ","MAREA":" ","LANE":"１８巷","ALLEY":"１弄","HOUSE_NO":"１１號","E_COORD97":173332.79999999999,"N_COORD97":2550224.4199999999,"ADDRESS":"三民街１８巷１弄１１號","OBJECTID":65690},"geometry":{"x":173332.80000000075,"y":2550224.4199999999}},{"attributes":{"ID":65691,"DIS_CODE":0,"TOWNNAME":"仁德區","LI":"中生里","LIN":"8鄰","STREET":" ","SECT":" ","MAREA":"中洲","LANE":" ","ALLEY":" ","HOUSE_NO":"１５１號之５","E_COORD97":173073.44,"N_COORD97":2534175.54,"ADDRESS":"中洲１５１號之５","OBJECTID":65691},"geometry":{"x":173073.44000000041,"y":2534175.540000001}},{"attributes":{"ID":65692,"DIS_CODE":0,"TOWNNAME":"永康區","LI":"三民里","LIN":"6鄰","STREET":"三民街","SECT":" ","MAREA":" ","LANE":"１８巷","ALLEY":"１弄","HOUSE_NO":"２２號","E_COORD97":173368.14999999999,"N_COORD97":2550215.2799999998,"ADDRESS":"三民街１８巷１弄２２號","OBJECTID":65692},"geometry":{"x":173368.1500000013,"y":2550215.2799999993}},{"attributes":{"ID":65693,"DIS_CODE":0,"TOWNNAME":"永康區","LI":"三民里","LIN":"6鄰","STREET":"三民街","SECT":" ","MAREA":" ","LANE":"１８巷","ALLEY":"１弄","HOUSE_NO":"３５號","E_COORD97":173413.73000000001,"N_COORD97":2550249.79,"ADDRESS":"三民街１８巷１弄３５號","OBJECTID":65693},"geometry":{"x":173413.73000000138,"y":2550249.790000001}},{"attributes":{"ID":65694,"DIS_CODE":0,"TOWNNAME":"永康區","LI":"三民里","LIN":"6鄰","STREET":"三民街","SECT":" ","MAREA":" ","LANE":"１８巷","ALLEY":"１弄","HOUSE_NO":"２９號","E_COORD97":173397.70999999999,"N_COORD97":2550245.04,"ADDRESS":"三民街１８巷１弄２９號","OBJECTID":65694},"geometry":{"x":173397.71000000089,"y":2550245.040000001}},{"attributes":{"ID":65695,"DIS_CODE":0,"TOWNNAME":"永康區","LI":"中興里","LIN":"6鄰","STREET":"中華一路","SECT":" ","MAREA":" ","LANE":"５８巷","ALLEY":"６弄","HOUSE_NO":"２號","E_COORD97":171866.45000000001,"N_COORD97":2545021.0899999999,"ADDRESS":"中華一路５８巷６弄２號","OBJECTID":65695},"geometry":{"x":171866.45000000019,"y":2545021.0900000017}},{"attributes":{"ID":65696,"DIS_CODE":0,"TOWNNAME":"永康區","LI":"三民里","LIN":"6鄰","STREET":"三民街","SECT":" ","MAREA":" ","LANE":"１８巷","ALLEY":"８弄","HOUSE_NO":"３號","E_COORD97":173295.89999999999,"N_COORD97":2550139.79,"ADDRESS":"三民街１８巷８弄３號","OBJECTID":65696},"geometry":{"x":173295.90000000037,"y":2550139.7899999991}},{"attributes":{"ID":65697,"DIS_CODE":0,"TOWNNAME":"南區","LI":"日新里","LIN":" ","STREET":"鹽埕路","SECT":" ","MAREA":" ","LANE":"２９１巷","ALLEY":"４１弄","HOUSE_NO":"２９號","E_COORD97":166807.95999999999,"N_COORD97":2541283.8399999999,"ADDRESS":"鹽埕路２９１巷４１弄２９號","OBJECTID":65697},"geometry":{"x":166807.95999999996,"y":2541283.8400000017}},{"attributes":{"ID":65698,"DIS_CODE":0,"TOWNNAME":"南區","LI":"日新里","LIN":" ","STREET":"鹽埕路","SECT":" ","MAREA":" ","LANE":"２９１巷","ALLEY":"４１弄","HOUSE_NO":"３１號","E_COORD97":166804.67999999999,"N_COORD97":2541290.9100000001,"ADDRESS":"鹽埕路２９１巷４１弄３１號","OBJECTID":65698},"geometry":{"x":166804.67999999877,"y":2541290.9100000001}},{"attributes":{"ID":65699,"DIS_CODE":0,"TOWNNAME":"南區","LI":"日新里","LIN":" ","STREET":"鹽埕路","SECT":" ","MAREA":" ","LANE":"２９１巷","ALLEY":"４１弄","HOUSE_NO":"３３號","E_COORD97":166792.19,"N_COORD97":2541281.8900000001,"ADDRESS":"鹽埕路２９１巷４１弄３３號","OBJECTID":65699},"geometry":{"x":166792.19000000134,"y":2541281.8900000006}},{"attributes":{"ID":65700,"DIS_CODE":0,"TOWNNAME":"仁德區","LI":"上崙里","LIN":"8鄰","STREET":"德善路","SECT":" ","MAREA":" ","LANE":"２９０巷","ALLEY":" ","HOUSE_NO":"５號","E_COORD97":173956.38,"N_COORD97":2538416.5099999998,"ADDRESS":"德善路２９０巷５號","OBJECTID":65700},"geometry":{"x":173956.38000000082,"y":2538416.5100000035}},{"attributes":{"ID":65701,"DIS_CODE":0,"TOWNNAME":"麻豆區","LI":"\u25A0江里","LIN":"8鄰","STREET":"民權路","SECT":" ","MAREA":" ","LANE":" ","ALLEY":" ","HOUSE_NO":"７０號之７","E_COORD97":173511.26000000001,"N_COORD97":2564254.6899999999,"ADDRESS":"民權路７０號之７","OBJECTID":65701},"geometry":{"x":173511.26000000071,"y":2564254.6899999995}},{"attributes":{"ID":65702,"DIS_CODE":0,"TOWNNAME":"麻豆區","LI":"\u25A0江里","LIN":"8鄰","STREET":"民權路","SECT":" ","MAREA":" ","LANE":" ","ALLEY":" ","HOUSE_NO":"７０號之８","E_COORD97":173507.60000000001,"N_COORD97":2564253.8599999999,"ADDRESS":"民權路７０號之８","OBJECTID":65702},"geometry":{"x":173507.59999999963,"y":2564253.8599999994}},{"attributes":{"ID":65703,"DIS_CODE":0,"TOWNNAME":"麻豆區","LI":"\u25A0江里","LIN":"8鄰","STREET":"民權路","SECT":" ","MAREA":" ","LANE":" ","ALLEY":" ","HOUSE_NO":"７０號之９","E_COORD97":173503.32000000001,"N_COORD97":2564253.2599999998,"ADDRESS":"民權路７０號之９","OBJECTID":65703},"geometry":{"x":173503.3200000003,"y":2564253.2600000016}},{"attributes":{"ID":65704,"DIS_CODE":0,"TOWNNAME":"北區","LI":"正風里","LIN":"8鄰","STREET":"公園路","SECT":" ","MAREA":" ","LANE":" ","ALLEY":" ","HOUSE_NO":"１００４號","E_COORD97":169549.22,"N_COORD97":2546380.8700000001,"ADDRESS":"公園路１００４號","OBJECTID":65704},"geometry":{"x":169549.22000000067,"y":2546380.870000001}},{"attributes":{"ID":65705,"DIS_CODE":0,"TOWNNAME":"北區","LI":"正風里","LIN":"8鄰","STREET":"公園路","SECT":" ","MAREA":" ","LANE":" ","ALLEY":" ","HOUSE_NO":"１００６號","E_COORD97":169549.79999999999,"N_COORD97":2546384.3799999999,"ADDRESS":"公園路１００６號","OBJECTID":65705},"geometry":{"x":169549.79999999981,"y":2546384.3800000008}},{"attributes":{"ID":65706,"DIS_CODE":0,"TOWNNAME":"南區","LI":"日新里","LIN":" ","STREET":"鹽埕路","SECT":" ","MAREA":" ","LANE":"２９１巷","ALLEY":"４１弄","HOUSE_NO":"３５號","E_COORD97":166793.76000000001,"N_COORD97":2541272.71,"ADDRESS":"鹽埕路２９１巷４１弄３５號","OBJECTID":65706},"geometry":{"x":166793.75999999978,"y":2541272.7100000009}},{"attributes":{"ID":65707,"DIS_CODE":0,"TOWNNAME":"南區","LI":"日新里","LIN":" ","STREET":"鹽埕路","SECT":" ","MAREA":" ","LANE":"２９１巷","ALLEY":"４１弄","HOUSE_NO":"３７號","E_COORD97":166780.07999999999,"N_COORD97":2541276.1600000001,"ADDRESS":"鹽埕路２９１巷４１弄３７號","OBJECTID":65707},"geometry":{"x":166780.08000000007,"y":2541276.1600000001}},{"attributes":{"ID":65708,"DIS_CODE":0,"TOWNNAME":"仁德區","LI":"中生里","LIN":"8鄰","STREET":" ","SECT":" ","MAREA":"中洲","LANE":" ","ALLEY":" ","HOUSE_NO":"１５３號","E_COORD97":173113.98000000001,"N_COORD97":2534223.5,"ADDRESS":"中洲１５３號","OBJECTID":65708},"geometry":{"x":173113.98000000045,"y":2534223.5000000019}},{"attributes":{"ID":65709,"DIS_CODE":0,"TOWNNAME":"大內區","LI":"二溪里","LIN":"1鄰","STREET":" ","SECT":" ","MAREA":"二重溪","LANE":" ","ALLEY":" ","HOUSE_NO":"１３５號之６","E_COORD97":187514.28,"N_COORD97":2557858.3100000001,"ADDRESS":"二重溪１３５號之６","OBJECTID":65709},"geometry":{"x":187514.28000000026,"y":2557858.3100000005}},{"attributes":{"ID":65710,"DIS_CODE":0,"TOWNNAME":"大內區","LI":"二溪里","LIN":"1鄰","STREET":" ","SECT":" ","MAREA":"二重溪","LANE":" ","ALLEY":" ","HOUSE_NO":"１３５號之７","E_COORD97":187516.95000000001,"N_COORD97":2557851.3100000001,"ADDRESS":"二重溪１３５號之７","OBJECTID":65710},"geometry":{"x":187516.95000000205,"y":2557851.3100000005}},{"attributes":{"ID":65711,"DIS_CODE":0,"TOWNNAME":"安南區","LI":"\u25A0田里","LIN":"7鄰","STREET":"工環路","SECT":" ","MAREA":" ","LANE":" ","ALLEY":" ","HOUSE_NO":"１號","E_COORD97":163547.88,"N_COORD97":2548689.3799999999,"ADDRESS":"工環路１號","OBJECTID":65711},"geometry":{"x":163547.88000000082,"y":2548689.3800000027}},{"attributes":{"ID":65712,"DIS_CODE":0,"TOWNNAME":"大內區","LI":"石林里","LIN":"1鄰","STREET":" ","SECT":" ","MAREA":"石子瀨","LANE":" ","ALLEY":" ","HOUSE_NO":"１２６號","E_COORD97":183951.17000000001,"N_COORD97":2558092.25,"ADDRESS":"石子瀨１２６號","OBJECTID":65712},"geometry":{"x":183951.16999999993,"y":2558092.25}},{"attributes":{"ID":65713,"DIS_CODE":0,"TOWNNAME":"大內區","LI":"大內里","LIN":"1鄰","STREET":" ","SECT":" ","MAREA":"內庄","LANE":" ","ALLEY":" ","HOUSE_NO":"１號之６４","E_COORD97":184255.98999999999,"N_COORD97":2557566.2999999998,"ADDRESS":"內庄１號之６４","OBJECTID":65713},"geometry":{"x":184255.99000000115,"y":2557566.3000000007}},{"attributes":{"ID":65714,"DIS_CODE":0,"TOWNNAME":"大內區","LI":"二溪里","LIN":"1鄰","STREET":" ","SECT":" ","MAREA":"二重溪","LANE":" ","ALLEY":" ","HOUSE_NO":"１２８號","E_COORD97":187584.44,"N_COORD97":2557765.3100000001,"ADDRESS":"二重溪１２８號","OBJECTID":65714},"geometry":{"x":187584.44000000041,"y":2557765.3100000024}},{"attributes":{"ID":65715,"DIS_CODE":0,"TOWNNAME":"大內區","LI":"大內里","LIN":"1鄰","STREET":" ","SECT":" ","MAREA":"內庄","LANE":" ","ALLEY":" ","HOUSE_NO":"７號之２２","E_COORD97":184453.60000000001,"N_COORD97":2557570.2999999998,"ADDRESS":"內庄７號之２２","OBJECTID":65715},"geometry":{"x":184453.59999999963,"y":2557570.3000000007}},{"attributes":{"ID":65716,"DIS_CODE":0,"TOWNNAME":"大內區","LI":"大內里","LIN":"1鄰","STREET":" ","SECT":" ","MAREA":"內庄","LANE":" ","ALLEY":" ","HOUSE_NO":"７號之１１","E_COORD97":184422.45999999999,"N_COORD97":2557570.2999999998,"ADDRESS":"內庄７號之１１","OBJECTID":65716},"geometry":{"x":184422.45999999996,"y":2557570.3000000007}},{"attributes":{"ID":65717,"DIS_CODE":0,"TOWNNAME":"大內區","LI":"大內里","LIN":"1鄰","STREET":" ","SECT":" ","MAREA":"內庄","LANE":" ","ALLEY":" ","HOUSE_NO":"７號之２６","E_COORD97":184436.67000000001,"N_COORD97":2557554.2999999998,"ADDRESS":"內庄７號之２６","OBJECTID":65717},"geometry":{"x":184436.67000000179,"y":2557554.3000000026}},{"attributes":{"ID":65718,"DIS_CODE":0,"TOWNNAME":"大內區","LI":"大內里","LIN":"1鄰","STREET":" ","SECT":" ","MAREA":"內庄","LANE":" ","ALLEY":" ","HOUSE_NO":"６號之５","E_COORD97":184396.47,"N_COORD97":2557630.2999999998,"ADDRESS":"內庄６號之５","OBJECTID":65718},"geometry":{"x":184396.46999999974,"y":2557630.3000000007}},{"attributes":{"ID":65719,"DIS_CODE":0,"TOWNNAME":"大內區","LI":"大內里","LIN":"1鄰","STREET":" ","SECT":" ","MAREA":"內庄","LANE":" ","ALLEY":" ","HOUSE_NO":"７號之１９","E_COORD97":184460.54999999999,"N_COORD97":2557588.2999999998,"ADDRESS":"內庄７號之１９","OBJECTID":65719},"geometry":{"x":184460.54999999981,"y":2557588.3000000026}},{"attributes":{"ID":65720,"DIS_CODE":0,"TOWNNAME":"大內區","LI":"大內里","LIN":"1鄰","STREET":" ","SECT":" ","MAREA":"內庄","LANE":" ","ALLEY":" ","HOUSE_NO":"７號之２５","E_COORD97":184441.42000000001,"N_COORD97":2557558.2999999998,"ADDRESS":"內庄７號之２５","OBJECTID":65720},"geometry":{"x":184441.41999999993,"y":2557558.3000000026}},{"attributes":{"ID":65721,"DIS_CODE":0,"TOWNNAME":"大內區","LI":"大內里","LIN":"1鄰","STREET":" ","SECT":" ","MAREA":"內庄","LANE":" ","ALLEY":" ","HOUSE_NO":"７號之２１","E_COORD97":184467.35999999999,"N_COORD97":2557582.2999999998,"ADDRESS":"內庄７號之２１","OBJECTID":65721},"geometry":{"x":184467.36000000034,"y":2557582.3000000026}},{"attributes":{"ID":65722,"DIS_CODE":0,"TOWNNAME":"南區","LI":"日新里","LIN":" ","STREET":"鹽埕路","SECT":" ","MAREA":" ","LANE":"２９１巷","ALLEY":"４１弄","HOUSE_NO":"３９號","E_COORD97":166781.44,"N_COORD97":2541259.3599999999,"ADDRESS":"鹽埕路２９１巷４１弄３９號","OBJECTID":65722},"geometry":{"x":166781.44000000041,"y":2541259.3600000013}},{"attributes":{"ID":65723,"DIS_CODE":0,"TOWNNAME":"大內區","LI":"二溪里","LIN":"1鄰","STREET":" ","SECT":" ","MAREA":"二重溪","LANE":" ","ALLEY":" ","HOUSE_NO":"１２５號之２","E_COORD97":187513.10999999999,"N_COORD97":2557814.3100000001,"ADDRESS":"二重溪１２５號之２","OBJECTID":65723},"geometry":{"x":187513.11000000127,"y":2557814.3100000005}},{"attributes":{"ID":65724,"DIS_CODE":0,"TOWNNAME":"大內區","LI":"大內里","LIN":"1鄰","STREET":" ","SECT":" ","MAREA":"內庄","LANE":" ","ALLEY":" ","HOUSE_NO":"７號之２３","E_COORD97":184448.95999999999,"N_COORD97":2557566.2999999998,"ADDRESS":"內庄７號之２３","OBJECTID":65724},"geometry":{"x":184448.96000000089,"y":2557566.3000000007}},{"attributes":{"ID":65725,"DIS_CODE":0,"TOWNNAME":"大內區","LI":"內江里","LIN":"1鄰","STREET":" ","SECT":" ","MAREA":"內庄","LANE":" ","ALLEY":" ","HOUSE_NO":"２２０號之８","E_COORD97":184647.35999999999,"N_COORD97":2557262.2999999998,"ADDRESS":"內庄２２０號之８","OBJECTID":65725},"geometry":{"x":184647.36000000034,"y":2557262.3000000045}},{"attributes":{"ID":65726,"DIS_CODE":0,"TOWNNAME":"大內區","LI":"內郭里","LIN":"1鄰","STREET":" ","SECT":" ","MAREA":"內庄","LANE":" ","ALLEY":" ","HOUSE_NO":"１５３號之１０","E_COORD97":184960.12,"N_COORD97":2557490.2999999998,"ADDRESS":"內庄１５３號之１０","OBJECTID":65726},"geometry":{"x":184960.12000000104,"y":2557490.3000000026}},{"attributes":{"ID":65727,"DIS_CODE":0,"TOWNNAME":"南區","LI":"日新里","LIN":"15鄰","STREET":"新興路","SECT":" ","MAREA":" ","LANE":"４６１巷","ALLEY":"１０弄","HOUSE_NO":"２４號","E_COORD97":166824.45999999999,"N_COORD97":2541651.1699999999,"ADDRESS":"新興路４６１巷１０弄２４號","OBJECTID":65727},"geometry":{"x":166824.45999999996,"y":2541651.1700000018}},{"attributes":{"ID":65728,"DIS_CODE":0,"TOWNNAME":"南區","LI":"日新里","LIN":"15鄰","STREET":"新興路","SECT":" ","MAREA":" ","LANE":"４６１巷","ALLEY":"１０弄","HOUSE_NO":"２號","E_COORD97":166860.31,"N_COORD97":2541613.23,"ADDRESS":"新興路４６１巷１０弄２號","OBJECTID":65728},"geometry":{"x":166860.31000000052,"y":2541613.2300000023}},{"attributes":{"ID":65729,"DIS_CODE":0,"TOWNNAME":"南區","LI":"日新里","LIN":"15鄰","STREET":"新興路","SECT":" ","MAREA":" ","LANE":"４６１巷","ALLEY":"１０弄","HOUSE_NO":"９號","E_COORD97":166832.82000000001,"N_COORD97":2541617.0699999998,"ADDRESS":"新興路４６１巷１０弄９號","OBJECTID":65729},"geometry":{"x":166832.8200000003,"y":2541617.070000004}},{"attributes":{"ID":65730,"DIS_CODE":0,"TOWNNAME":"南區","LI":"日新里","LIN":"14鄰","STREET":"新興路","SECT":" ","MAREA":" ","LANE":"４６１巷","ALLEY":"６弄","HOUSE_NO":"５號","E_COORD97":166856.75,"N_COORD97":2541668.77,"ADDRESS":"新興路４６１巷６弄５號","OBJECTID":65730},"geometry":{"x":166856.75,"y":2541668.7699999977}},{"attributes":{"ID":65731,"DIS_CODE":0,"TOWNNAME":"仁德區","LI":"大甲里","LIN":"8鄰","STREET":"行大街","SECT":" ","MAREA":" ","LANE":" ","ALLEY":" ","HOUSE_NO":"３１３之２號","E_COORD97":169696.60000000001,"N_COORD97":2535173.04,"ADDRESS":"行大街３１３之２號","OBJECTID":65731},"geometry":{"x":169696.59999999963,"y":2535173.0399999991}},{"attributes":{"ID":65732,"DIS_CODE":0,"TOWNNAME":"仁德區","LI":"仁義里","LIN":"8鄰","STREET":"中山路","SECT":" ","MAREA":" ","LANE":" ","ALLEY":" ","HOUSE_NO":"４５７號","E_COORD97":173690.62,"N_COORD97":2541267.25,"ADDRESS":"中山路４５７號","OBJECTID":65732},"geometry":{"x":173690.62000000011,"y":2541267.2500000019}},{"attributes":{"ID":65733,"DIS_CODE":0,"TOWNNAME":"仁德區","LI":"仁義里","LIN":"8鄰","STREET":"中山路","SECT":" ","MAREA":" ","LANE":" ","ALLEY":" ","HOUSE_NO":"４７１號","E_COORD97":173659.92000000001,"N_COORD97":2541271.75,"ADDRESS":"中山路４７１號","OBJECTID":65733},"geometry":{"x":173659.91999999993,"y":2541271.75}},{"attributes":{"ID":65734,"DIS_CODE":0,"TOWNNAME":"仁德區","LI":"一甲里","LIN":"8鄰","STREET":"中正路","SECT":"三段","MAREA":" ","LANE":" ","ALLEY":" ","HOUSE_NO":"１７４號","E_COORD97":173486.88,"N_COORD97":2541799.77,"ADDRESS":"中正路三段１７４號","OBJECTID":65734},"geometry":{"x":173486.88000000082,"y":2541799.7699999996}},{"attributes":{"ID":65735,"DIS_CODE":0,"TOWNNAME":"仁德區","LI":"一甲里","LIN":"8鄰","STREET":"中正路","SECT":"三段","MAREA":" ","LANE":" ","ALLEY":" ","HOUSE_NO":"１８２號","E_COORD97":173494.32999999999,"N_COORD97":2541816.77,"ADDRESS":"中正路三段１８２號","OBJECTID":65735},"geometry":{"x":173494.33000000007,"y":2541816.7699999996}},{"attributes":{"ID":65736,"DIS_CODE":0,"TOWNNAME":"仁德區","LI":"二行里","LIN":"8鄰","STREET":"行大街","SECT":" ","MAREA":" ","LANE":" ","ALLEY":" ","HOUSE_NO":"８７號","E_COORD97":170154.97,"N_COORD97":2535132.5,"ADDRESS":"行大街８７號","OBJECTID":65736},"geometry":{"x":170154.97000000067,"y":2535132.5000000019}},{"attributes":{"ID":65737,"DIS_CODE":0,"TOWNNAME":"仁德區","LI":"一甲里","LIN":"8鄰","STREET":"中正路","SECT":"三段","MAREA":" ","LANE":" ","ALLEY":" ","HOUSE_NO":"１７８號","E_COORD97":173490.35000000001,"N_COORD97":2541808.27,"ADDRESS":"中正路三段１７８號","OBJECTID":65737},"geometry":{"x":173490.34999999963,"y":2541808.2700000033}},{"attributes":{"ID":65738,"DIS_CODE":0,"TOWNNAME":"東區","LI":"裕聖里","LIN":"8鄰","STREET":"裕東二街","SECT":" ","MAREA":" ","LANE":" ","ALLEY":" ","HOUSE_NO":"３０號","E_COORD97":172738.01000000001,"N_COORD97":2541934.54,"ADDRESS":"裕東二街３０號","OBJECTID":65738},"geometry":{"x":172738.01000000071,"y":2541934.5400000028}},{"attributes":{"ID":65739,"DIS_CODE":0,"TOWNNAME":"南區","LI":"日新里","LIN":"14鄰","STREET":"新興路","SECT":" ","MAREA":" ","LANE":"４６１巷","ALLEY":"６弄","HOUSE_NO":"７號","E_COORD97":166852.32000000001,"N_COORD97":2541668.1400000001,"ADDRESS":"新興路４６１巷６弄７號","OBJECTID":65739},"geometry":{"x":166852.32000000123,"y":2541668.1400000025}},{"attributes":{"ID":65740,"DIS_CODE":0,"TOWNNAME":"南區","LI":"日新里","LIN":"14鄰","STREET":"新興路","SECT":" ","MAREA":" ","LANE":"４６１巷","ALLEY":"８弄","HOUSE_NO":"１１號","E_COORD97":166856.89999999999,"N_COORD97":2541644.9900000002,"ADDRESS":"新興路４６１巷８弄１１號","OBJECTID":65740},"geometry":{"x":166856.9000000013,"y":2541644.9900000021}},{"attributes":{"ID":65741,"DIS_CODE":0,"TOWNNAME":"南區","LI":"日新里","LIN":" ","STREET":"鹽埕路","SECT":" ","MAREA":" ","LANE":"２９１巷","ALLEY":"４１弄","HOUSE_NO":"２號","E_COORD97":166761.19,"N_COORD97":2541273.6499999999,"ADDRESS":"鹽埕路２９１巷４１弄２號","OBJECTID":65741},"geometry":{"x":166761.19000000041,"y":2541273.6500000004}},{"attributes":{"ID":65742,"DIS_CODE":0,"TOWNNAME":"永康區","LI":"崑山里","LIN":"6鄰","STREET":"崑大路","SECT":" ","MAREA":" ","LANE":"１５５巷","ALLEY":"８５弄","HOUSE_NO":"１２號","E_COORD97":173636.25,"N_COORD97":2544025.3900000001,"ADDRESS":"崑大路１５５巷８５弄１２號","OBJECTID":65742},"geometry":{"x":173636.25000000186,"y":2544025.3899999987}},{"attributes":{"ID":65743,"DIS_CODE":0,"TOWNNAME":"永康區","LI":"大灣里","LIN":"6鄰","STREET":"大同街","SECT":" ","MAREA":" ","LANE":"１５３巷","ALLEY":"３弄","HOUSE_NO":"１１號","E_COORD97":174830.29999999999,"N_COORD97":2545567.1299999999,"ADDRESS":"大同街１５３巷３弄１１號","OBJECTID":65743},"geometry":{"x":174830.29999999981,"y":2545567.129999999}},{"attributes":{"ID":65744,"DIS_CODE":0,"TOWNNAME":"永康區","LI":"大灣里","LIN":"6鄰","STREET":"大同街","SECT":" ","MAREA":" ","LANE":"１５３巷","ALLEY":"３弄","HOUSE_NO":"１號","E_COORD97":174847.28,"N_COORD97":2545569.3900000001,"ADDRESS":"大同街１５３巷３弄１號","OBJECTID":65744},"geometry":{"x":174847.28000000119,"y":2545569.3900000025}},{"attributes":{"ID":65745,"DIS_CODE":0,"TOWNNAME":"永康區","LI":"大灣里","LIN":"6鄰","STREET":"大同街","SECT":" ","MAREA":" ","LANE":"１５３巷","ALLEY":"３弄","HOUSE_NO":"３號","E_COORD97":174843.72,"N_COORD97":2545569.3300000001,"ADDRESS":"大同街１５３巷３弄３號","OBJECTID":65745},"geometry":{"x":174843.72000000067,"y":2545569.3300000019}},{"attributes":{"ID":65746,"DIS_CODE":0,"TOWNNAME":"麻豆區","LI":"安西里","LIN":"1鄰","STREET":" ","SECT":" ","MAREA":"東溪洲","LANE":" ","ALLEY":" ","HOUSE_NO":"１號之１７","E_COORD97":172435.85999999999,"N_COORD97":2561426.6800000002,"ADDRESS":"東溪洲１號之１７","OBJECTID":65746},"geometry":{"x":172435.86000000127,"y":2561426.6800000016}},{"attributes":{"ID":65747,"DIS_CODE":0,"TOWNNAME":"永康區","LI":"大灣里","LIN":"6鄰","STREET":"大同街","SECT":" ","MAREA":" ","LANE":"１５３巷","ALLEY":"３弄","HOUSE_NO":"５號","E_COORD97":174840.04999999999,"N_COORD97":2545568.8100000001,"ADDRESS":"大同街１５３巷３弄５號","OBJECTID":65747},"geometry":{"x":174840.05000000075,"y":2545568.8100000042}},{"attributes":{"ID":65748,"DIS_CODE":0,"TOWNNAME":"永康區","LI":"大灣里","LIN":"6鄰","STREET":"大同街","SECT":" ","MAREA":" ","LANE":"１５３巷","ALLEY":"３弄","HOUSE_NO":"７號","E_COORD97":174836.28,"N_COORD97":2545568.2799999998,"ADDRESS":"大同街１５３巷３弄７號","OBJECTID":65748},"geometry":{"x":174836.28000000026,"y":2545568.2800000012}},{"attributes":{"ID":65749,"DIS_CODE":0,"TOWNNAME":"永康區","LI":"大灣里","LIN":"6鄰","STREET":"大同街","SECT":" ","MAREA":" ","LANE":"１５３巷","ALLEY":"３弄","HOUSE_NO":"９號","E_COORD97":174833.66,"N_COORD97":2545567.6499999999,"ADDRESS":"大同街１５３巷３弄９號","OBJECTID":65749},"geometry":{"x":174833.65999999922,"y":2545567.6500000022}},{"attributes":{"ID":65750,"DIS_CODE":0,"TOWNNAME":"東區","LI":"崇德里","LIN":"6鄰","STREET":"崇德五街","SECT":" ","MAREA":" ","LANE":"２巷","ALLEY":"１１弄","HOUSE_NO":"４２號之１","E_COORD97":170771.63,"N_COORD97":2541848.8300000001,"ADDRESS":"崇德五街２巷１１弄４２號之１","OBJECTID":65750},"geometry":{"x":170771.62999999989,"y":2541848.8300000038}},{"attributes":{"ID":65751,"DIS_CODE":0,"TOWNNAME":"東區","LI":"崇德里","LIN":"6鄰","STREET":"崇德五街","SECT":" ","MAREA":" ","LANE":"２巷","ALLEY":"１１弄","HOUSE_NO":"１９號之３","E_COORD97":170714.98000000001,"N_COORD97":2541822.1000000001,"ADDRESS":"崇德五街２巷１１弄１９號之３","OBJECTID":65751},"geometry":{"x":170714.98000000138,"y":2541822.0999999996}},{"attributes":{"ID":65752,"DIS_CODE":0,"TOWNNAME":"東區","LI":"大德里","LIN":"8鄰","STREET":"立德十一路","SECT":" ","MAREA":" ","LANE":" ","ALLEY":" ","HOUSE_NO":"５９號","E_COORD97":169513.06,"N_COORD97":2542113.5800000001,"ADDRESS":"立德十一路５９號","OBJECTID":65752},"geometry":{"x":169513.06000000052,"y":2542113.5800000001}},{"attributes":{"ID":65753,"DIS_CODE":0,"TOWNNAME":"東區","LI":"大德里","LIN":"8鄰","STREET":"立德十一路","SECT":" ","MAREA":" ","LANE":" ","ALLEY":" ","HOUSE_NO":"２０號","E_COORD97":169487.98000000001,"N_COORD97":2542084.4500000002,"ADDRESS":"立德十一路２０號","OBJECTID":65753},"geometry":{"x":169487.98000000045,"y":2542084.450000003}},{"attributes":{"ID":65754,"DIS_CODE":0,"TOWNNAME":"東區","LI":"大德里","LIN":"8鄰","STREET":"立德十一路","SECT":" ","MAREA":" ","LANE":" ","ALLEY":" ","HOUSE_NO":"２２號","E_COORD97":169492.23999999999,"N_COORD97":2542085.5099999998,"ADDRESS":"立德十一路２２號","OBJECTID":65754},"geometry":{"x":169492.24000000115,"y":2542085.5100000016}},{"attributes":{"ID":65755,"DIS_CODE":0,"TOWNNAME":"西港區","LI":"慶安里","LIN":" ","STREET":"新興街","SECT":" ","MAREA":" ","LANE":" ","ALLEY":" ","HOUSE_NO":"１０４之３號","E_COORD97":168214.20000000001,"N_COORD97":2558235.25,"ADDRESS":"新興街１０４之３號","OBJECTID":65755},"geometry":{"x":168214.20000000112,"y":2558235.2500000037}},{"attributes":{"ID":65756,"DIS_CODE":0,"TOWNNAME":"西港區","LI":"慶安里","LIN":" ","STREET":"新興街","SECT":" ","MAREA":" ","LANE":" ","ALLEY":" ","HOUSE_NO":"１０８之６號","E_COORD97":168220.14999999999,"N_COORD97":2558273.25,"ADDRESS":"新興街１０８之６號","OBJECTID":65756},"geometry":{"x":168220.1500000013,"y":2558273.2500000019}},{"attributes":{"ID":65757,"DIS_CODE":0,"TOWNNAME":"西港區","LI":"慶安里","LIN":" ","STREET":"新興街","SECT":" ","MAREA":" ","LANE":" ","ALLEY":" ","HOUSE_NO":"１０９號","E_COORD97":168184.72,"N_COORD97":2558197.52,"ADDRESS":"新興街１０９號","OBJECTID":65757},"geometry":{"x":168184.72000000067,"y":2558197.5199999996}},{"attributes":{"ID":65758,"DIS_CODE":0,"TOWNNAME":"西港區","LI":"慶安里","LIN":" ","STREET":"新興街","SECT":" ","MAREA":" ","LANE":" ","ALLEY":" ","HOUSE_NO":"１０之２號","E_COORD97":168233.41,"N_COORD97":2557764.6499999999,"ADDRESS":"新興街１０之２號","OBJECTID":65758},"geometry":{"x":168233.41000000108,"y":2557764.6499999985}},{"attributes":{"ID":65759,"DIS_CODE":0,"TOWNNAME":"西港區","LI":"慶安里","LIN":" ","STREET":"新興街","SECT":" ","MAREA":" ","LANE":" ","ALLEY":" ","HOUSE_NO":"１０號","E_COORD97":168235.42999999999,"N_COORD97":2557756.2599999998,"ADDRESS":"新興街１０號","OBJECTID":65759},"geometry":{"x":168235.42999999877,"y":2557756.2599999998}},{"attributes":{"ID":65760,"DIS_CODE":0,"TOWNNAME":"西港區","LI":"慶安里","LIN":" ","STREET":"新興街","SECT":" ","MAREA":" ","LANE":" ","ALLEY":" ","HOUSE_NO":"１２４號","E_COORD97":168259.13,"N_COORD97":2558536.27,"ADDRESS":"新興街１２４號","OBJECTID":65760},"geometry":{"x":168259.12999999989,"y":2558536.2700000033}},{"attributes":{"ID":65761,"DIS_CODE":0,"TOWNNAME":"西港區","LI":"慶安里","LIN":" ","STREET":"新興街","SECT":" ","MAREA":" ","LANE":" ","ALLEY":" ","HOUSE_NO":"１２９號","E_COORD97":168179.34,"N_COORD97":2558257.4199999999,"ADDRESS":"新興街１２９號","OBJECTID":65761},"geometry":{"x":168179.34000000078,"y":2558257.4200000037}},{"attributes":{"ID":65762,"DIS_CODE":0,"TOWNNAME":"西港區","LI":"慶安里","LIN":" ","STREET":"新興街","SECT":" ","MAREA":" ","LANE":" ","ALLEY":" ","HOUSE_NO":"１５５號","E_COORD97":168200.20000000001,"N_COORD97":2558338.79,"ADDRESS":"新興街１５５號","OBJECTID":65762},"geometry":{"x":168200.19999999925,"y":2558338.7900000028}},{"attributes":{"ID":65763,"DIS_CODE":0,"TOWNNAME":"西港區","LI":"慶安里","LIN":" ","STREET":"新興街","SECT":" ","MAREA":" ","LANE":" ","ALLEY":" ","HOUSE_NO":"２４號","E_COORD97":168208.48999999999,"N_COORD97":2557872.02,"ADDRESS":"新興街２４號","OBJECTID":65763},"geometry":{"x":168208.49000000209,"y":2557872.0199999996}},{"attributes":{"ID":65764,"DIS_CODE":0,"TOWNNAME":"西港區","LI":"慶安里","LIN":" ","STREET":"新興街","SECT":" ","MAREA":" ","LANE":" ","ALLEY":" ","HOUSE_NO":"３８號","E_COORD97":168193.17000000001,"N_COORD97":2557954.6899999999,"ADDRESS":"新興街３８號","OBJECTID":65764},"geometry":{"x":168193.16999999993,"y":2557954.6900000013}},{"attributes":{"ID":65765,"DIS_CODE":0,"TOWNNAME":"西港區","LI":"慶安里","LIN":" ","STREET":"新興街","SECT":" ","MAREA":" ","LANE":" ","ALLEY":" ","HOUSE_NO":"４０號","E_COORD97":168192.62,"N_COORD97":2557958.1400000001,"ADDRESS":"新興街４０號","OBJECTID":65765},"geometry":{"x":168192.62000000104,"y":2557958.1399999987}},{"attributes":{"ID":65766,"DIS_CODE":0,"TOWNNAME":"仁德區","LI":"仁愛里","LIN":"8鄰","STREET":" ","SECT":" ","MAREA":"仁愛","LANE":" ","ALLEY":" ","HOUSE_NO":"１６４號","E_COORD97":170294.019351,"N_COORD97":2539813.665,"ADDRESS":"仁愛１６４號","OBJECTID":65766},"geometry":{"x":170294.01935099997,"y":2539813.665000001}},{"attributes":{"ID":65767,"DIS_CODE":0,"TOWNNAME":"仁德區","LI":"仁愛里","LIN":"8鄰","STREET":" ","SECT":" ","MAREA":"仁愛","LANE":" ","ALLEY":" ","HOUSE_NO":"１５９號","E_COORD97":170279.50729899999,"N_COORD97":2539813.665,"ADDRESS":"仁愛１５９號","OBJECTID":65767},"geometry":{"x":170279.5072990004,"y":2539813.665000001}},{"attributes":{"ID":65768,"DIS_CODE":0,"TOWNNAME":"東區","LI":"大德里","LIN":"8鄰","STREET":"立德十一路","SECT":" ","MAREA":" ","LANE":" ","ALLEY":" ","HOUSE_NO":"２４號","E_COORD97":169497.20999999999,"N_COORD97":2542083.3900000001,"ADDRESS":"立德十一路２４號","OBJECTID":65768},"geometry":{"x":169497.21000000089,"y":2542083.3900000025}},{"attributes":{"ID":65769,"DIS_CODE":0,"TOWNNAME":"東區","LI":"大德里","LIN":"8鄰","STREET":"立德十一路","SECT":" ","MAREA":" ","LANE":" ","ALLEY":" ","HOUSE_NO":"２６號","E_COORD97":169503.60000000001,"N_COORD97":2542088.3500000001,"ADDRESS":"立德十一路２６號","OBJECTID":65769},"geometry":{"x":169503.59999999963,"y":2542088.3499999996}},{"attributes":{"ID":65770,"DIS_CODE":0,"TOWNNAME":"大內區","LI":"二溪里","LIN":"1鄰","STREET":" ","SECT":" ","MAREA":"二重溪","LANE":" ","ALLEY":" ","HOUSE_NO":"１２４號之１","E_COORD97":187479.67999999999,"N_COORD97":2557828.3100000001,"ADDRESS":"二重溪１２４號之１","OBJECTID":65770},"geometry":{"x":187479.68000000063,"y":2557828.3100000042}},{"attributes":{"ID":65771,"DIS_CODE":0,"TOWNNAME":"大內區","LI":"大內里","LIN":"1鄰","STREET":" ","SECT":" ","MAREA":"內庄","LANE":" ","ALLEY":" ","HOUSE_NO":"７號之２４","E_COORD97":184444.98999999999,"N_COORD97":2557561.2999999998,"ADDRESS":"內庄７號之２４","OBJECTID":65771},"geometry":{"x":184444.99000000209,"y":2557561.3000000026}},{"attributes":{"ID":65772,"DIS_CODE":0,"TOWNNAME":"大內區","LI":"內郭里","LIN":"1鄰","STREET":" ","SECT":" ","MAREA":"內庄","LANE":" ","ALLEY":" ","HOUSE_NO":"１６０之８號","E_COORD97":185050.17999999999,"N_COORD97":2557328.2999999998,"ADDRESS":"內庄１６０之８號","OBJECTID":65772},"geometry":{"x":185050.18000000156,"y":2557328.3000000026}},{"attributes":{"ID":65773,"DIS_CODE":0,"TOWNNAME":"大內區","LI":"二溪里","LIN":"1鄰","STREET":" ","SECT":" ","MAREA":"二重溪","LANE":" ","ALLEY":" ","HOUSE_NO":"１２７號之２","E_COORD97":187535.60999999999,"N_COORD97":2557747.3100000001,"ADDRESS":"二重溪１２７號之２","OBJECTID":65773},"geometry":{"x":187535.61000000034,"y":2557747.3100000024}},{"attributes":{"ID":65774,"DIS_CODE":0,"TOWNNAME":"西港區","LI":"慶安里","LIN":" ","STREET":"新興街","SECT":" ","MAREA":" ","LANE":" ","ALLEY":" ","HOUSE_NO":"６２號","E_COORD97":168203.28,"N_COORD97":2558027.4900000002,"ADDRESS":"新興街６２號","OBJECTID":65774},"geometry":{"x":168203.28000000212,"y":2558027.4900000021}},{"attributes":{"ID":65775,"DIS_CODE":0,"TOWNNAME":"大內區","LI":"大內里","LIN":"1鄰","STREET":" ","SECT":" ","MAREA":"內庄","LANE":" ","ALLEY":" ","HOUSE_NO":"７號之１０","E_COORD97":184417.51999999999,"N_COORD97":2557567.29,"ADDRESS":"內庄７號之１０","OBJECTID":65775},"geometry":{"x":184417.52000000048,"y":2557567.290000001}},{"attributes":{"ID":65776,"DIS_CODE":0,"TOWNNAME":"大內區","LI":"內郭里","LIN":"1鄰","STREET":" ","SECT":" ","MAREA":"內庄","LANE":" ","ALLEY":" ","HOUSE_NO":"１５２號","E_COORD97":184852.07999999999,"N_COORD97":2557441.25,"ADDRESS":"內庄１５２號","OBJECTID":65776},"geometry":{"x":184852.08000000007,"y":2557441.25}},{"attributes":{"ID":65777,"DIS_CODE":0,"TOWNNAME":"大內區","LI":"大內里","LIN":"1鄰","STREET":" ","SECT":" ","MAREA":"內庄","LANE":" ","ALLEY":" ","HOUSE_NO":"７號之８","E_COORD97":184412.66,"N_COORD97":2557579.2999999998,"ADDRESS":"內庄７號之８","OBJECTID":65777},"geometry":{"x":184412.66000000015,"y":2557579.3000000026}},{"attributes":{"ID":65778,"DIS_CODE":0,"TOWNNAME":"大內區","LI":"石林里","LIN":"1鄰","STREET":" ","SECT":" ","MAREA":"石子瀨","LANE":" ","ALLEY":" ","HOUSE_NO":"１３４號","E_COORD97":183984.37,"N_COORD97":2558095.25,"ADDRESS":"石子瀨１３４號","OBJECTID":65778},"geometry":{"x":183984.37000000011,"y":2558095.25}},{"attributes":{"ID":65779,"DIS_CODE":0,"TOWNNAME":"大內區","LI":"大內里","LIN":"1鄰","STREET":" ","SECT":" ","MAREA":"內庄","LANE":" ","ALLEY":" ","HOUSE_NO":"６號之８","E_COORD97":184373.16,"N_COORD97":2557638.2999999998,"ADDRESS":"內庄６號之８","OBJECTID":65779},"geometry":{"x":184373.16000000108,"y":2557638.3000000007}},{"attributes":{"ID":65780,"DIS_CODE":0,"TOWNNAME":"大內區","LI":"大內里","LIN":"1鄰","STREET":" ","SECT":" ","MAREA":"內庄","LANE":" ","ALLEY":" ","HOUSE_NO":"７號之１２","E_COORD97":184425.79999999999,"N_COORD97":2557575.2999999998,"ADDRESS":"內庄７號之１２","OBJECTID":65780},"geometry":{"x":184425.80000000075,"y":2557575.3000000026}},{"attributes":{"ID":65781,"DIS_CODE":0,"TOWNNAME":"大內區","LI":"大內里","LIN":"1鄰","STREET":" ","SECT":" ","MAREA":"內庄","LANE":" ","ALLEY":" ","HOUSE_NO":"７號之６","E_COORD97":184420.22,"N_COORD97":2557585.2999999998,"ADDRESS":"內庄７號之６","OBJECTID":65781},"geometry":{"x":184420.21999999974,"y":2557585.3000000026}},{"attributes":{"ID":65782,"DIS_CODE":0,"TOWNNAME":"大內區","LI":"大內里","LIN":"1鄰","STREET":" ","SECT":" ","MAREA":"內庄","LANE":" ","ALLEY":" ","HOUSE_NO":"６號之６","E_COORD97":184394.32000000001,"N_COORD97":2557633.2999999998,"ADDRESS":"內庄６號之６","OBJECTID":65782},"geometry":{"x":184394.32000000123,"y":2557633.3000000026}},{"attributes":{"ID":65783,"DIS_CODE":0,"TOWNNAME":"安南區","LI":"溪心里","LIN":"6鄰","STREET":"本原街","SECT":"二段","MAREA":" ","LANE":"１１６巷","ALLEY":"３７弄","HOUSE_NO":"２之１號","E_COORD97":166736.17000000001,"N_COORD97":2550914.5,"ADDRESS":"本原街二段１１６巷３７弄２之１號","OBJECTID":65783},"geometry":{"x":166736.17000000086,"y":2550914.5000000019}},{"attributes":{"ID":65784,"DIS_CODE":0,"TOWNNAME":"鹽水區","LI":"大莊里","LIN":"6鄰","STREET":" ","SECT":" ","MAREA":"大莊","LANE":" ","ALLEY":" ","HOUSE_NO":"４４號","E_COORD97":172810.23000000001,"N_COORD97":2576825,"ADDRESS":"大莊４４號","OBJECTID":65784},"geometry":{"x":172810.23000000138,"y":2576825}},{"attributes":{"ID":65785,"DIS_CODE":0,"TOWNNAME":"中西區","LI":"銀同里","LIN":"6鄰","STREET":"開山路","SECT":" ","MAREA":" ","LANE":"３５巷","ALLEY":"３９弄","HOUSE_NO":"１１號","E_COORD97":168788,"N_COORD97":2543423.6899999999,"ADDRESS":"開山路３５巷３９弄１１號","OBJECTID":65785},"geometry":{"x":168788.00000000186,"y":2543423.6900000013}},{"attributes":{"ID":65786,"DIS_CODE":0,"TOWNNAME":"中西區","LI":"銀同里","LIN":"6鄰","STREET":"開山路","SECT":" ","MAREA":" ","LANE":"３５巷","ALLEY":"３９弄","HOUSE_NO":"１號之１","E_COORD97":168742.48000000001,"N_COORD97":2543449.6200000001,"ADDRESS":"開山路３５巷３９弄１號之１","OBJECTID":65786},"geometry":{"x":168742.48000000045,"y":2543449.6200000029}},{"attributes":{"ID":65787,"DIS_CODE":0,"TOWNNAME":"中西區","LI":"銀同里","LIN":"6鄰","STREET":"開山路","SECT":" ","MAREA":" ","LANE":"３５巷","ALLEY":"３９弄","HOUSE_NO":"１號之２","E_COORD97":168753.75,"N_COORD97":2543448.2799999998,"ADDRESS":"開山路３５巷３９弄１號之２","OBJECTID":65787},"geometry":{"x":168753.75,"y":2543448.2799999993}},{"attributes":{"ID":65788,"DIS_CODE":0,"TOWNNAME":"中西區","LI":"銀同里","LIN":"6鄰","STREET":"開山路","SECT":" ","MAREA":" ","LANE":"３５巷","ALLEY":"３９弄","HOUSE_NO":"１號之３","E_COORD97":168745.04999999999,"N_COORD97":2543449.0600000001,"ADDRESS":"開山路３５巷３９弄１號之３","OBJECTID":65788},"geometry":{"x":168745.05000000168,"y":2543449.0600000024}},{"attributes":{"ID":65789,"DIS_CODE":0,"TOWNNAME":"中西區","LI":"銀同里","LIN":"6鄰","STREET":"開山路","SECT":" ","MAREA":" ","LANE":"３５巷","ALLEY":"３９弄","HOUSE_NO":"１號之４","E_COORD97":168747.95000000001,"N_COORD97":2543449.8399999999,"ADDRESS":"開山路３５巷３９弄１號之４","OBJECTID":65789},"geometry":{"x":168747.95000000205,"y":2543449.8400000017}},{"attributes":{"ID":65790,"DIS_CODE":0,"TOWNNAME":"中西區","LI":"銀同里","LIN":"6鄰","STREET":"開山路","SECT":" ","MAREA":" ","LANE":"３５巷","ALLEY":"３９弄","HOUSE_NO":"５號","E_COORD97":168763.89999999999,"N_COORD97":2543443.4900000002,"ADDRESS":"開山路３５巷３９弄５號","OBJECTID":65790},"geometry":{"x":168763.9000000013,"y":2543443.4900000002}},{"attributes":{"ID":65791,"DIS_CODE":0,"TOWNNAME":"中西區","LI":"銀同里","LIN":"6鄰","STREET":"開山路","SECT":" ","MAREA":" ","LANE":"３５巷","ALLEY":"３９弄","HOUSE_NO":"７號","E_COORD97":168768.14000000001,"N_COORD97":2543438.5800000001,"ADDRESS":"開山路３５巷３９弄７號","OBJECTID":65791},"geometry":{"x":168768.14000000153,"y":2543438.5800000019}},{"attributes":{"ID":65792,"DIS_CODE":0,"TOWNNAME":"安南區","LI":"新順里","LIN":"6鄰","STREET":"安生街","SECT":" ","MAREA":" ","LANE":"１６０巷","ALLEY":"１９弄","HOUSE_NO":"４號","E_COORD97":169375.29000000001,"N_COORD97":2549605.4900000002,"ADDRESS":"安生街１６０巷１９弄４號","OBJECTID":65792},"geometry":{"x":169375.29000000004,"y":2549605.4900000021}},{"attributes":{"ID":65793,"DIS_CODE":0,"TOWNNAME":"安南區","LI":"總頭里","LIN":"6鄰","STREET":"長溪路","SECT":"二段","MAREA":" ","LANE":"５７０巷","ALLEY":"３１弄","HOUSE_NO":"５號","E_COORD97":168336.17999999999,"N_COORD97":2550625.6600000001,"ADDRESS":"長溪路二段５７０巷３１弄５號","OBJECTID":65793},"geometry":{"x":168336.18000000063,"y":2550625.660000002}},{"attributes":{"ID":65794,"DIS_CODE":0,"TOWNNAME":"安南區","LI":"總頭里","LIN":"6鄰","STREET":"長溪路","SECT":"二段","MAREA":" ","LANE":"５７０巷","ALLEY":"２３弄","HOUSE_NO":"６號","E_COORD97":168323.97,"N_COORD97":2550633.3300000001,"ADDRESS":"長溪路二段５７０巷２３弄６號","OBJECTID":65794},"geometry":{"x":168323.97000000067,"y":2550633.3300000038}},{"attributes":{"ID":65795,"DIS_CODE":0,"TOWNNAME":"安南區","LI":"總頭里","LIN":"6鄰","STREET":"長溪路","SECT":"二段","MAREA":" ","LANE":"５７０巷","ALLEY":"２３弄","HOUSE_NO":"１２號","E_COORD97":168319.45000000001,"N_COORD97":2550661.77,"ADDRESS":"長溪路二段５７０巷２３弄１２號","OBJECTID":65795},"geometry":{"x":168319.45000000112,"y":2550661.7700000014}},{"attributes":{"ID":65796,"DIS_CODE":0,"TOWNNAME":"永康區","LI":"崑山里","LIN":"6鄰","STREET":"崑大路","SECT":" ","MAREA":" ","LANE":"１５５巷","ALLEY":"８５弄","HOUSE_NO":"１０號","E_COORD97":173629.14000000001,"N_COORD97":2544022.6400000001,"ADDRESS":"崑大路１５５巷８５弄１０號","OBJECTID":65796},"geometry":{"x":173629.13999999966,"y":2544022.6400000006}},{"attributes":{"ID":65797,"DIS_CODE":0,"TOWNNAME":"永康區","LI":"崑山里","LIN":"6鄰","STREET":"崑大路","SECT":" ","MAREA":" ","LANE":"１５５巷","ALLEY":"８５弄","HOUSE_NO":"１８號","E_COORD97":173649,"N_COORD97":2544029.3900000001,"ADDRESS":"崑大路１５５巷８５弄１８號","OBJECTID":65797},"geometry":{"x":173649,"y":2544029.3900000025}},{"attributes":{"ID":65798,"DIS_CODE":0,"TOWNNAME":"永康區","LI":"崑山里","LIN":"6鄰","STREET":"崑大路","SECT":" ","MAREA":" ","LANE":"１５５巷","ALLEY":"８５弄","HOUSE_NO":"２號","E_COORD97":173609.67000000001,"N_COORD97":2544017.1299999999,"ADDRESS":"崑大路１５５巷８５弄２號","OBJECTID":65798},"geometry":{"x":173609.67000000179,"y":2544017.1300000008}},{"attributes":{"ID":65799,"DIS_CODE":0,"TOWNNAME":"東區","LI":"大德里","LIN":"8鄰","STREET":"立德十一路","SECT":" ","MAREA":" ","LANE":" ","ALLEY":" ","HOUSE_NO":"６０號","E_COORD97":169551.89000000001,"N_COORD97":2542091.54,"ADDRESS":"立德十一路６０號","OBJECTID":65799},"geometry":{"x":169551.8900000006,"y":2542091.540000001}},{"attributes":{"ID":65800,"DIS_CODE":0,"TOWNNAME":"東區","LI":"大德里","LIN":"8鄰","STREET":"立德十一路","SECT":" ","MAREA":" ","LANE":" ","ALLEY":" ","HOUSE_NO":"６４號","E_COORD97":169560.76999999999,"N_COORD97":2542092.96,"ADDRESS":"立德十一路６４號","OBJECTID":65800},"geometry":{"x":169560.77000000048,"y":2542092.9600000046}}]}